{"tileId":"-1:-79","version":"v1-bootstrap","entries":[{"id":"ECUADOR_ANTISANA_-4810_-781410","kind":"peak","name":"Antisana","lat":-0.481,"lon":-78.141,"elevationM":5},{"id":"ECUADOR_CORAZ_N_-5312_-786597","kind":"peak","name":"Corazón","lat":-0.531199,"lon":-78.659706,"elevationM":4790},{"id":"ECUADOR_COTOPAXI_-6806_-784378","kind":"peak","name":"Cotopaxi","lat":-0.680556,"lon":-78.437778,"elevationM":5897},{"id":"ECUADOR_GUAGUA_PICHINCHA_-1771_-785988","kind":"peak","name":"Guagua Pichincha","lat":-0.177068,"lon":-78.598766,"elevationM":4784},{"id":"ECUADOR_ILINIZA_SUR_-6594_-787136","kind":"peak","name":"Iliniza Sur","lat":-0.659444,"lon":-78.713611,"elevationM":5248},{"id":"ECUADOR_RUCU_PICHINCHA_-1717_-785990","kind":"peak","name":"Rucu Pichincha","lat":-0.171661,"lon":-78.598981,"elevationM":4698},{"id":"ECUADOR_SINCHOLAGUA_-5385_-783679","kind":"peak","name":"Sincholagua","lat":-0.538494,"lon":-78.367882,"elevationM":4893}]}