{"tileKey":"la_m20_lo_m58","version":"v1-1775891056926","entries":[{"id":"node:2899911615","kind":"peak","name":"Morrinho","lat":-19.461897,"lon":-57.4145104,"elevationM":null},{"id":"node:2899911616","kind":"peak","name":"Morro da Onça","lat":-19.884594,"lon":-57.7830955,"elevationM":null},{"id":"node:5273988933","kind":"peak","name":"Maciço do Urucum","lat":-19.2019056,"lon":-57.5923701,"elevationM":1065},{"id":"node:6426063404","kind":"peak","name":"Cerro San Pedrito","lat":-19.1292229,"lon":-57.8470237,"elevationM":null},{"id":"node:6426100514","kind":"peak","name":"Cerro San Juan","lat":-19.2520663,"lon":-57.9431506,"elevationM":null},{"id":"node:6426100515","kind":"peak","name":"Cerro Carrea","lat":-19.2407571,"lon":-57.9243988,"elevationM":null},{"id":"node:7897102868","kind":"peak","name":"Morro Bocaina","lat":-19.0330729,"lon":-57.633698,"elevationM":430},{"id":"node:7897102871","kind":"peak","name":"Pico do Corumbá","lat":-19.0288536,"lon":-57.6495982,"elevationM":252},{"id":"node:7897102872","kind":"peak","name":"Morro do Bandeira","lat":-19.0242691,"lon":-57.6656056,"elevationM":267},{"id":"node:7897102875","kind":"peak","name":"Morro do Pimenta","lat":-19.0457908,"lon":-57.6960325,"elevationM":311},{"id":"node:11136992395","kind":"peak","name":"Morro São Felipe","lat":-19.0187579,"lon":-57.6400965,"elevationM":null}]}