{"tileKey":"la_m21_lo_p120","version":"v1-1775891056926","entries":[{"id":"node:3020139940","kind":"peak","name":"Black Hill","lat":-20.53695,"lon":120.01249,"elevationM":null},{"id":"node:3020140232","kind":"peak","name":"Five Mile Hill","lat":-20.95505,"lon":120.19917,"elevationM":348},{"id":"node:3020140880","kind":"peak","name":"Mount Cecelia","lat":-20.7767,"lon":120.99446,"elevationM":290},{"id":"node:3020142145","kind":"peak","name":"Shay Gap Mine","lat":-20.50113,"lon":120.11138,"elevationM":null},{"id":"node:3020142514","kind":"peak","name":"White Quartz Hill","lat":-20.68528,"lon":120.36316,"elevationM":132}]}