{"tileKey":"la_m23_lo_p119","version":"v1-1775891056926","entries":[{"id":"node:3020140048","kind":"peak","name":"Cave Hill","lat":-22.116822,"lon":119.9666192,"elevationM":null},{"id":"node:3020140751","kind":"peak","name":"Minderungumya Hill","lat":-22.03551,"lon":119.8078,"elevationM":null},{"id":"node:3020141350","kind":"peak","name":"Mount Marsh","lat":-22.4938195,"lon":119.2156918,"elevationM":411},{"id":"node:3020142084","kind":"peak","name":"Red Hill","lat":-22.0398,"lon":119.44093,"elevationM":null},{"id":"node:3020142126","kind":"peak","name":"Roy Hill","lat":-22.6035,"lon":119.95445,"elevationM":421},{"id":"node:3020142255","kind":"peak","name":"The Three Sisters","lat":-22.72124,"lon":119.1328,"elevationM":null},{"id":"node:3020142256","kind":"peak","name":"The Three Sisters","lat":-22.72752,"lon":119.13529,"elevationM":783},{"id":"node:3020142257","kind":"peak","name":"The Three Sisters","lat":-22.73584,"lon":119.14181,"elevationM":null}]}