{"tileKey":"la_m19_lo_p24","version":"v1-1775891056926","entries":[{"id":"node:4185770790","kind":"peak","name":"Leopard Rock","lat":-18.61319,"lon":24.0586874,"elevationM":null},{"id":"node:5202386769","kind":"peak","name":"Cave Hill","lat":-18.5727923,"lon":24.0976523,"elevationM":null},{"id":"node:5202386770","kind":"peak","name":"Quarry Hill","lat":-18.5584417,"lon":24.1043472,"elevationM":null},{"id":"node:5202386892","kind":"peak","name":"Kudu Hills","lat":-18.5777082,"lon":24.07894,"elevationM":null},{"id":"node:5202386897","kind":"peak","name":"Twin Hills","lat":-18.60997,"lon":24.06641,"elevationM":null},{"id":"node:5202386913","kind":"peak","name":"Sable Hill","lat":-18.5855477,"lon":24.0709939,"elevationM":null},{"id":"node:11174303570","kind":"peak","name":"Poqwer pole","lat":-18.0758651,"lon":24.0186978,"elevationM":8}]}