{"tileKey":"la_m31_lo_m57","version":"v1-1775891056926","entries":[{"id":"node:2635282637","kind":"peak","name":"Cerro Sepulturas","lat":-30.856987,"lon":-56.0352134,"elevationM":null},{"id":"node:2635282640","kind":"peak","name":"Cerro de Mauricio","lat":-30.9093015,"lon":-56.119008,"elevationM":null},{"id":"node:2635282644","kind":"peak","name":"Cerro de la Burra","lat":-30.9127996,"lon":-56.0626908,"elevationM":null},{"id":"node:2635282647","kind":"peak","name":"Cerro del Marco","lat":-30.890653,"lon":-56.1270351,"elevationM":null},{"id":"node:2640192954","kind":"peak","name":"Cerro Pintado","lat":-30.4736974,"lon":-56.4211631,"elevationM":null},{"id":"node:3573278721","kind":"peak","name":"Cerro do Jarau","lat":-30.1893682,"lon":-56.5001499,"elevationM":308},{"id":"node:6086829387","kind":"peak","name":"Cerro do Carvão","lat":-30.0805323,"lon":-56.0133649,"elevationM":192},{"id":"node:12865713293","kind":"peak","name":"Cerro de la Tapera","lat":-30.9996831,"lon":-56.4646197,"elevationM":221},{"id":"node:12865713294","kind":"peak","name":"Cerro Higueritas","lat":-30.9864393,"lon":-56.4860344,"elevationM":224},{"id":"node:12865758180","kind":"peak","name":"Cerro Negro","lat":-30.9430162,"lon":-56.5293575,"elevationM":276},{"id":"node:12865759712","kind":"peak","name":"Cerro del Carancho","lat":-30.9685517,"lon":-56.7814049,"elevationM":210}]}