{"tileKey":"la_m1_lo_p99","version":"v1-1775891056926","entries":[{"id":"node:1070155058","kind":"peak","name":"Bukit Sungkai","lat":-0.119737,"lon":99.991753,"elevationM":null},{"id":"node:1070164101","kind":"peak","name":"Gunung Panji","lat":-0.247521,"lon":99.846786,"elevationM":null},{"id":"node:1070166969","kind":"peak","name":"Bukit Ujungrajo","lat":-0.160894,"lon":99.77148,"elevationM":null},{"id":"node:1070170721","kind":"peak","name":"Bukit Masang","lat":-0.26659,"lon":99.883035,"elevationM":null},{"id":"node:1070171540","kind":"peak","name":"Gunung Labuhan","lat":-0.255785,"lon":99.836811,"elevationM":null},{"id":"node:1070176854","kind":"peak","name":"Bukit Batuapung","lat":-0.352095,"lon":99.997871,"elevationM":null},{"id":"node:1070177205","kind":"peak","name":"Gunung Antokan","lat":-0.287244,"lon":99.869078,"elevationM":null}]}