{"tileKey":"la_m38_lo_p177","version":"v1-1775891056926","entries":[{"id":"node:253764066","kind":"volcano","name":"Te Puia o Whakaari","lat":-37.522024,"lon":177.1854902,"elevationM":321},{"id":"node:1225228205","kind":"peak","name":"Ngātoro Peak","lat":-37.516537,"lon":177.1772941,"elevationM":310},{"id":"node:1918590908","kind":"peak","name":"Paparinga","lat":-37.5447325,"lon":177.9864093,"elevationM":295},{"id":"node:1918590910","kind":"peak","name":"Tikirau","lat":-37.5502439,"lon":177.9915789,"elevationM":378},{"id":"node:4957844698","kind":"peak","name":"Tapuaeharuru","lat":-37.6090972,"lon":177.9863911,"elevationM":325},{"id":"node:4957844699","kind":"peak","name":"Tūtaewhakapiki","lat":-37.6302863,"lon":177.9750561,"elevationM":396},{"id":"node:4957849103","kind":"peak","name":"Mangairoa","lat":-37.6818875,"lon":177.9782127,"elevationM":495},{"id":"node:4957849104","kind":"peak","name":"Tipari","lat":-37.645228,"lon":177.9895037,"elevationM":373},{"id":"node:4957849105","kind":"peak","name":"Pukepoto","lat":-37.7363643,"lon":177.9626881,"elevationM":252},{"id":"node:4957849107","kind":"peak","name":"Kapua","lat":-37.9814832,"lon":177.916848,"elevationM":1467},{"id":"node:4957849109","kind":"peak","name":"Te Ranganuiatoi","lat":-37.8200562,"lon":177.9871863,"elevationM":1005},{"id":"node:4957849114","kind":"peak","name":"Whanokao","lat":-37.8449689,"lon":177.9722947,"elevationM":1428},{"id":"node:4957849115","kind":"peak","name":"Puketauhinu","lat":-37.8837821,"lon":177.9351364,"elevationM":1475},{"id":"node:4957849116","kind":"peak","name":"Potts Peak","lat":-37.84199,"lon":177.9645656,"elevationM":1405},{"id":"node:6266898640","kind":"peak","name":"Mount Percival","lat":-37.5175641,"lon":177.1826759,"elevationM":283},{"id":"node:6266898641","kind":"peak","name":"Mount Gisborne","lat":-37.5197657,"lon":177.1787888,"elevationM":321},{"id":"node:7027893181","kind":"peak","name":"Tukauki","lat":-37.9979631,"lon":177.7049026,"elevationM":511},{"id":"node:7027942803","kind":"peak","name":"Opeitiki","lat":-37.9682892,"lon":177.7256155,"elevationM":922},{"id":"node:7816904267","kind":"peak","name":"Pehitairi","lat":-37.9349574,"lon":177.4914908,"elevationM":170},{"id":"node:7816912050","kind":"peak","name":"Tarakeha","lat":-37.9727057,"lon":177.4307431,"elevationM":159},{"id":"node:7857956645","kind":"peak","name":"Karirangi","lat":-37.6855482,"lon":177.8039778,"elevationM":213},{"id":"node:7857956646","kind":"peak","name":"Waimanu","lat":-37.6909289,"lon":177.8243711,"elevationM":503},{"id":"node:7857969394","kind":"peak","name":"Hereheretaunga","lat":-37.7332448,"lon":177.8084052,"elevationM":785},{"id":"node:7857969395","kind":"peak","name":"Puangiangi","lat":-37.7034928,"lon":177.8162524,"elevationM":663},{"id":"node:7857969396","kind":"peak","name":"Rangipoua","lat":-37.8246415,"lon":177.7686789,"elevationM":1040},{"id":"node:7857969399","kind":"peak","name":"Oariki","lat":-37.8481227,"lon":177.596547,"elevationM":245},{"id":"node:7857997307","kind":"peak","name":"Rakaukatihi","lat":-37.9061634,"lon":177.55598,"elevationM":347},{"id":"node:7857997308","kind":"peak","name":"Parinui","lat":-37.8860601,"lon":177.5561946,"elevationM":224},{"id":"node:7857997309","kind":"peak","name":"Rakaukatihi","lat":-37.9061485,"lon":177.5559863,"elevationM":347},{"id":"node:7857997310","kind":"peak","name":"Whetu","lat":-37.9373705,"lon":177.5560614,"elevationM":436},{"id":"node:9748246685","kind":"peak","name":"Te Whiorau","lat":-37.9443542,"lon":177.5219806,"elevationM":415},{"id":"node:9748284853","kind":"peak","name":"Pukepapa","lat":-37.8800205,"lon":177.5905958,"elevationM":274},{"id":"node:9748379918","kind":"peak","name":"Otaitapu","lat":-37.9261941,"lon":177.6174436,"elevationM":518},{"id":"node:9748429840","kind":"peak","name":"Te Ipuhinu","lat":-37.9257601,"lon":177.5890139,"elevationM":381},{"id":"node:9748468351","kind":"peak","name":"Te Upokookohu","lat":-37.9691389,"lon":177.5545254,"elevationM":549},{"id":"node:9748468352","kind":"peak","name":"Ngakupenga","lat":-37.9579138,"lon":177.6295697,"elevationM":730},{"id":"node:9748468353","kind":"peak","name":"Paraumu","lat":-37.9647134,"lon":177.594279,"elevationM":632},{"id":"node:9748468354","kind":"peak","name":"Titinui","lat":-37.9568664,"lon":177.5927757,"elevationM":579},{"id":"node:9784827546","kind":"peak","name":"Te Ranginui","lat":-37.6437824,"lon":177.9436182,"elevationM":402},{"id":"node:9786783991","kind":"peak","name":"Whakaahuru","lat":-37.6739068,"lon":177.9015919,"elevationM":251},{"id":"node:9891250695","kind":"peak","name":"Pukeiahonoa","lat":-37.9874818,"lon":177.6074554,"elevationM":701},{"id":"node:10172974156","kind":"peak","name":"Purahotakaha","lat":-37.9080586,"lon":177.7744369,"elevationM":1067},{"id":"node:10251656785","kind":"peak","name":"Otarapaoa","lat":-37.6675781,"lon":177.9716264,"elevationM":472},{"id":"node:10299921552","kind":"volcano","name":"Calypso Vents","lat":-37.6873979,"lon":177.1231518,"elevationM":null},{"id":"node:10706456514","kind":"peak","name":"Taurangakoua","lat":-37.848261,"lon":177.659791,"elevationM":556},{"id":"node:10706456515","kind":"peak","name":"Otamakanohi","lat":-37.870444,"lon":177.617028,"elevationM":206},{"id":"node:10706456516","kind":"peak","name":"Pukehou","lat":-37.944885,"lon":177.652762,"elevationM":975},{"id":"node:10706456517","kind":"peak","name":"Puketoetoe","lat":-37.959111,"lon":177.674583,"elevationM":null},{"id":"node:10706456518","kind":"peak","name":"Puhikereru","lat":-37.981983,"lon":177.711568,"elevationM":960},{"id":"node:10706456527","kind":"peak","name":"Oroi","lat":-37.981028,"lon":177.456889,"elevationM":null},{"id":"node:10706456528","kind":"peak","name":"Te Karaka","lat":-37.961127,"lon":177.748939,"elevationM":472},{"id":"node:10706456529","kind":"peak","name":"Pukerimu","lat":-37.806028,"lon":177.844167,"elevationM":null},{"id":"node:10706456530","kind":"peak","name":"Ngahore","lat":-37.785158,"lon":177.799691,"elevationM":836},{"id":"node:10706456531","kind":"peak","name":"Te Paraua","lat":-37.670636,"lon":177.824763,"elevationM":369},{"id":"node:10706456532","kind":"peak","name":"Puketawai","lat":-37.744467,"lon":177.948481,"elevationM":793},{"id":"node:10706456533","kind":"peak","name":"Kaikōura","lat":-37.746002,"lon":177.906551,"elevationM":884},{"id":"node:10706456534","kind":"peak","name":"Wharehinu","lat":-37.804934,"lon":177.910846,"elevationM":944},{"id":"node:10706456539","kind":"peak","name":"Maungaroa","lat":-37.781222,"lon":177.668972,"elevationM":null}]}