{"tileKey":"la_m14_lo_p49","version":"v1-1775891056926","entries":[{"id":"node:2461534311","kind":"peak","name":"Anjanaharibe","lat":-13.6181551,"lon":49.593609,"elevationM":1190},{"id":"node:2461534314","kind":"peak","name":"Beamalona","lat":-13.3735028,"lon":49.3151652,"elevationM":null},{"id":"node:2461534339","kind":"peak","name":"Tsaravo","lat":-13.6995359,"lon":49.1718729,"elevationM":530},{"id":"node:2461534387","kind":"peak","name":"Vondrony","lat":-13.7875935,"lon":49.866682,"elevationM":null},{"id":"node:2461534390","kind":"peak","name":"Zarambavy","lat":-13.7656623,"lon":49.1601873,"elevationM":880},{"id":"node:2461534391","kind":"peak","name":"Zarandahy","lat":-13.7413716,"lon":49.1370919,"elevationM":490},{"id":"node:2461869831","kind":"peak","name":"Andohaniandranomena","lat":-13.9841861,"lon":49.1407859,"elevationM":2080}]}