{"tileKey":"la_m28_lo_p15","version":"v1-1775891056926","entries":[{"id":"node:12182274384","kind":"peak","name":"Boegoeberg","lat":-27.904848,"lon":15.9369481,"elevationM":578},{"id":"node:12182274385","kind":"peak","name":"Swartkop","lat":-27.4150242,"lon":15.524531,"elevationM":293},{"id":"node:12182274386","kind":"peak","name":"Namitsis","lat":-27.4582862,"lon":15.8612384,"elevationM":774},{"id":"node:12182274387","kind":"peak","name":"Heioab","lat":-27.4178516,"lon":15.9846,"elevationM":1121},{"id":"node:12182274388","kind":"peak","name":"Letzter","lat":-27.6360487,"lon":15.8246031,"elevationM":407},{"id":"node:12182274389","kind":"peak","name":"Monsoon","lat":-27.541312,"lon":15.8532528,"elevationM":565},{"id":"node:12182274390","kind":"peak","name":"Maltitz","lat":-27.5451378,"lon":15.676855,"elevationM":409},{"id":"node:12190830701","kind":"peak","name":"Grosse Münzenberg","lat":-27.0119289,"lon":15.7279854,"elevationM":720},{"id":"node:12190830702","kind":"peak","name":"Kleine Münzenberg","lat":-27.0047892,"lon":15.7186787,"elevationM":678},{"id":"node:12190830703","kind":"peak","name":"Roterberg","lat":-27.0641786,"lon":15.5888923,"elevationM":605},{"id":"node:12190830704","kind":"peak","name":"Bockberg","lat":-27.0723761,"lon":15.516824,"elevationM":555},{"id":"node:12190830705","kind":"peak","name":"Jagdkuppen","lat":-27.0717741,"lon":15.7902148,"elevationM":731},{"id":"node:12190830706","kind":"peak","name":"Glatze","lat":-27.1049128,"lon":15.9657757,"elevationM":1059},{"id":"node:12190830707","kind":"peak","name":"Numitsoab","lat":-27.1180507,"lon":15.9810405,"elevationM":1011},{"id":"node:12190830708","kind":"peak","name":"Tsabiams","lat":-27.1676429,"lon":15.6339878,"elevationM":832},{"id":"node:12190830709","kind":"peak","name":"Höchster","lat":-27.3070865,"lon":15.8237588,"elevationM":1114},{"id":"node:12190830710","kind":"peak","name":"Klinghardtberge","lat":-27.2859213,"lon":15.75373,"elevationM":949},{"id":"node:12190830712","kind":"peak","name":"Namiams","lat":-27.3799624,"lon":15.9349865,"elevationM":913},{"id":"node:12190830713","kind":"peak","name":"Broodkop","lat":-27.4013499,"lon":15.6839475,"elevationM":661},{"id":"node:12190830714","kind":"peak","name":"Granietberg","lat":-27.3264758,"lon":15.3833076,"elevationM":252},{"id":"node:12190830715","kind":"peak","name":"Tafelberg","lat":-27.2693479,"lon":15.3823726,"elevationM":214},{"id":"node:12190830716","kind":"peak","name":"Gabis","lat":-27.1747999,"lon":15.4790256,"elevationM":518},{"id":"node:12190830717","kind":"peak","name":"Schwarzerberg","lat":-27.1451496,"lon":15.4207035,"elevationM":323},{"id":"node:12190830718","kind":"peak","name":"Drachenberg","lat":-27.086796,"lon":15.4206948,"elevationM":435},{"id":"node:12190830719","kind":"peak","name":"Dreizackberg","lat":-27.0163153,"lon":15.4021136,"elevationM":463},{"id":"node:13096998458","kind":"peak","name":"Vohsenberg","lat":-27.6854838,"lon":15.5225163,"elevationM":30},{"id":"node:13097012305","kind":"peak","name":"Sholtzberg","lat":-27.6699204,"lon":15.5454306,"elevationM":64},{"id":"node:13098870323","kind":"peak","name":"Spitzkuppe Nord","lat":-27.272485,"lon":15.7424886,"elevationM":864},{"id":"node:13098870326","kind":"peak","name":"Sonntag","lat":-27.3736481,"lon":15.7721054,"elevationM":735},{"id":"node:13098870327","kind":"peak","name":"Spitzkuppe South","lat":-27.384774,"lon":15.7732214,"elevationM":753},{"id":"node:13098870328","kind":"peak","name":"Lochkuppe","lat":-27.3925055,"lon":15.7585591,"elevationM":682},{"id":"node:13098870329","kind":"peak","name":"Mittagskuppe","lat":-27.3829745,"lon":15.8564035,"elevationM":795},{"id":"node:13098870330","kind":"peak","name":"Gabusus","lat":-27.3482453,"lon":15.9079372,"elevationM":875}]}