{"tileKey":"la_m18_lo_p177","version":"v1-1775891056926","entries":[{"id":"node:2486689960","kind":"peak","name":"Koroyanitu","lat":-17.6676259,"lon":177.5736295,"elevationM":1195},{"id":"node:12071016239","kind":"peak","name":"Naukacuvu Peak","lat":-17.1972512,"lon":177.1727822,"elevationM":85},{"id":"node:12072344947","kind":"peak","name":"Sunset Hill","lat":-17.1915655,"lon":177.1699028,"elevationM":50},{"id":"node:12072344948","kind":"peak","name":"Hellipad Hill","lat":-17.1918909,"lon":177.1727835,"elevationM":28},{"id":"node:12074947363","kind":"peak","name":"Nakeke","lat":-17.1491507,"lon":177.2044121,"elevationM":220}]}