{"tileKey":"la_m71_lo_m64","version":"v1-1775891056926","entries":[{"id":"node:9252707177","kind":"peak","name":"Mount Duemler","lat":-70.0283926,"lon":-63.7529276,"elevationM":null},{"id":"node:9252733765","kind":"peak","name":"Columbia Mountains","lat":-70.2209864,"lon":-63.8819975,"elevationM":null},{"id":"node:9252736014","kind":"peak","name":"Clark Hills","lat":-70.7149282,"lon":-63.4094641,"elevationM":null},{"id":"node:9252738390","kind":"peak","name":"Brand Peak","lat":-70.0013765,"lon":-63.8718574,"elevationM":null},{"id":"node:9252738397","kind":"peak","name":"Reynolds Bench","lat":-70.5783617,"lon":-63.6365376,"elevationM":null},{"id":"node:9252751106","kind":"peak","name":"Mikus Hill","lat":-70.4411457,"lon":-63.8013425,"elevationM":null},{"id":"node:9252760495","kind":"peak","name":"Mount Brocoum","lat":-70.1904022,"lon":-63.7174795,"elevationM":null},{"id":"node:9252787193","kind":"peak","name":"Gatlin Peak","lat":-70.8329099,"lon":-63.3005916,"elevationM":null},{"id":"node:9252788743","kind":"peak","name":"Mount Curl","lat":-70.813984,"lon":-63.0106379,"elevationM":null},{"id":"node:9253083415","kind":"peak","name":"Mount Samsel","lat":-70.399669,"lon":-63.2303802,"elevationM":null},{"id":"node:9253095426","kind":"peak","name":"Heintz Peak","lat":-70.9336813,"lon":-63.6998034,"elevationM":null},{"id":"node:9253096280","kind":"peak","name":"Mount Acton","lat":-70.9791761,"lon":-63.705597,"elevationM":null},{"id":"node:9253106260","kind":"peak","name":"Mount Nordhill","lat":-70.9199411,"lon":-63.4212345,"elevationM":null},{"id":"node:9253106261","kind":"peak","name":"Steel Peak","lat":-70.8923323,"lon":-63.4175009,"elevationM":null},{"id":"node:9253120295","kind":"peak","name":"Mount Schimansky","lat":-70.8365185,"lon":-63.7954011,"elevationM":null},{"id":"node:9256268431","kind":"peak","name":"Kosky Peak","lat":-70.9477957,"lon":-63.4563834,"elevationM":null}]}