{"tileKey":"la_m36_lo_m73","version":"v1-1775891056926","entries":[{"id":"node:529139866","kind":"peak","name":"Cerro Mutrún","lat":-35.3230558,"lon":-72.4130807,"elevationM":90},{"id":"node:534869271","kind":"peak","name":"Cerro Name","lat":-35.7235027,"lon":-72.2126472,"elevationM":810},{"id":"node:686656457","kind":"peak","name":"Cerro Bellavista","lat":-35.6739971,"lon":-72.0848501,"elevationM":414},{"id":"node:3452857122","kind":"peak","name":"Cerro Nirivilo","lat":-35.5250358,"lon":-72.041431,"elevationM":722},{"id":"node:4329801684","kind":"peak","name":"Cerro Tronador","lat":-35.9207376,"lon":-72.5418197,"elevationM":785},{"id":"node:4368847364","kind":"peak","name":"Cerro Cornish","lat":-35.8755156,"lon":-72.52059,"elevationM":725},{"id":"node:4533351050","kind":"peak","name":"Cerro Las Raíces","lat":-35.9493248,"lon":-72.6537431,"elevationM":470},{"id":"node:4533351053","kind":"peak","name":"Cerro Caiquén","lat":-35.8290178,"lon":-72.4245787,"elevationM":730},{"id":"node:4533352495","kind":"peak","name":"Cerro Peñasquín","lat":-35.5780335,"lon":-72.1875572,"elevationM":730},{"id":"node:4533352575","kind":"peak","name":"Cerro Pilén","lat":-35.9924582,"lon":-72.4156456,"elevationM":459},{"id":"node:4556465704","kind":"peak","name":"Cerro Santa Dolores","lat":-35.8426366,"lon":-72.236876,"elevationM":295},{"id":"node:4556465710","kind":"peak","name":"Cerro Pelado","lat":-35.4957983,"lon":-72.1902213,"elevationM":510},{"id":"node:4556465751","kind":"peak","name":"Cerro Belco","lat":-35.8193666,"lon":-72.112395,"elevationM":317},{"id":"node:4556465786","kind":"peak","name":"Cerro Cael","lat":-35.6079543,"lon":-72.0055304,"elevationM":355},{"id":"node:4556465925","kind":"peak","name":"Cerro de La Piedra","lat":-35.7421322,"lon":-72.3912174,"elevationM":495},{"id":"node:4556465926","kind":"peak","name":"Cerro Unihue","lat":-35.6964102,"lon":-72.3347461,"elevationM":500},{"id":"node:4556465929","kind":"peak","name":"Cerro Pan de Azúcar","lat":-35.7400771,"lon":-72.283532,"elevationM":458},{"id":"node:4556465947","kind":"peak","name":"Cerro Las Quilas","lat":-35.9106468,"lon":-72.5102967,"elevationM":747},{"id":"node:4556465948","kind":"peak","name":"Cerro Pelado","lat":-35.8843475,"lon":-72.5970501,"elevationM":612},{"id":"node:4556465960","kind":"peak","name":"Cerro Cóndor","lat":-35.816804,"lon":-72.478078,"elevationM":652},{"id":"node:4556465963","kind":"peak","name":"Cerro Piedra del Padre","lat":-35.8819427,"lon":-72.5292025,"elevationM":725},{"id":"node:4556465969","kind":"peak","name":"Cerro Harria","lat":-35.9222939,"lon":-72.5455614,"elevationM":799},{"id":"node:4556465971","kind":"peak","name":"Cerro del Pedregal","lat":-35.9150749,"lon":-72.5619179,"elevationM":732},{"id":"node:4556465981","kind":"peak","name":"Cerro Agua de la Diuca","lat":-35.9189457,"lon":-72.4868077,"elevationM":681},{"id":"node:4556465983","kind":"peak","name":"Cerro La Cimarrona","lat":-35.9400544,"lon":-72.4555544,"elevationM":702},{"id":"node:4556465984","kind":"peak","name":"Cerro Molinos","lat":-35.9455962,"lon":-72.5772409,"elevationM":680},{"id":"node:4664867804","kind":"peak","name":"Cerro Pan de Azúcar","lat":-35.3413693,"lon":-72.3980088,"elevationM":null},{"id":"node:5057630768","kind":"peak","name":"Cerro Esmeralda","lat":-35.7057238,"lon":-72.4742641,"elevationM":298},{"id":"node:5057630769","kind":"peak","name":"Cerro Mieres","lat":-35.6418387,"lon":-72.401029,"elevationM":357},{"id":"node:5057630770","kind":"peak","name":"Cerro Los Fosos","lat":-35.5755202,"lon":-72.3030855,"elevationM":529},{"id":"node:5057630772","kind":"peak","name":"Cerro Pahuil","lat":-35.6285061,"lon":-72.5663068,"elevationM":45},{"id":"node:5057630773","kind":"peak","name":"Cerro San Guillermo","lat":-35.3604786,"lon":-72.4369384,"elevationM":209},{"id":"node:5057630776","kind":"peak","name":"Cerro Pantanillos","lat":-35.4620331,"lon":-72.3029997,"elevationM":571},{"id":"node:5057630777","kind":"peak","name":"Cerro Liriecillos","lat":-35.4753322,"lon":-72.300693,"elevationM":528},{"id":"node:5057630778","kind":"peak","name":"Cerro Canelillos","lat":-35.5305148,"lon":-72.4636962,"elevationM":445},{"id":"node:5057630780","kind":"peak","name":"Cerro Lagunillas","lat":-35.5820297,"lon":-72.3733379,"elevationM":493},{"id":"node:5057630782","kind":"peak","name":"Cerro Piedra Parada","lat":-35.6059997,"lon":-72.4330976,"elevationM":330},{"id":"node:5159510190","kind":"peak","name":"Cerro Los Baguales","lat":-35.867889,"lon":-72.501562,"elevationM":697},{"id":"node:11117126303","kind":"peak","name":"Cerro Guanaco","lat":-35.9563886,"lon":-72.5266587,"elevationM":505},{"id":"node:11117173397","kind":"peak","name":"Cerro San Miguel","lat":-35.868303,"lon":-72.2494401,"elevationM":302},{"id":"node:11778480513","kind":"peak","name":"Los Treguiles","lat":-35.8440935,"lon":-72.4991995,"elevationM":565},{"id":"node:12132848855","kind":"peak","name":"Cerro Roble Negro","lat":-35.9241643,"lon":-72.5560616,"elevationM":800},{"id":"node:12154425438","kind":"peak","name":"Cerro Porongo","lat":-35.9514958,"lon":-72.3772623,"elevationM":334},{"id":"node:12154487210","kind":"peak","name":"Cerro El Olvido","lat":-35.9441985,"lon":-72.3958899,"elevationM":380}]}