{"tileKey":"la_m27_lo_m68","version":"v1-1775891056926","entries":[{"id":"node:655345060","kind":"volcano","name":"Alumbrera","lat":-26.1479361,"lon":-67.3849535,"elevationM":3598},{"id":"node:655345071","kind":"volcano","name":"Antofagasta de la Sierra","lat":-26.1287033,"lon":-67.411173,"elevationM":3540},{"id":"node:2128316932","kind":"peak","name":"Volcan Carluchi","lat":-26.3101513,"lon":-67.3932871,"elevationM":3270},{"id":"node:2456806378","kind":"peak","name":"Cerro Blanco","lat":-26.7822522,"lon":-67.7575936,"elevationM":4670},{"id":"node:3556745435","kind":"volcano","name":"El Jote 4","lat":-26.306043,"lon":-67.3499998,"elevationM":3410},{"id":"node:3556747218","kind":"volcano","name":"El Jote","lat":-26.3250461,"lon":-67.3289713,"elevationM":3685},{"id":"node:3556747233","kind":"volcano","name":"El Jote 6","lat":-26.2891914,"lon":-67.3502573,"elevationM":null},{"id":"node:3556747574","kind":"volcano","name":"El Jote 5","lat":-26.294655,"lon":-67.332662,"elevationM":3365},{"id":"node:3556749651","kind":"volcano","name":"El Jote 7","lat":-26.2974251,"lon":-67.3230489,"elevationM":3420},{"id":"node:3556753301","kind":"volcano","name":"El Jote 2","lat":-26.3245114,"lon":-67.3028744,"elevationM":3515},{"id":"node:3556755093","kind":"volcano","name":"Volcán Cachamani","lat":-26.2985933,"lon":-67.4132006,"elevationM":3275},{"id":"node:3556755665","kind":"peak","name":"Cerro El Jote","lat":-26.3402771,"lon":-67.3665651,"elevationM":3460},{"id":"node:3556757078","kind":"volcano","name":"Volcan Carachi Pampa","lat":-26.4740392,"lon":-67.466472,"elevationM":3393},{"id":"node:4051542325","kind":"peak","name":"Mesada","lat":-26.9845287,"lon":-67.9927808,"elevationM":5038},{"id":"node:4052916621","kind":"peak","name":"Cerro San Buenaventura","lat":-26.9938099,"lon":-67.8118317,"elevationM":3326},{"id":"node:4053024485","kind":"peak","name":"Cerro de la Hoyada","lat":-26.8414995,"lon":-67.6736505,"elevationM":4367},{"id":"node:4053024486","kind":"peak","name":"Chucula","lat":-26.8452504,"lon":-67.9694316,"elevationM":5172},{"id":"node:4058031622","kind":"peak","name":"Cerro El Borito","lat":-26.4020806,"lon":-67.8063216,"elevationM":4891},{"id":"node:4058031623","kind":"peak","name":"Cerro Incahuasi","lat":-26.398124,"lon":-67.7741837,"elevationM":4878},{"id":"node:4058031624","kind":"peak","name":"Morro Ratones","lat":-26.2398951,"lon":-67.8360231,"elevationM":4115},{"id":"node:4073247901","kind":"peak","name":"Cerro Colorado","lat":-26.0438833,"lon":-67.1708319,"elevationM":5478},{"id":"node:4075190867","kind":"peak","name":"Cerro Laguna Blanca","lat":-26.3932039,"lon":-67.060383,"elevationM":null},{"id":"node:4076110725","kind":"peak","name":"Cerro Laguna Blanca(s)","lat":-26.5302812,"lon":-67.0585172,"elevationM":6012},{"id":"node:4091214231","kind":"peak","name":"Cerro Colorado","lat":-26.1183277,"lon":-67.4624372,"elevationM":3821},{"id":"node:4091214233","kind":"peak","name":"Loma Palca","lat":-26.0697052,"lon":-67.3247302,"elevationM":4032},{"id":"node:4573901378","kind":"peak","name":"Cerro La Lunareja","lat":-26.8274622,"lon":-67.0440989,"elevationM":null},{"id":"node:4573901379","kind":"peak","name":"Cerro Alto del Chiquerito","lat":-26.7622781,"lon":-67.0267377,"elevationM":3641},{"id":"node:4575268778","kind":"peak","name":"Cerro Toronado","lat":-26.9117497,"lon":-67.2015347,"elevationM":4737},{"id":"node:4575268779","kind":"peak","name":"Cerro de Curuto","lat":-26.7202108,"lon":-67.3265195,"elevationM":4371},{"id":"node:4575268780","kind":"peak","name":"Cerro Morado","lat":-26.8331098,"lon":-67.2895441,"elevationM":null},{"id":"node:4575268781","kind":"peak","name":"Cerro Calderón","lat":-26.9687627,"lon":-67.3589296,"elevationM":4536},{"id":"node:4575268782","kind":"peak","name":"Chucula / Negro Muerto","lat":-26.7673255,"lon":-67.9969759,"elevationM":5895},{"id":"node:4575317535","kind":"peak","name":"Cerro Situque","lat":-26.1247747,"lon":-67.6572933,"elevationM":4466},{"id":"node:4575317536","kind":"peak","name":"Cerro Oire","lat":-26.1461233,"lon":-67.7297168,"elevationM":4762},{"id":"node:4575317537","kind":"peak","name":"Cerro Morado","lat":-26.3078336,"lon":-67.6004648,"elevationM":4053},{"id":"node:4575317538","kind":"peak","name":"Cerro Chascón","lat":-26.5850268,"lon":-67.9178679,"elevationM":5180},{"id":"node:4575317539","kind":"peak","name":"Cerro Cueros de Purulla","lat":-26.552601,"lon":-67.8201685,"elevationM":4912},{"id":"node:4575317540","kind":"peak","name":"Cerro Blanco","lat":-26.5396426,"lon":-67.8404751,"elevationM":5005},{"id":"node:4579448605","kind":"peak","name":"Cerro Laguna Blanca","lat":-26.3931677,"lon":-67.0604143,"elevationM":null},{"id":"node:8689076392","kind":"peak","name":"Pabellón Colorado","lat":-26.1083748,"lon":-67.0255511,"elevationM":5235},{"id":"node:8689126668","kind":"peak","name":"Portezuelo Alto","lat":-26.6389053,"lon":-67.9736867,"elevationM":5305},{"id":"node:8689250914","kind":"peak","name":"Negro Muerto","lat":-26.9611378,"lon":-67.9922112,"elevationM":5039},{"id":"node:9051908003","kind":"peak","name":"Sierra del Jote","lat":-26.3075872,"lon":-67.1532082,"elevationM":5006},{"id":"node:9051913157","kind":"peak","name":"Co. Diamante","lat":-26.029817,"lon":-67.0665393,"elevationM":5016},{"id":"node:10243051992","kind":"volcano","name":"Cerro Blanco","lat":-26.7594827,"lon":-67.7398969,"elevationM":null},{"id":"node:12479310261","kind":"peak","name":"Sierra de las Minas","lat":-26.3239706,"lon":-67.793522,"elevationM":5053},{"id":"node:13098796351","kind":"peak","name":"Peñas Chicas","lat":-26.4978885,"lon":-67.3105762,"elevationM":3675}]}