{"tileKey":"la_m17_lo_m42","version":"v1-1775891056926","entries":[{"id":"node:3435632646","kind":"peak","name":"Neves","lat":-16.3020944,"lon":-41.2423685,"elevationM":971},{"id":"node:3435632648","kind":"peak","name":"Pedra Aguda","lat":-16.3391534,"lon":-41.0877251,"elevationM":1151},{"id":"node:3436033469","kind":"peak","name":"Pedra Grande","lat":-16.526999,"lon":-41.4513601,"elevationM":790},{"id":"node:4940320840","kind":"peak","name":"Pedra do Giru","lat":-16.8361833,"lon":-41.0219459,"elevationM":860},{"id":"node:4940320841","kind":"peak","name":"Pedra de Monte Formoso","lat":-16.9840528,"lon":-41.2506842,"elevationM":1058},{"id":"node:4940347711","kind":"peak","name":"Pedra do Banco da Terra","lat":-16.9533449,"lon":-41.0122456,"elevationM":948},{"id":"node:4945830764","kind":"peak","name":"Pedra do Lopes","lat":-16.9836484,"lon":-41.3881512,"elevationM":null},{"id":"node:4945830765","kind":"peak","name":"Pedra do Pião","lat":-16.9289252,"lon":-41.3279695,"elevationM":null},{"id":"node:4945830766","kind":"peak","name":"Pedra do Pião","lat":-16.9247099,"lon":-41.34697,"elevationM":null},{"id":"node:5777938171","kind":"peak","name":"Conceição","lat":-16.0209421,"lon":-41.2787354,"elevationM":996},{"id":"node:6152675593","kind":"peak","name":"Pedra da Bolívia","lat":-16.217067,"lon":-41.4295503,"elevationM":980},{"id":"node:6204647008","kind":"peak","name":"Pedra Aguda","lat":-16.1471334,"lon":-41.3985692,"elevationM":1027},{"id":"node:6218779509","kind":"peak","name":"Pedra do Bidó","lat":-16.3087674,"lon":-41.3696203,"elevationM":1130},{"id":"node:7434207848","kind":"peak","name":"Pedra De Orozimbo","lat":-16.3726441,"lon":-41.329779,"elevationM":800},{"id":"node:9735180660","kind":"peak","name":"Chapada Lagoa Danta","lat":-16.5312065,"lon":-41.5309011,"elevationM":784},{"id":"node:9749742595","kind":"peak","name":"Morro do Curral do Meio","lat":-16.5689666,"lon":-41.7014872,"elevationM":570},{"id":"node:9749839790","kind":"peak","name":"Morro da Torre","lat":-16.6383858,"lon":-41.7350657,"elevationM":820},{"id":"node:9752777995","kind":"peak","name":"Chapada da Cavalhada","lat":-16.9453543,"lon":-41.628675,"elevationM":1009},{"id":"node:9755882574","kind":"peak","name":"Morro dos Pinates","lat":-16.8731993,"lon":-41.7627316,"elevationM":960},{"id":"node:12362611054","kind":"peak","name":"Candeias","lat":-16.0363478,"lon":-41.7718649,"elevationM":1077},{"id":"node:12519589176","kind":"peak","name":"Morro Redondo","lat":-16.0431398,"lon":-41.5334319,"elevationM":1045}]}