{"tileKey":"la_m28_lo_p123","version":"v1-1775891056926","entries":[{"id":"node:3020140131","kind":"peak","name":"Cowderoy Hill","lat":-27.80134,"lon":123.65038,"elevationM":460},{"id":"node:3020140513","kind":"peak","name":"H.T. Granites","lat":-27.71131,"lon":123.08609,"elevationM":505},{"id":"node:3020140525","kind":"peak","name":"Harris Hills","lat":-27.73157,"lon":123.4154,"elevationM":521},{"id":"node:3020140907","kind":"peak","name":"Mount Cornell","lat":-27.75908,"lon":123.32909,"elevationM":559},{"id":"node:3020140913","kind":"peak","name":"Mount Cumming","lat":-27.75786,"lon":123.35271,"elevationM":559},{"id":"node:3020141081","kind":"peak","name":"Mount Feldtmann","lat":-27.61851,"lon":123.25657,"elevationM":542},{"id":"node:3020141110","kind":"peak","name":"Mount Gill","lat":-27.7595,"lon":123.52283,"elevationM":495},{"id":"node:3020141184","kind":"peak","name":"Mount Jones","lat":-27.97855,"lon":123.3667,"elevationM":502},{"id":"node:3020141686","kind":"peak","name":"Mount Shenton","lat":-27.99157,"lon":123.36904,"elevationM":520},{"id":"node:3020141706","kind":"peak","name":"Mount Strawbridge","lat":-27.34031,"lon":123.07611,"elevationM":521},{"id":"node:3020141843","kind":"peak","name":"Mount Warren","lat":-27.74716,"lon":123.29138,"elevationM":543},{"id":"node:3020141923","kind":"peak","name":"Nichols Knob","lat":-27.5751774,"lon":123.0818982,"elevationM":492},{"id":"node:3020142021","kind":"peak","name":"Point Newland","lat":-27.89547,"lon":123.93498,"elevationM":459},{"id":"node:3020142027","kind":"peak","name":"Point Virginia","lat":-27.88916,"lon":123.70585,"elevationM":453},{"id":"node:3020142296","kind":"peak","name":"Truscott Hills","lat":-27.84157,"lon":123.31711,"elevationM":529}]}