{"tileKey":"la_m38_lo_p176","version":"v1-1775891056926","entries":[{"id":"node:5315790694","kind":"peak","name":"Mount Drury","lat":-37.6345455,"lon":176.1830451,"elevationM":null},{"id":"node:5315790695","kind":"peak","name":"Moturiki","lat":-37.6303183,"lon":176.185395,"elevationM":null},{"id":"node:5520385353","kind":"volcano","name":"Mount Maunganui / Mauao","lat":-37.6303103,"lon":176.1720116,"elevationM":232},{"id":"node:6266898638","kind":"peak","name":"Raetihi (Pa Hill)","lat":-37.8484044,"lon":176.9667893,"elevationM":189},{"id":"node:6266898639","kind":"peak","name":"Te Ra Whiti","lat":-37.8566212,"lon":176.9851243,"elevationM":60},{"id":"node:6778413265","kind":"peak","name":"Ōtara","lat":-37.8074799,"lon":176.2696356,"elevationM":338},{"id":"node:7208182385","kind":"peak","name":"Otawa","lat":-37.800624,"lon":176.246377,"elevationM":565},{"id":"node:7828802964","kind":"peak","name":"Te Pareoterawahirua","lat":-37.8458721,"lon":176.5561099,"elevationM":229},{"id":"node:7831494411","kind":"peak","name":"Kopukairua","lat":-37.7305838,"lon":176.237678,"elevationM":265},{"id":"node:7831494412","kind":"peak","name":"Mangatawa","lat":-37.7029043,"lon":176.242504,"elevationM":117},{"id":"node:7831651779","kind":"peak","name":"Tarewakoura Hill","lat":-37.280305,"lon":176.2572167,"elevationM":252},{"id":"node:7831651784","kind":"peak","name":"Opuahau","lat":-37.2806824,"lon":176.2406344,"elevationM":355},{"id":"node:7831651786","kind":"peak","name":"Tutaretare","lat":-37.2934451,"lon":176.2543082,"elevationM":320},{"id":"node:7831651787","kind":"peak","name":"Taupiri","lat":-37.2717186,"lon":176.2648954,"elevationM":205},{"id":"node:7831669433","kind":"peak","name":"Te Ohineiti","lat":-37.2755623,"lon":176.2444734,"elevationM":285},{"id":"node:8326630317","kind":"peak","name":"Motu Harapaki","lat":-37.8555247,"lon":176.9746281,"elevationM":353},{"id":"node:9285399693","kind":"peak","name":"Otari Lookout","lat":-37.9473484,"lon":176.53884,"elevationM":264},{"id":"node:9710769646","kind":"peak","name":"Puwhenua","lat":-37.9269275,"lon":176.1176129,"elevationM":622},{"id":"node:9771152433","kind":"peak","name":"Otanewainuku","lat":-37.9035044,"lon":176.2041714,"elevationM":640},{"id":"node:10270494934","kind":"peak","name":"Otuhepo","lat":-37.9779311,"lon":176.6656201,"elevationM":470},{"id":"node:10552760484","kind":"peak","name":"Pukunui","lat":-37.7784496,"lon":176.2043231,"elevationM":364},{"id":"node:10552768322","kind":"peak","name":"Whareotetarakeho","lat":-37.7720727,"lon":176.2605643,"elevationM":331},{"id":"node:10703734393","kind":"peak","name":"Papeue","lat":-37.676701,"lon":176.205931,"elevationM":21},{"id":"node:10703734394","kind":"peak","name":"Kaiwha","lat":-37.744889,"lon":176.220333,"elevationM":229},{"id":"node:10703734395","kind":"peak","name":"Maungatūtū","lat":-37.806556,"lon":176.188806,"elevationM":478},{"id":"node:10703734396","kind":"peak","name":"Kaikaikaroro","lat":-37.787964,"lon":176.00175,"elevationM":444},{"id":"node:10703734397","kind":"peak","name":"Manawata","lat":-37.758611,"lon":176.019667,"elevationM":317},{"id":"node:10703734398","kind":"peak","name":"Minden Peak","lat":-37.713222,"lon":176.044528,"elevationM":286},{"id":"node:10703787348","kind":"peak","name":"Pokare","lat":-37.811537,"lon":176.562336,"elevationM":null},{"id":"node:10703787349","kind":"peak","name":"Matamanu","lat":-37.880371,"lon":176.620161,"elevationM":230},{"id":"node:10703787350","kind":"peak","name":"Nohonoho","lat":-37.927081,"lon":176.620031,"elevationM":null},{"id":"node:10703787351","kind":"peak","name":"Manawahe","lat":-37.962248,"lon":176.671177,"elevationM":null},{"id":"node:10703787352","kind":"peak","name":"Pokopoko","lat":-37.892639,"lon":176.405514,"elevationM":146},{"id":"node:10703787353","kind":"peak","name":"Pakotore","lat":-37.854512,"lon":176.391852,"elevationM":94},{"id":"node:10703787354","kind":"peak","name":"Rangiuru","lat":-37.871556,"lon":176.32725,"elevationM":246},{"id":"node:10703787355","kind":"peak","name":"Putaruru","lat":-37.868724,"lon":176.288711,"elevationM":259},{"id":"node:10703787356","kind":"peak","name":"Takarangi","lat":-37.856528,"lon":176.271528,"elevationM":332},{"id":"node:10703787357","kind":"peak","name":"Ohui","lat":-37.848778,"lon":176.256778,"elevationM":406},{"id":"node:10703787358","kind":"peak","name":"Papamoa","lat":-37.737077,"lon":176.281987,"elevationM":224},{"id":"node:10703787359","kind":"peak","name":"Hiapo","lat":-37.929861,"lon":176.379917,"elevationM":252},{"id":"node:10703787360","kind":"peak","name":"Paretero","lat":-37.960611,"lon":176.373,"elevationM":298}]}