{"tileKey":"la_m29_lo_p134","version":"v1-1775891056926","entries":[{"id":"node:3020052366","kind":"peak","name":"Ant Hill","lat":-28.48013,"lon":134.56152,"elevationM":253},{"id":"node:3020052494","kind":"peak","name":"Cameron Hill","lat":-28.26892,"lon":134.79571,"elevationM":217},{"id":"node:3020052530","kind":"peak","name":"Chimney Hill","lat":-28.44982,"lon":134.46718,"elevationM":null},{"id":"node:3020052559","kind":"peak","name":"Cooper Hill","lat":-28.00217,"lon":134.44696,"elevationM":245},{"id":"node:3020052640","kind":"peak","name":"Eeavinna Hill","lat":-28.00141,"lon":134.15506,"elevationM":null},{"id":"node:3020052647","kind":"peak","name":"Ely Hill","lat":-28.33305,"lon":134.38815,"elevationM":null},{"id":"node:3020052654","kind":"peak","name":"England Hill","lat":-28.16187,"lon":134.216,"elevationM":315},{"id":"node:3020052976","kind":"peak","name":"McDonald Peak","lat":-28.25427,"lon":134.75099,"elevationM":226},{"id":"node:3020053170","kind":"peak","name":"Mount Barry","lat":-28.37761,"lon":134.72695,"elevationM":269},{"id":"node:3020053190","kind":"peak","name":"Mount Bray","lat":-28.1545,"lon":134.79464,"elevationM":222},{"id":"node:3020053414","kind":"peak","name":"Mount Evelyn","lat":-28.06978,"lon":134.60676,"elevationM":286},{"id":"node:3020053541","kind":"peak","name":"Mount Furner","lat":-28.09206,"lon":134.38629,"elevationM":281},{"id":"node:3020053552","kind":"peak","name":"Mount Gillen","lat":-28.21735,"lon":134.39398,"elevationM":268},{"id":"node:3020054041","kind":"peak","name":"Pile Hill","lat":-28.81723,"lon":134.69259,"elevationM":236},{"id":"node:7144964896","kind":"peak","name":"The Forever Place","lat":-28.8567689,"lon":134.7458511,"elevationM":null}]}