{"tileKey":"la_m27_lo_p122","version":"v1-1775891056926","entries":[{"id":"node:3020136903","kind":"peak","name":"Beacon Hill","lat":-26.83791,"lon":122.58367,"elevationM":521},{"id":"node:3020139960","kind":"peak","name":"Bonython Bluff","lat":-26.51651,"lon":122.30874,"elevationM":null},{"id":"node:3020139971","kind":"peak","name":"Boondin Hill","lat":-26.46309,"lon":122.7896,"elevationM":530},{"id":"node:3020140191","kind":"peak","name":"Double Hill","lat":-26.31003,"lon":122.78047,"elevationM":null},{"id":"node:3020140192","kind":"peak","name":"Double Hill","lat":-26.3119,"lon":122.78167,"elevationM":null},{"id":"node:3020140640","kind":"peak","name":"Kundabiddi Hill","lat":-26.39702,"lon":122.74023,"elevationM":null},{"id":"node:3020140799","kind":"peak","name":"Mount Alexandra","lat":-26.27168,"lon":122.10945,"elevationM":496},{"id":"node:3020140909","kind":"peak","name":"Mount Courtney","lat":-26.40535,"lon":122.93335,"elevationM":null},{"id":"node:3020141045","kind":"peak","name":"Mount Draper","lat":-26.31804,"lon":122.89127,"elevationM":null},{"id":"node:3020141967","kind":"peak","name":"Panton Bluff","lat":-26.63985,"lon":122.72823,"elevationM":null},{"id":"node:3020142130","kind":"peak","name":"Sachse Bluff","lat":-26.62598,"lon":122.60569,"elevationM":549},{"id":"node:3020142278","kind":"peak","name":"Tooloo Bluff","lat":-26.44555,"lon":122.2161,"elevationM":538},{"id":"node:3020142437","kind":"peak","name":"Waguin","lat":-26.56702,"lon":122.08467,"elevationM":554}]}