{"tileKey":"la_m16_lo_p29","version":"v1-1775891056926","entries":[{"id":"node:6640195142","kind":"peak","name":"Chilapira","lat":-15.6559928,"lon":29.3629931,"elevationM":null},{"id":"node:7731021056","kind":"peak","name":"Kamini Hill","lat":-15.9511812,"lon":29.9708265,"elevationM":null},{"id":"node:7731021057","kind":"peak","name":"Nyamboda Hill","lat":-15.9419588,"lon":29.9236652,"elevationM":null},{"id":"node:7731361011","kind":"peak","name":"Kapirinengu Hill","lat":-15.6300021,"lon":29.9041387,"elevationM":null},{"id":"node:7731361012","kind":"peak","name":"Gombe Hill","lat":-15.6212351,"lon":29.8821352,"elevationM":null},{"id":"node:7731361013","kind":"peak","name":"Semwa Hill","lat":-15.6253874,"lon":29.8763524,"elevationM":null},{"id":"node:7731361014","kind":"peak","name":"Kanyoka Hill","lat":-15.6431273,"lon":29.8404658,"elevationM":null},{"id":"node:7731450627","kind":"peak","name":"Chekucheka","lat":-15.7716048,"lon":29.8499501,"elevationM":null},{"id":"node:7737651699","kind":"peak","name":"Musondo Hill","lat":-15.7747125,"lon":29.9318379,"elevationM":null},{"id":"node:7737651700","kind":"peak","name":"Kaungwe Hill","lat":-15.7500374,"lon":29.9259974,"elevationM":null},{"id":"node:7737651701","kind":"peak","name":"Buokimbo Hill","lat":-15.7404153,"lon":29.9212345,"elevationM":null},{"id":"node:7737651702","kind":"peak","name":"Zenda Hill","lat":-15.7086878,"lon":29.9772088,"elevationM":null},{"id":"node:7737651703","kind":"peak","name":"Mshavudzi Hill","lat":-15.7228988,"lon":29.9991909,"elevationM":null},{"id":"node:7737838308","kind":"peak","name":"Kutsuwa Hill","lat":-15.6857045,"lon":29.9261074,"elevationM":null},{"id":"node:7737838309","kind":"peak","name":"Kayako","lat":-15.6911628,"lon":29.9232173,"elevationM":null},{"id":"node:7737838310","kind":"peak","name":"Karangaza Hill","lat":-15.686791,"lon":29.9648103,"elevationM":null},{"id":"node:7737888757","kind":"peak","name":"Bvukombo Hill","lat":-15.776016,"lon":29.9688631,"elevationM":null},{"id":"node:7823497996","kind":"peak","name":"Nyamavunde Hill","lat":-15.9475681,"lon":29.7521903,"elevationM":null},{"id":"node:7823530601","kind":"peak","name":"Chitenje Hill","lat":-15.9912874,"lon":29.9779397,"elevationM":null},{"id":"node:9343988856","kind":"peak","name":"Kaulashishi Hill","lat":-15.3295978,"lon":29.778065,"elevationM":null},{"id":"node:9931018879","kind":"peak","name":"Kayira","lat":-15.7388935,"lon":29.1831805,"elevationM":1352},{"id":"node:9931023658","kind":"peak","name":"Fulamponje","lat":-15.148661,"lon":29.798724,"elevationM":1386},{"id":"node:9931023659","kind":"peak","name":"Chilaunga","lat":-15.2356018,"lon":29.4859193,"elevationM":1490},{"id":"node:9931023660","kind":"peak","name":"Kaini","lat":-15.3838799,"lon":29.5386019,"elevationM":1155},{"id":"node:9931023661","kind":"peak","name":"Chirumbwe","lat":-15.5383666,"lon":29.1059213,"elevationM":1418}]}