{"tileKey":"la_m34_lo_p146","version":"v1-1775891056926","entries":[{"id":"node:1956197250","kind":"peak","name":"Mount Grace","lat":-33.1930214,"lon":146.1820213,"elevationM":270},{"id":"node:3005052154","kind":"peak","name":"Begargo Hill","lat":-33.52591,"lon":146.36271,"elevationM":null},{"id":"node:3005052178","kind":"peak","name":"Currawong Hill","lat":-33.42226,"lon":146.24643,"elevationM":null},{"id":"node:3005052182","kind":"peak","name":"Dundoo Hill","lat":-33.34475,"lon":146.6506,"elevationM":null},{"id":"node:3005052187","kind":"peak","name":"Flagstaff Hill","lat":-33.7990952,"lon":146.0933577,"elevationM":null},{"id":"node:3005052195","kind":"peak","name":"Gorman Hill","lat":-33.37844,"lon":146.77985,"elevationM":null},{"id":"node:3005052202","kind":"peak","name":"Harveys Hump","lat":-33.6349,"lon":146.26466,"elevationM":null},{"id":"node:3005052225","kind":"peak","name":"Melougel Mountain","lat":-33.67378,"lon":146.22085,"elevationM":null},{"id":"node:3005052227","kind":"peak","name":"Merri Abba Hill","lat":-33.36457,"lon":146.09713,"elevationM":null},{"id":"node:3005052242","kind":"peak","name":"Mount Bowen","lat":-33.36535,"lon":146.21626,"elevationM":null},{"id":"node:3005052247","kind":"peak","name":"Mount Bygalore","lat":-33.51634,"lon":146.75651,"elevationM":null},{"id":"node:3005052252","kind":"peak","name":"Mount Daylight","lat":-33.47562,"lon":146.05394,"elevationM":311},{"id":"node:3005052268","kind":"peak","name":"Mount Melbergen","lat":-33.79838,"lon":146.06998,"elevationM":null},{"id":"node:3005052269","kind":"peak","name":"Mount Mologone","lat":-33.69531,"lon":146.26079,"elevationM":null},{"id":"node:3005052274","kind":"peak","name":"Mount Rossi","lat":-33.32983,"lon":146.2047,"elevationM":null},{"id":"node:3005052280","kind":"peak","name":"Mount Womboyn","lat":-33.66791,"lon":146.38503,"elevationM":null},{"id":"node:3005052285","kind":"peak","name":"Narriah Mountain","lat":-33.86177,"lon":146.69998,"elevationM":null},{"id":"node:3005052294","kind":"peak","name":"Quart Pot Hill","lat":-33.49661,"lon":146.08331,"elevationM":285},{"id":"node:3005052299","kind":"peak","name":"Round Hill","lat":-33.37006,"lon":146.029,"elevationM":null},{"id":"node:3005052312","kind":"peak","name":"Spy Glass Hill","lat":-33.50592,"lon":146.77688,"elevationM":null},{"id":"node:3005052336","kind":"peak","name":"Womba Peak","lat":-33.53421,"lon":146.10825,"elevationM":null},{"id":"node:3019437314","kind":"peak","name":"Milby Hill","lat":-33.27239,"lon":146.97926,"elevationM":null},{"id":"node:3019437361","kind":"peak","name":"Mount Boorithumble","lat":-33.10018,"lon":146.24271,"elevationM":null},{"id":"node:3019437834","kind":"peak","name":"Pipers Hill","lat":-33.0826,"lon":146.78531,"elevationM":null},{"id":"node:3019437933","kind":"peak","name":"Shepherds Hill","lat":-33.04819,"lon":146.23877,"elevationM":272},{"id":"node:3019438106","kind":"peak","name":"Warraway Mountain","lat":-33.09282,"lon":146.05297,"elevationM":null},{"id":"node:3019438129","kind":"peak","name":"Whoey Mountain","lat":-33.15501,"lon":146.23562,"elevationM":225}]}