{"tileKey":"la_m22_lo_p165","version":"v1-1775891056926","entries":[{"id":"node:824189087","kind":"peak","name":"Pic Monnier","lat":-21.6126063,"lon":165.7622314,"elevationM":526},{"id":"node:844370560","kind":"peak","name":"Col de Boéwé","lat":-21.2611192,"lon":165.2448142,"elevationM":null},{"id":"node:845160132","kind":"peak","name":"Pic Adjio","lat":-21.3110094,"lon":165.2615632,"elevationM":703},{"id":"node:845187206","kind":"peak","name":"Mont Aoupinié","lat":-21.1764724,"lon":165.2678449,"elevationM":1006},{"id":"node:848321523","kind":"peak","name":"Mont Do","lat":-21.7540007,"lon":165.9999861,"elevationM":1024},{"id":"node:929765462","kind":"peak","name":"Pic Andry","lat":-21.6654707,"lon":165.7805217,"elevationM":429},{"id":"node:1491096334","kind":"peak","name":"Keiyouma","lat":-21.4177,"lon":165.36418,"elevationM":1424},{"id":"node:1492191825","kind":"peak","name":"Pic Orezzolli","lat":-21.60244,"lon":165.72411,"elevationM":666},{"id":"node:1492230631","kind":"peak","name":"Pic Vincent","lat":-21.59833,"lon":165.77549,"elevationM":703},{"id":"node:1502694023","kind":"peak","name":"Me Jarému","lat":-21.59368,"lon":165.75004,"elevationM":631},{"id":"node:1783172536","kind":"peak","name":"Mont Mé Nejuu","lat":-21.7147683,"lon":165.9898425,"elevationM":565},{"id":"node:2204175018","kind":"peak","name":"Pic Mara","lat":-21.3583896,"lon":165.8818676,"elevationM":250},{"id":"node:2385014363","kind":"peak","name":"Mé Tewii","lat":-21.7301018,"lon":165.781393,"elevationM":66},{"id":"node:3495941605","kind":"peak","name":"Pic Ouano","lat":-21.8562822,"lon":165.8135353,"elevationM":109},{"id":"node:6782161413","kind":"peak","name":"Chapeau de Gendarme","lat":-21.7917163,"lon":165.9814354,"elevationM":382},{"id":"node:6782161480","kind":"peak","name":"Ennéboli","lat":-21.7608312,"lon":165.9826446,"elevationM":550},{"id":"node:6782161484","kind":"peak","name":"Pic Noir","lat":-21.7815744,"lon":165.9292923,"elevationM":596},{"id":"node:6804698451","kind":"peak","name":"Pic Roy","lat":-21.6504676,"lon":165.5376367,"elevationM":170},{"id":"node:6804698452","kind":"peak","name":"Mont des Trois Ravines","lat":-21.6540537,"lon":165.5687184,"elevationM":307},{"id":"node:7811602263","kind":"peak","name":"Pic Tabou","lat":-21.6177513,"lon":165.7997425,"elevationM":696},{"id":"node:7811852156","kind":"peak","name":"Pic Me Areto","lat":-21.6039757,"lon":165.7740403,"elevationM":696},{"id":"node:9009059251","kind":"peak","name":"Table Unio - Mé Wano","lat":-21.5533235,"lon":165.7734361,"elevationM":1002},{"id":"node:9009059252","kind":"peak","name":"Pic des Mineurs","lat":-21.5546122,"lon":165.7640908,"elevationM":688},{"id":"node:9009059253","kind":"peak","name":"Pic Noir","lat":-21.5539297,"lon":165.7575997,"elevationM":630}]}