{"tileKey":"la_m53_lo_m60","version":"v1-1775891056926","entries":[{"id":"node:4471741738","kind":"peak","name":"Butlers Hill","lat":-52.2237634,"lon":-59.5211417,"elevationM":null},{"id":"node:6050768236","kind":"peak","name":"Hawk Hill","lat":-52.1904519,"lon":-59.1423724,"elevationM":null},{"id":"node:9102267652","kind":"peak","name":"Phillip's Point","lat":-52.1613893,"lon":-59.7825293,"elevationM":44},{"id":"node:9103702286","kind":"peak","name":"Danson Harbour House","lat":-52.1537909,"lon":-59.6123695,"elevationM":null},{"id":"node:9103704230","kind":"peak","name":"George Island","lat":-52.3284454,"lon":-59.7495213,"elevationM":null},{"id":"node:9180963606","kind":"peak","name":"Horn Hill","lat":-52.1232568,"lon":-59.2477706,"elevationM":null},{"id":"node:9236253418","kind":"peak","name":"Semaphore Hill","lat":-52.1777359,"lon":-59.1118044,"elevationM":null}]}