{"tileKey":"la_m40_lo_p175","version":"v1-1775891056926","entries":[{"id":"node:60595307","kind":"peak","name":"Dome","lat":-39.2752473,"lon":175.5632199,"elevationM":2672},{"id":"node:296288099","kind":"volcano","name":"Mount Ngauruhoe","lat":-39.1567868,"lon":175.6319511,"elevationM":2287},{"id":"node:330053621","kind":"peak","name":"Red Crater","lat":-39.1354704,"lon":175.6503437,"elevationM":1868},{"id":"node:377569196","kind":"volcano","name":"Mount Tongariro","lat":-39.1298788,"lon":175.6353731,"elevationM":1967},{"id":"node:773387674","kind":"peak","name":"Pihanga","lat":-39.041515,"lon":175.7686135,"elevationM":1326},{"id":"node:1675498114","kind":"volcano","name":"Pukeonake","lat":-39.1441199,"lon":175.5677023,"elevationM":null},{"id":"node:1684219450","kind":"peak","name":"Herangi","lat":-39.0226269,"lon":175.0837716,"elevationM":285},{"id":"node:1684219547","kind":"peak","name":"Mangapurua","lat":-39.21192,"lon":175.08189,"elevationM":661},{"id":"node:1684219551","kind":"peak","name":"Mangatawai","lat":-39.18342,"lon":175.07708,"elevationM":509},{"id":"node:1684219580","kind":"peak","name":"Maungaroa","lat":-39.1769,"lon":175.17425,"elevationM":null},{"id":"node:1684219607","kind":"peak","name":"Ngamutu","lat":-39.1357,"lon":175.37544,"elevationM":848},{"id":"node:1684219639","kind":"peak","name":"Otepo","lat":-39.1436,"lon":175.16395,"elevationM":565},{"id":"node:1684219652","kind":"peak","name":"Owairua","lat":-39.09759,"lon":175.2055,"elevationM":null},{"id":"node:1684219670","kind":"peak","name":"Patata","lat":-39.06704,"lon":175.27142,"elevationM":508},{"id":"node:1684219713","kind":"peak","name":"Pukeatua","lat":-39.05811,"lon":175.21614,"elevationM":451},{"id":"node:1684219718","kind":"peak","name":"Pukekereu","lat":-39.09038,"lon":175.07916,"elevationM":389},{"id":"node:1684219737","kind":"peak","name":"Puketawa","lat":-39.17416,"lon":175.21786,"elevationM":664},{"id":"node:1684219743","kind":"peak","name":"Puketawhero","lat":-39.16729,"lon":175.19177,"elevationM":685},{"id":"node:1684219748","kind":"peak","name":"Purua","lat":-39.0485,"lon":175.12893,"elevationM":532},{"id":"node:1684219753","kind":"peak","name":"Ratanui","lat":-39.13399,"lon":175.03692,"elevationM":562},{"id":"node:1684219788","kind":"peak","name":"Ruangarara","lat":-39.05296,"lon":175.074,"elevationM":381},{"id":"node:1684219876","kind":"peak","name":"Te Mata","lat":-39.18033,"lon":175.02456,"elevationM":585},{"id":"node:1684219892","kind":"peak","name":"Te Rata","lat":-39.09622,"lon":175.1114,"elevationM":467},{"id":"node:1684219915","kind":"peak","name":"Te Ruahine","lat":-39.03614,"lon":175.18626,"elevationM":null},{"id":"node:1684219926","kind":"peak","name":"Te Waro","lat":-39.1975,"lon":175.32325,"elevationM":null},{"id":"node:1684219978","kind":"peak","name":"Upokoera","lat":-39.07768,"lon":175.23399,"elevationM":350},{"id":"node:1684244870","kind":"peak","name":"Bluff Hill","lat":-39.13364,"lon":175.12619,"elevationM":487},{"id":"node:1684244871","kind":"peak","name":"Gentle Annie","lat":-39.17313,"lon":175.13786,"elevationM":532},{"id":"node:1684244894","kind":"peak","name":"Ōruru Maunga","lat":-39.14223,"lon":175.12309,"elevationM":602},{"id":"node:1684244902","kind":"peak","name":"Otukehu","lat":-39.0406,"lon":175.09289,"elevationM":440},{"id":"node:1684244904","kind":"peak","name":"Pariatua","lat":-39.11545,"lon":175.07194,"elevationM":415},{"id":"node:1684244905","kind":"peak","name":"Parikoritaua","lat":-39.12952,"lon":175.03486,"elevationM":553},{"id":"node:1684244908","kind":"peak","name":"Patua","lat":-39.04644,"lon":175.35586,"elevationM":null},{"id":"node:1684244910","kind":"peak","name":"Porere","lat":-39.04301,"lon":175.26318,"elevationM":575},{"id":"node:1684244917","kind":"peak","name":"Pukerata","lat":-39.05125,"lon":175.14233,"elevationM":null},{"id":"node:1684244934","kind":"peak","name":"Taungawha","lat":-39.06978,"lon":175.08636,"elevationM":null},{"id":"node:1684244945","kind":"peak","name":"Te Maikara","lat":-39.01794,"lon":175.11657,"elevationM":359},{"id":"node:1684244955","kind":"peak","name":"Tukutahora","lat":-39.06875,"lon":175.0074,"elevationM":null},{"id":"node:1968228650","kind":"peak","name":"Taupuae","lat":-39.5847674,"lon":175.6442505,"elevationM":777},{"id":"node:2267875635","kind":"peak","name":"Tahurangi","lat":-39.2894453,"lon":175.5626401,"elevationM":2797},{"id":"node:2267875636","kind":"peak","name":"Mount Ngauruhoe","lat":-39.1584048,"lon":175.6347374,"elevationM":2291},{"id":"node:2267876017","kind":"peak","name":"Pukeonake","lat":-39.1432903,"lon":175.5686137,"elevationM":1225},{"id":"node:2267884235","kind":"peak","name":"Paretetaitonga","lat":-39.2758834,"lon":175.5576169,"elevationM":2751},{"id":"node:2267884236","kind":"peak","name":"Te Heuheu","lat":-39.2663972,"lon":175.5789222,"elevationM":2732},{"id":"node:2267887307","kind":"peak","name":"Tukino Peak","lat":-39.2670102,"lon":175.5762579,"elevationM":2720},{"id":"node:2640566618","kind":"peak","name":"Urchin","lat":-39.1752959,"lon":175.8446644,"elevationM":1392},{"id":"node:2771282424","kind":"peak","name":"Rotopaunga","lat":-39.1193532,"lon":175.6634151,"elevationM":1856},{"id":"node:2923106921","kind":"peak","name":"Junction Top","lat":-39.1293283,"lon":175.9827745,"elevationM":1605},{"id":"node:2923106922","kind":"peak","name":"Motutere","lat":-39.1856936,"lon":175.9017422,"elevationM":1646},{"id":"node:2923106924","kind":"peak","name":"Sharp Cone","lat":-39.1346295,"lon":175.8929163,"elevationM":1481},{"id":"node:2923106925","kind":"peak","name":"Tara o te Marama","lat":-39.1503915,"lon":175.8788117,"elevationM":1434},{"id":"node:2923106926","kind":"peak","name":"Te Raketuangiangi","lat":-39.1354841,"lon":175.9815948,"elevationM":1605},{"id":"node:2923106927","kind":"peak","name":"Thunderbolt","lat":-39.185145,"lon":175.9573013,"elevationM":1633},{"id":"node:2923106928","kind":"peak","name":"Umukarikari","lat":-39.1325512,"lon":175.9037349,"elevationM":1591},{"id":"node:3218328778","kind":"peak","name":"Cathedral Rocks","lat":-39.2739586,"lon":175.5728968,"elevationM":2663},{"id":"node:3218328783","kind":"peak","name":"Pukekaikiore","lat":-39.1549317,"lon":175.6081063,"elevationM":1692},{"id":"node:3218328784","kind":"peak","name":"Pyramid Peak","lat":-39.2816934,"lon":175.5685105,"elevationM":2645},{"id":"node:3218328785","kind":"peak","name":"Ringatoto Peak","lat":-39.2884931,"lon":175.5773184,"elevationM":2591},{"id":"node:3218328786","kind":"peak","name":"Tama","lat":-39.1831226,"lon":175.6399885,"elevationM":1623},{"id":"node:3218328787","kind":"peak","name":"Te Ataahua","lat":-39.2860615,"lon":175.5583229,"elevationM":2757},{"id":"node:4011933926","kind":"peak","name":"Pinnacle Ridge","lat":-39.2519168,"lon":175.5710188,"elevationM":2234},{"id":"node:4931787423","kind":"peak","name":"Mount Baker","lat":-39.718927,"lon":175.828816,"elevationM":601},{"id":"node:4931787424","kind":"peak","name":"Kawaekaka","lat":-39.8197276,"lon":175.7629618,"elevationM":606},{"id":"node:4931788760","kind":"peak","name":"Hihitahi","lat":-39.541712,"lon":175.7354604,"elevationM":1116},{"id":"node:4931788761","kind":"peak","name":"Maungatewharau","lat":-39.5570397,"lon":175.6855005,"elevationM":964},{"id":"node:4931788762","kind":"peak","name":"Totem","lat":-39.4721154,"lon":175.7236994,"elevationM":1045},{"id":"node:4933494916","kind":"peak","name":"Te Mari","lat":-39.1139424,"lon":175.6702675,"elevationM":1739},{"id":"node:4941674967","kind":"peak","name":"Whareotarita","lat":-39.8617798,"lon":175.3498444,"elevationM":287},{"id":"node:4941674968","kind":"peak","name":"Puketohe","lat":-39.8515145,"lon":175.4749169,"elevationM":385},{"id":"node:4941674969","kind":"peak","name":"Pukekino","lat":-39.843737,"lon":175.4150929,"elevationM":365},{"id":"node:4941686341","kind":"peak","name":"Mungaroa","lat":-39.8227759,"lon":175.377203,"elevationM":339},{"id":"node:5002682730","kind":"peak","name":"Otirirau","lat":-39.2601604,"lon":175.8689904,"elevationM":1644},{"id":"node:5002689201","kind":"peak","name":"Patutu","lat":-39.2439662,"lon":175.854353,"elevationM":1654},{"id":"node:5002689202","kind":"peak","name":"Karikaringa","lat":-39.2063893,"lon":175.885531,"elevationM":1694},{"id":"node:5936124824","kind":"peak","name":"Ngarakauwhakarara","lat":-39.5410935,"lon":175.1826019,"elevationM":654},{"id":"node:5936124827","kind":"peak","name":"Pukehinau","lat":-39.4750344,"lon":175.0411143,"elevationM":180},{"id":"node:5936124828","kind":"peak","name":"Pukunui","lat":-39.484642,"lon":175.0969,"elevationM":610},{"id":"node:5936124829","kind":"peak","name":"Whaharangi","lat":-39.4810598,"lon":175.0791094,"elevationM":636},{"id":"node:5945297036","kind":"peak","name":"Girdlestone Peak","lat":-39.2976578,"lon":175.5673321,"elevationM":2658},{"id":"node:6172162685","kind":"volcano","name":"Saddle Cone","lat":-39.2294881,"lon":175.5944253,"elevationM":1501},{"id":"node:7180040516","kind":"volcano","name":"Mount Ruapehu","lat":-39.2812032,"lon":175.5642887,"elevationM":2797},{"id":"node:7180043907","kind":"volcano","name":"Red Crater","lat":-39.1367273,"lon":175.6509076,"elevationM":null},{"id":"node:7733470916","kind":"peak","name":"Hauhungatahi","lat":-39.2293323,"lon":175.4440715,"elevationM":1521},{"id":"node:7833976391","kind":"peak","name":"Aratataramoa","lat":-39.6126641,"lon":175.6393933,"elevationM":709},{"id":"node:7833978289","kind":"peak","name":"Aurupu","lat":-39.3414375,"lon":175.0001752,"elevationM":373},{"id":"node:8307882753","kind":"peak","name":"Raetihi","lat":-39.390298,"lon":175.4230111,"elevationM":893},{"id":"node:8307882754","kind":"peak","name":"Rongokaupō","lat":-39.3815474,"lon":175.3943439,"elevationM":811},{"id":"node:8601577942","kind":"peak","name":"Paripokai","lat":-39.3264731,"lon":175.0131745,"elevationM":475},{"id":"node:8601577943","kind":"peak","name":"Te Rewa","lat":-39.314641,"lon":175.057601,"elevationM":485},{"id":"node:8601577944","kind":"peak","name":"Manearoa","lat":-39.2904766,"lon":175.0626353,"elevationM":590},{"id":"node:8601577947","kind":"peak","name":"Macdonald","lat":-39.1310279,"lon":175.1009645,"elevationM":546},{"id":"node:8601577955","kind":"peak","name":"Ngapuke Whakatara","lat":-39.3304351,"lon":175.0490127,"elevationM":543},{"id":"node:9002996953","kind":"peak","name":"Rangatira","lat":-39.9365164,"lon":175.6105136,"elevationM":476},{"id":"node:9002997836","kind":"peak","name":"Egmont Peak","lat":-39.7301518,"lon":175.7866868,"elevationM":839},{"id":"node:9041614690","kind":"peak","name":"Totarapuku","lat":-39.5938466,"lon":175.5861017,"elevationM":589},{"id":"node:9044571848","kind":"peak","name":"Pouti","lat":-39.5817057,"lon":175.5628369,"elevationM":709},{"id":"node:9044571850","kind":"peak","name":"Ngapukeriki","lat":-39.6007509,"lon":175.6081359,"elevationM":654},{"id":"node:9139167192","kind":"peak","name":"Glacier Knob","lat":-39.269261,"lon":175.5659617,"elevationM":2642},{"id":"node:9236249366","kind":"peak","name":"Mount Stewart","lat":-39.6714421,"lon":175.7959806,"elevationM":null},{"id":"node:9730819574","kind":"peak","name":"Rakautangi","lat":-39.3627608,"lon":175.097838,"elevationM":565},{"id":"node:9778412385","kind":"peak","name":"Ranganui","lat":-39.3855139,"lon":175.0506202,"elevationM":585},{"id":"node:9778533441","kind":"peak","name":"Popotea","lat":-39.3905242,"lon":175.0197111,"elevationM":225},{"id":"node:9889305736","kind":"peak","name":"Turiohineterangi","lat":-39.5688148,"lon":175.9760867,"elevationM":942},{"id":"node:9889313758","kind":"peak","name":"Otutokonui","lat":-39.6800843,"lon":175.9653207,"elevationM":774},{"id":"node:9908974027","kind":"peak","name":"Rangakauika","lat":-39.4698883,"lon":175.4211839,"elevationM":799},{"id":"node:9909548984","kind":"peak","name":"Te Ruakaka","lat":-39.4164223,"lon":175.0990954,"elevationM":446},{"id":"node:9909573220","kind":"peak","name":"Tararua","lat":-39.336591,"lon":175.1413974,"elevationM":452},{"id":"node:9911681616","kind":"peak","name":"Wharemata","lat":-39.7829266,"lon":175.3509826,"elevationM":416},{"id":"node:9911746622","kind":"peak","name":"Orangitoea","lat":-39.6787739,"lon":175.8337859,"elevationM":650},{"id":"node:9913707839","kind":"peak","name":"Omuia","lat":-39.847979,"lon":175.6781423,"elevationM":448},{"id":"node:10164851327","kind":"peak","name":"Papapohatu","lat":-39.0465404,"lon":175.8939245,"elevationM":651},{"id":"node:10201018325","kind":"peak","name":"Otawaki","lat":-39.7421826,"lon":175.13508,"elevationM":423},{"id":"node:10231543776","kind":"peak","name":"Paoneone","lat":-39.5641017,"lon":175.8428087,"elevationM":825},{"id":"node:10231546644","kind":"peak","name":"Opatere","lat":-39.5689322,"lon":175.8892608,"elevationM":770},{"id":"node:10231560473","kind":"peak","name":"Taumataoteikawhakaariki","lat":-39.5785392,"lon":175.903006,"elevationM":816},{"id":"node:10241660104","kind":"peak","name":"Pukemako","lat":-39.5342146,"lon":175.8197732,"elevationM":1032},{"id":"node:10241683331","kind":"peak","name":"Pukenaua","lat":-39.6733252,"lon":175.7775894,"elevationM":666},{"id":"node:10242962603","kind":"peak","name":"Te Rei","lat":-39.502645,"lon":175.8640139,"elevationM":1021},{"id":"node:10253626897","kind":"peak","name":"Tuhi","lat":-39.7199627,"lon":175.1038769,"elevationM":469},{"id":"node:10254150723","kind":"peak","name":"Okahurea","lat":-39.4379257,"lon":175.190234,"elevationM":682},{"id":"node:10254153658","kind":"peak","name":"Tawhiwhinui","lat":-39.4235155,"lon":175.14665,"elevationM":550},{"id":"node:10254375771","kind":"peak","name":"Poutahi","lat":-39.4198985,"lon":175.176155,"elevationM":695},{"id":"node:10254575674","kind":"peak","name":"Waituhu","lat":-39.4118499,"lon":175.0585994,"elevationM":330},{"id":"node:10254576456","kind":"peak","name":"Whakapaenoa","lat":-39.4674437,"lon":175.1492279,"elevationM":648},{"id":"node:10254576488","kind":"peak","name":"Pikoki","lat":-39.4103995,"lon":175.022049,"elevationM":479},{"id":"node:10254576690","kind":"peak","name":"Ringiringi","lat":-39.4620924,"lon":175.0542836,"elevationM":370},{"id":"node:10254580195","kind":"peak","name":"Tawhitikuri","lat":-39.4411955,"lon":175.1261475,"elevationM":555},{"id":"node:10254598259","kind":"peak","name":"Otamore","lat":-39.4569846,"lon":175.0713381,"elevationM":464},{"id":"node:10254601815","kind":"peak","name":"Papahaua","lat":-39.5167421,"lon":175.2589859,"elevationM":683},{"id":"node:10264311379","kind":"peak","name":"Paotamariki","lat":-39.6615401,"lon":175.2241997,"elevationM":615},{"id":"node:10265849303","kind":"peak","name":"Tauakira","lat":-39.6925109,"lon":175.2126289,"elevationM":713},{"id":"node:10265992412","kind":"peak","name":"Waipakura","lat":-39.86454,"lon":175.1378071,"elevationM":190},{"id":"node:10266663193","kind":"peak","name":"Hautawa","lat":-39.8441862,"lon":175.5709542,"elevationM":456},{"id":"node:10266663194","kind":"peak","name":"Te Namu","lat":-39.8057052,"lon":175.584445,"elevationM":609},{"id":"node:10266663195","kind":"peak","name":"Mangaharakeke","lat":-39.7871629,"lon":175.612211,"elevationM":589},{"id":"node:10266663196","kind":"peak","name":"Tauporae","lat":-39.7985852,"lon":175.6466203,"elevationM":760},{"id":"node:10266686272","kind":"peak","name":"Tawai","lat":-39.9138902,"lon":175.8716831,"elevationM":602},{"id":"node:10266686273","kind":"peak","name":"Takapurau","lat":-39.9043716,"lon":175.7608445,"elevationM":469},{"id":"node:10266686274","kind":"peak","name":"Mangapipi","lat":-39.9691585,"lon":175.689765,"elevationM":407},{"id":"node:10267136024","kind":"peak","name":"Lowrie Peak","lat":-39.9375074,"lon":175.31344,"elevationM":214},{"id":"node:10267136025","kind":"peak","name":"Okaiepi","lat":-39.8721145,"lon":175.324558,"elevationM":282},{"id":"node:10268421850","kind":"peak","name":"Poiki","lat":-39.6422401,"lon":175.381717,"elevationM":619},{"id":"node:10268949851","kind":"peak","name":"Panemango","lat":-39.6611478,"lon":175.6162189,"elevationM":660},{"id":"node:10268954340","kind":"peak","name":"Puwehea","lat":-39.6429009,"lon":175.5753107,"elevationM":555},{"id":"node:10269038338","kind":"peak","name":"Otukaiata","lat":-39.6376188,"lon":175.6327075,"elevationM":648},{"id":"node:10269071464","kind":"peak","name":"Whakamae","lat":-39.6680067,"lon":175.6752544,"elevationM":651},{"id":"node:10269086884","kind":"peak","name":"Whakawareware","lat":-39.708498,"lon":175.6542226,"elevationM":525},{"id":"node:10269111811","kind":"peak","name":"Taukopu","lat":-39.7745659,"lon":175.7039049,"elevationM":751},{"id":"node:10269122531","kind":"peak","name":"Ratahauhau","lat":-39.8636793,"lon":175.6050617,"elevationM":485},{"id":"node:10269133889","kind":"peak","name":"Okota","lat":-39.8632389,"lon":175.5541722,"elevationM":430},{"id":"node:10272289998","kind":"peak","name":"Tawapiko","lat":-39.6250625,"lon":175.1300475,"elevationM":667},{"id":"node:10272348840","kind":"peak","name":"Tokapapa","lat":-39.5620494,"lon":175.1621045,"elevationM":578},{"id":"node:10604893587","kind":"peak","name":"Te Rotete","lat":-39.4024174,"lon":175.7898184,"elevationM":1154},{"id":"node:10705867868","kind":"peak","name":"Otototo","lat":-39.748917,"lon":175.338556,"elevationM":null},{"id":"node:10705867869","kind":"peak","name":"Opanga","lat":-39.747333,"lon":175.306096,"elevationM":316},{"id":"node:10705867870","kind":"peak","name":"Tawhitipapa","lat":-39.754694,"lon":175.269722,"elevationM":null},{"id":"node:10705867871","kind":"peak","name":"Pukewharariki","lat":-39.745954,"lon":175.22218,"elevationM":460},{"id":"node:10705867872","kind":"peak","name":"Pukenui","lat":-39.758287,"lon":175.218924,"elevationM":350},{"id":"node:10705867873","kind":"peak","name":"Kaitara","lat":-39.802479,"lon":175.194974,"elevationM":220},{"id":"node:10705867874","kind":"peak","name":"Parikino","lat":-39.810194,"lon":175.169667,"elevationM":null},{"id":"node:10705867875","kind":"peak","name":"Ngataiakiaki","lat":-39.801667,"lon":175.134917,"elevationM":310},{"id":"node:10705867876","kind":"peak","name":"Kaiatea","lat":-39.812543,"lon":175.116154,"elevationM":288},{"id":"node:10705867877","kind":"peak","name":"Kairae","lat":-39.789083,"lon":175.107056,"elevationM":318},{"id":"node:10705867878","kind":"peak","name":"Tirotiro","lat":-39.777028,"lon":175.155306,"elevationM":199},{"id":"node:10705867879","kind":"peak","name":"Taupiri","lat":-39.720185,"lon":175.175548,"elevationM":489},{"id":"node:10705867880","kind":"peak","name":"Omokoroa","lat":-39.648785,"lon":175.192199,"elevationM":498},{"id":"node:10705867881","kind":"peak","name":"Pouohae","lat":-39.630278,"lon":175.214194,"elevationM":434},{"id":"node:10705867882","kind":"peak","name":"Te Konia","lat":-39.610345,"lon":175.239834,"elevationM":676},{"id":"node:10705867883","kind":"peak","name":"Harawera","lat":-39.654472,"lon":175.280083,"elevationM":681},{"id":"node:10705867884","kind":"peak","name":"Maewa","lat":-39.706056,"lon":175.29025,"elevationM":658},{"id":"node:10705867885","kind":"peak","name":"Pakira","lat":-39.695753,"lon":175.357987,"elevationM":568},{"id":"node:10705867886","kind":"peak","name":"Pukekiwi","lat":-39.674583,"lon":175.380333,"elevationM":651},{"id":"node:10705867887","kind":"peak","name":"Maukuku","lat":-39.612389,"lon":175.388333,"elevationM":629},{"id":"node:10705867888","kind":"peak","name":"Puketaunoko","lat":-39.60025,"lon":175.372972,"elevationM":596},{"id":"node:10705867889","kind":"peak","name":"Momo","lat":-39.584583,"lon":175.344,"elevationM":699},{"id":"node:10705867890","kind":"peak","name":"Te Kawa-o-Tāwhaki","lat":-39.553997,"lon":175.379769,"elevationM":null},{"id":"node:10705867891","kind":"peak","name":"Tāpui-o-te-uira","lat":-39.546978,"lon":175.367473,"elevationM":null},{"id":"node:10705867892","kind":"peak","name":"Otiranui","lat":-39.466662,"lon":175.324441,"elevationM":795},{"id":"node:10705867893","kind":"peak","name":"Hukaroa","lat":-39.461677,"lon":175.258292,"elevationM":null},{"id":"node:10705867894","kind":"peak","name":"Waipuna","lat":-39.459972,"lon":175.198083,"elevationM":null},{"id":"node:10705867895","kind":"peak","name":"Puketoi","lat":-39.444693,"lon":175.148748,"elevationM":599},{"id":"node:10705867896","kind":"peak","name":"Tunupu","lat":-39.480644,"lon":175.499238,"elevationM":685},{"id":"node:10705867897","kind":"peak","name":"Ōtamakotinga","lat":-39.495273,"lon":175.557194,"elevationM":null},{"id":"node:10705867898","kind":"peak","name":"Tuhirangi","lat":-39.51075,"lon":175.640444,"elevationM":null},{"id":"node:10705867899","kind":"peak","name":"Ara","lat":-39.563805,"lon":175.595962,"elevationM":687},{"id":"node:10705867900","kind":"peak","name":"Pukehuia","lat":-39.62386,"lon":175.610713,"elevationM":704},{"id":"node:10705867901","kind":"peak","name":"Okahu","lat":-39.617139,"lon":175.581694,"elevationM":624},{"id":"node:10705867902","kind":"peak","name":"Kauaekeke","lat":-39.654561,"lon":175.584154,"elevationM":696},{"id":"node:10705867903","kind":"peak","name":"Round Hill","lat":-39.650637,"lon":175.601631,"elevationM":630},{"id":"node:10705867904","kind":"peak","name":"Maungakaretu","lat":-39.633444,"lon":175.524722,"elevationM":null},{"id":"node:10705914928","kind":"peak","name":"Makino","lat":-39.7155,"lon":175.9845,"elevationM":null},{"id":"node:10705914929","kind":"peak","name":"Matuku","lat":-39.653108,"lon":175.944873,"elevationM":674},{"id":"node:10705914939","kind":"peak","name":"Pakihikura","lat":-39.955392,"lon":175.701498,"elevationM":454},{"id":"node:10705914940","kind":"peak","name":"Kuratahi","lat":-39.635165,"lon":175.682408,"elevationM":747},{"id":"node:10705914941","kind":"peak","name":"Otupukauia","lat":-39.626988,"lon":175.678452,"elevationM":739},{"id":"node:10705914942","kind":"peak","name":"Ohinepua","lat":-39.633431,"lon":175.705904,"elevationM":696},{"id":"node:10705914943","kind":"peak","name":"Hokio","lat":-39.631852,"lon":175.719807,"elevationM":704},{"id":"node:10705914944","kind":"peak","name":"Motukawa","lat":-39.654474,"lon":175.730569,"elevationM":684},{"id":"node:10705914945","kind":"peak","name":"Rangiura","lat":-39.645922,"lon":175.746053,"elevationM":690},{"id":"node:10705914946","kind":"peak","name":"Matapouri","lat":-39.642614,"lon":175.804699,"elevationM":669},{"id":"node:10705914947","kind":"peak","name":"Papakai","lat":-39.653699,"lon":175.845123,"elevationM":718},{"id":"node:10705914948","kind":"peak","name":"Matangawha","lat":-39.655889,"lon":175.858361,"elevationM":null},{"id":"node:10705914949","kind":"peak","name":"Puherua","lat":-39.699996,"lon":175.880834,"elevationM":721},{"id":"node:10705914950","kind":"peak","name":"Kauaekeke","lat":-39.543889,"lon":175.796528,"elevationM":null},{"id":"node:10705914951","kind":"peak","name":"Whakatara","lat":-39.531119,"lon":175.739234,"elevationM":1038},{"id":"node:10705914952","kind":"peak","name":"Waitangi","lat":-39.449251,"lon":175.686266,"elevationM":null},{"id":"node:10705914953","kind":"peak","name":"Auahitōtara Kāinga","lat":-39.466361,"lon":175.775167,"elevationM":null},{"id":"node:10705914954","kind":"peak","name":"Huriwaka","lat":-39.504194,"lon":175.832833,"elevationM":null},{"id":"node:10705914955","kind":"peak","name":"Karaitana","lat":-39.533528,"lon":175.966667,"elevationM":918},{"id":"node:10705914962","kind":"peak","name":"Motupuha","lat":-39.485028,"lon":175.986361,"elevationM":null},{"id":"node:10705926788","kind":"peak","name":"Whirinaki","lat":-39.254833,"lon":175.027139,"elevationM":null},{"id":"node:10705926795","kind":"peak","name":"Motai","lat":-39.429528,"lon":175.022861,"elevationM":297},{"id":"node:10705926796","kind":"peak","name":"Hihi","lat":-39.434806,"lon":175.036333,"elevationM":343},{"id":"node:10705926797","kind":"peak","name":"Purakau","lat":-39.433361,"lon":175.053222,"elevationM":455},{"id":"node:10705926798","kind":"peak","name":"Horokowhai","lat":-39.430408,"lon":175.070692,"elevationM":523},{"id":"node:10705926799","kind":"peak","name":"Pukeatua","lat":-39.406959,"lon":175.054548,"elevationM":362},{"id":"node:10705926801","kind":"peak","name":"Kahunui","lat":-39.449222,"lon":175.044167,"elevationM":348},{"id":"node:10705934905","kind":"peak","name":"Mataiaponga","lat":-39.764257,"lon":175.589659,"elevationM":625},{"id":"node:10705934906","kind":"peak","name":"Tiriraukawa","lat":-39.862667,"lon":175.508556,"elevationM":null},{"id":"node:10705934907","kind":"peak","name":"Pukeroa","lat":-39.817056,"lon":175.516806,"elevationM":395},{"id":"node:10705934908","kind":"peak","name":"Pukehua","lat":-39.787591,"lon":175.52394,"elevationM":564},{"id":"node:10705934909","kind":"peak","name":"Mangamahu","lat":-39.755032,"lon":175.481267,"elevationM":null},{"id":"node:10705934910","kind":"peak","name":"Takihi","lat":-39.721056,"lon":175.376611,"elevationM":null},{"id":"node:10705934911","kind":"peak","name":"Te Kapu","lat":-39.890491,"lon":175.410873,"elevationM":306},{"id":"node:10705934912","kind":"peak","name":"Ngaruru","lat":-39.89325,"lon":175.444278,"elevationM":null},{"id":"node:10705934913","kind":"peak","name":"Kaikai","lat":-39.849195,"lon":175.276033,"elevationM":212},{"id":"node:10705934914","kind":"peak","name":"Mount Mitchell","lat":-39.869944,"lon":175.266806,"elevationM":null},{"id":"node:10705934915","kind":"peak","name":"Sentry Hill","lat":-39.869793,"lon":175.233124,"elevationM":195},{"id":"node:10705934916","kind":"peak","name":"Table Hill","lat":-39.900355,"lon":175.188207,"elevationM":215},{"id":"node:10705934917","kind":"peak","name":"Pukekahu","lat":-39.803778,"lon":175.293722,"elevationM":257},{"id":"node:10705934918","kind":"peak","name":"Pipipi","lat":-39.816288,"lon":175.312003,"elevationM":453},{"id":"node:10705953774","kind":"peak","name":"Ruatahuna","lat":-39.108631,"lon":175.949554,"elevationM":1363},{"id":"node:10705953775","kind":"peak","name":"Ngapukeahuanga","lat":-39.105085,"lon":175.976311,"elevationM":1439},{"id":"node:10705953785","kind":"peak","name":"Motumatai","lat":-39.321611,"lon":175.99175,"elevationM":null},{"id":"node:10705953787","kind":"peak","name":"Ngawhareangarua","lat":-39.293142,"lon":175.862645,"elevationM":1433},{"id":"node:10705953788","kind":"peak","name":"Manukaiapu","lat":-39.319667,"lon":175.822417,"elevationM":null},{"id":"node:10705953789","kind":"peak","name":"Mangaio","lat":-39.347139,"lon":175.771667,"elevationM":null},{"id":"node:10705953790","kind":"peak","name":"Mount Azim","lat":-39.359642,"lon":175.871956,"elevationM":1425},{"id":"node:10705953791","kind":"peak","name":"Kaimanawa / Three Kings","lat":-39.408239,"lon":175.905266,"elevationM":1404},{"id":"node:10705953792","kind":"peak","name":"Waipahihi","lat":-39.26647,"lon":175.816645,"elevationM":1546},{"id":"node:10705953793","kind":"peak","name":"The Needles","lat":-39.268002,"lon":175.808634,"elevationM":1526},{"id":"node:10705953794","kind":"peak","name":"Wharepu","lat":-39.262988,"lon":175.714753,"elevationM":null},{"id":"node:10705953795","kind":"peak","name":"Hyde","lat":-39.272796,"lon":175.696293,"elevationM":1164},{"id":"node:10705953796","kind":"peak","name":"Waihohonu","lat":-39.20375,"lon":175.742887,"elevationM":987},{"id":"node:10705953797","kind":"peak","name":"Oturere","lat":-39.178365,"lon":175.768595,"elevationM":876},{"id":"node:10705953798","kind":"peak","name":"Kopuawhio","lat":-39.097944,"lon":175.858083,"elevationM":670},{"id":"node:10705953799","kind":"peak","name":"Horehore","lat":-39.079633,"lon":175.866587,"elevationM":689},{"id":"node:10705953800","kind":"peak","name":"Motiti","lat":-39.027139,"lon":175.921944,"elevationM":null},{"id":"node:10705962103","kind":"peak","name":"Papaumu","lat":-39.040959,"lon":175.043477,"elevationM":385},{"id":"node:10705973012","kind":"peak","name":"Tahuawatea","lat":-39.082821,"lon":175.703594,"elevationM":705},{"id":"node:10705973013","kind":"peak","name":"Makahikatoa","lat":-39.400272,"lon":175.688246,"elevationM":901},{"id":"node:10705973120","kind":"peak","name":"Okupata","lat":-39.100618,"lon":175.519161,"elevationM":null},{"id":"node:10705973121","kind":"peak","name":"Karewarewa","lat":-39.1008,"lon":175.638891,"elevationM":1278},{"id":"node:10705973122","kind":"peak","name":"Te Kohatu","lat":-39.263778,"lon":175.5195,"elevationM":1725},{"id":"node:10705973123","kind":"peak","name":"Tufa","lat":-39.330995,"lon":175.627831,"elevationM":null},{"id":"node:10705973124","kind":"peak","name":"Rata","lat":-39.434117,"lon":175.402437,"elevationM":null},{"id":"node:10705973125","kind":"peak","name":"Rangatauanui Hill","lat":-39.437306,"lon":175.378873,"elevationM":622},{"id":"node:10705973126","kind":"peak","name":"Marie","lat":-39.43508,"lon":175.448064,"elevationM":null},{"id":"node:10705973127","kind":"peak","name":"Ngataumaro","lat":-39.388833,"lon":175.275917,"elevationM":null},{"id":"node:10705973128","kind":"peak","name":"Pipipi","lat":-39.38474,"lon":175.230626,"elevationM":786},{"id":"node:10705973129","kind":"peak","name":"Ameku","lat":-39.381877,"lon":175.199932,"elevationM":757},{"id":"node:10705973130","kind":"peak","name":"Keikei","lat":-39.433137,"lon":175.102674,"elevationM":589},{"id":"node:10705973131","kind":"peak","name":"Kaitara","lat":-39.432109,"lon":175.085812,"elevationM":567},{"id":"node:10705973132","kind":"peak","name":"Tarata","lat":-39.408292,"lon":175.078591,"elevationM":504},{"id":"node:10705973133","kind":"peak","name":"Meremere","lat":-39.391521,"lon":175.10426,"elevationM":null},{"id":"node:10705973134","kind":"peak","name":"Murumuru","lat":-39.326561,"lon":175.109874,"elevationM":482},{"id":"node:10705973135","kind":"peak","name":"Pikiariki","lat":-39.307222,"lon":175.184611,"elevationM":580},{"id":"node:10705973136","kind":"peak","name":"Okauamo","lat":-39.340611,"lon":175.22,"elevationM":554},{"id":"node:10705973137","kind":"peak","name":"Otautu","lat":-39.282389,"lon":175.244778,"elevationM":755},{"id":"node:10705973138","kind":"peak","name":"Cone","lat":-39.233822,"lon":175.19303,"elevationM":648},{"id":"node:10705973139","kind":"peak","name":"Riariaki","lat":-39.220746,"lon":175.21524,"elevationM":668},{"id":"node:10705973140","kind":"peak","name":"Peak","lat":-39.237761,"lon":175.090128,"elevationM":666},{"id":"node:10705973141","kind":"peak","name":"Morinui","lat":-39.223528,"lon":175.128,"elevationM":null},{"id":"node:10705973142","kind":"peak","name":"Te Ranga","lat":-39.241804,"lon":175.157041,"elevationM":671},{"id":"node:10705973143","kind":"peak","name":"Pehu","lat":-39.293417,"lon":175.126806,"elevationM":null},{"id":"node:10705973144","kind":"peak","name":"Ngatauhao","lat":-39.384759,"lon":175.141439,"elevationM":551},{"id":"node:10705994729","kind":"peak","name":"Taurewa","lat":-39.064639,"lon":175.445,"elevationM":1076},{"id":"node:10705994730","kind":"peak","name":"Waione","lat":-39.002056,"lon":175.483415,"elevationM":null},{"id":"node:10705994734","kind":"peak","name":"Wairoa","lat":-39.008508,"lon":175.605825,"elevationM":null},{"id":"node:10705994735","kind":"peak","name":"Otukou","lat":-39.03773,"lon":175.645481,"elevationM":null},{"id":"node:10705994736","kind":"peak","name":"Papakai","lat":-39.051633,"lon":175.595789,"elevationM":null},{"id":"node:11693346421","kind":"peak","name":"Ngā Turi-o-Murimotu","lat":-39.493841,"lon":175.531041,"elevationM":814}]}