{"tileKey":"la_m43_lo_p172","version":"v1-1775891056926","entries":[{"id":"node:2090827477","kind":"peak","name":"Conical Hill","lat":-42.5112759,"lon":172.8289125,"elevationM":550},{"id":"node:3218345821","kind":"peak","name":"Mount Isobel","lat":-42.4817542,"lon":172.8482534,"elevationM":1319},{"id":"node:3218345827","kind":"peak","name":"The Devils Rampart","lat":-42.4861758,"lon":172.2825489,"elevationM":1740},{"id":"node:4397872660","kind":"peak","name":"One Tree Hill","lat":-42.5614115,"lon":172.9792187,"elevationM":736},{"id":"node:4931611861","kind":"peak","name":"Garnet Peak","lat":-42.5487485,"lon":172.4100739,"elevationM":1776},{"id":"node:4931611862","kind":"peak","name":"Mount Schiehallion","lat":-42.529969,"lon":172.4914843,"elevationM":1636},{"id":"node:4931611863","kind":"peak","name":"Mount Saint Andrew","lat":-42.5186145,"lon":172.5263744,"elevationM":1708},{"id":"node:4931624859","kind":"peak","name":"Horseshoe Hill","lat":-42.5647756,"lon":172.5114364,"elevationM":1338},{"id":"node:4931639421","kind":"peak","name":"Mount Lucia","lat":-42.4375515,"lon":172.4379707,"elevationM":1711},{"id":"node:4931639422","kind":"peak","name":"Travers Peak","lat":-42.3891078,"lon":172.4321771,"elevationM":1724},{"id":"node:4931639423","kind":"peak","name":"Faust","lat":-42.4882333,"lon":172.4247485,"elevationM":1710},{"id":"node:4931639424","kind":"peak","name":"Zampa","lat":-42.3447724,"lon":172.4431442,"elevationM":1710},{"id":"node:4931639425","kind":"peak","name":"Trovatore","lat":-42.3768099,"lon":172.4263836,"elevationM":1737},{"id":"node:4931639426","kind":"peak","name":"Mephistopheles","lat":-42.4798195,"lon":172.4223066,"elevationM":1736},{"id":"node:4931644855","kind":"peak","name":"Enid Peak","lat":-42.1929508,"lon":172.6173998,"elevationM":2150},{"id":"node:4931644856","kind":"peak","name":"Duessa Peak","lat":-42.221592,"lon":172.5839258,"elevationM":2233},{"id":"node:4931644857","kind":"peak","name":"Gloriana Peak","lat":-42.2660936,"lon":172.4874757,"elevationM":2218},{"id":"node:4931644860","kind":"peak","name":"Mount Humboldt","lat":-42.1761924,"lon":172.6128078,"elevationM":2206},{"id":"node:4931644861","kind":"peak","name":"Mount Una","lat":-42.2168247,"lon":172.5852133,"elevationM":2300},{"id":"node:4931644862","kind":"peak","name":"Faerie Queene","lat":-42.264034,"lon":172.5149651,"elevationM":2236},{"id":"node:4931655787","kind":"peak","name":"Belvedere Peak","lat":-42.1036061,"lon":172.7209955,"elevationM":2114},{"id":"node:4931655789","kind":"peak","name":"Mount Māhanga","lat":-42.1022624,"lon":172.6352399,"elevationM":2196},{"id":"node:4931655793","kind":"peak","name":"Mount Paske","lat":-42.0892763,"lon":172.7416807,"elevationM":2216},{"id":"node:4931655795","kind":"peak","name":"Kehu Peak","lat":-42.0350789,"lon":172.755242,"elevationM":2220},{"id":"node:4931655796","kind":"peak","name":"Mount McKay","lat":-42.0747124,"lon":172.7257913,"elevationM":2300},{"id":"node:4931675294","kind":"peak","name":"Downie","lat":-42.1389017,"lon":172.5498566,"elevationM":1548},{"id":"node:4931675295","kind":"peak","name":"Crag","lat":-42.0655081,"lon":172.5337633,"elevationM":1590},{"id":"node:4931675299","kind":"peak","name":"Mount Ella","lat":-42.0808338,"lon":172.5789489,"elevationM":2263},{"id":"node:4931675300","kind":"peak","name":"Mount Franklin","lat":-42.0515218,"lon":172.6877436,"elevationM":2340},{"id":"node:4931675301","kind":"peak","name":"Mount Magdalene","lat":-42.1102549,"lon":172.5764641,"elevationM":2187},{"id":"node:4931675302","kind":"peak","name":"Mount Watson","lat":-42.0074671,"lon":172.5745758,"elevationM":1871},{"id":"node:4931675303","kind":"peak","name":"Mount Travers","lat":-42.0134603,"lon":172.7351221,"elevationM":2338},{"id":"node:4931675305","kind":"peak","name":"Mount Dorothy","lat":-42.1216531,"lon":172.5841889,"elevationM":2194},{"id":"node:4931675309","kind":"peak","name":"Windward Peak","lat":-42.0012166,"lon":172.6619944,"elevationM":1966},{"id":"node:4931677775","kind":"peak","name":"Mount Burn","lat":-42.1959021,"lon":172.4748406,"elevationM":2145},{"id":"node:4931677776","kind":"peak","name":"Mount Maling","lat":-42.2267681,"lon":172.4403795,"elevationM":2127},{"id":"node:4931683047","kind":"peak","name":"Mitre Peak","lat":-42.1994349,"lon":172.91828,"elevationM":1556},{"id":"node:4931683048","kind":"peak","name":"Mount Northampton","lat":-42.2938205,"lon":172.9548418,"elevationM":1627},{"id":"node:4931683053","kind":"peak","name":"Maukuratawhai","lat":-42.4311548,"lon":172.8508579,"elevationM":1615},{"id":"node:4931683054","kind":"peak","name":"Mount Northumberland","lat":-42.3081658,"lon":172.8469097,"elevationM":1835},{"id":"node:4934849226","kind":"peak","name":"Mount Boscawen","lat":-42.4755162,"lon":172.2300055,"elevationM":1780},{"id":"node:4934849227","kind":"peak","name":"Lucretia","lat":-42.4082937,"lon":172.3340001,"elevationM":1643},{"id":"node:4934849228","kind":"peak","name":"Mount Hatless","lat":-42.4539379,"lon":172.2785106,"elevationM":1660},{"id":"node:4934849229","kind":"peak","name":"The Grand Duchess","lat":-42.440625,"lon":172.2932198,"elevationM":1703},{"id":"node:4934849230","kind":"peak","name":"Mount Barron","lat":-42.4960335,"lon":172.1955488,"elevationM":1806},{"id":"node:4934849231","kind":"peak","name":"The Apprentice","lat":-42.4020685,"lon":172.3364355,"elevationM":1678},{"id":"node:4934861788","kind":"peak","name":"Dampier Corner","lat":-42.8696103,"lon":172.1385974,"elevationM":1625},{"id":"node:4934861790","kind":"peak","name":"Black Rock","lat":-42.9382006,"lon":172.2462677,"elevationM":1714},{"id":"node:4934861792","kind":"peak","name":"Mount Crossley","lat":-42.8358852,"lon":172.0738811,"elevationM":1980},{"id":"node:4934861793","kind":"peak","name":"Top of the Ladder","lat":-42.8682295,"lon":172.2317645,"elevationM":1792},{"id":"node:4934861794","kind":"peak","name":"Mount Whatno","lat":-42.9379838,"lon":172.272577,"elevationM":1396},{"id":"node:4934861796","kind":"peak","name":"Esk Head","lat":-42.8640114,"lon":172.2388906,"elevationM":1864},{"id":"node:4934861798","kind":"peak","name":"Ashley Head","lat":-42.9576797,"lon":172.222969,"elevationM":1465},{"id":"node:4941782637","kind":"peak","name":"Mount Crosscut","lat":-42.1013749,"lon":172.1360665,"elevationM":1613},{"id":"node:4941782644","kind":"peak","name":"Creighton Peak","lat":-42.1137775,"lon":172.1491449,"elevationM":1582},{"id":"node:4941782645","kind":"peak","name":"Mount Victoria","lat":-42.0294983,"lon":172.118424,"elevationM":1639},{"id":"node:4941782647","kind":"peak","name":"Mount Pelion","lat":-42.0079151,"lon":172.0829373,"elevationM":1502},{"id":"node:4941782648","kind":"peak","name":"Mount Ralph","lat":-42.0555719,"lon":172.1098881,"elevationM":1543},{"id":"node:4946765727","kind":"peak","name":"Fyfe Peak","lat":-42.1922463,"lon":172.3420114,"elevationM":1610},{"id":"node:4946765728","kind":"peak","name":"Mount Beckman","lat":-42.3351669,"lon":172.022556,"elevationM":1588},{"id":"node:4946765729","kind":"peak","name":"Mount Rutland","lat":-42.0439362,"lon":172.221812,"elevationM":1315},{"id":"node:4946765731","kind":"peak","name":"Mount Hunter","lat":-42.330819,"lon":172.0500648,"elevationM":1552},{"id":"node:4946765732","kind":"peak","name":"Mount Haast","lat":-42.3133372,"lon":172.0802772,"elevationM":1587},{"id":"node:4946765733","kind":"peak","name":"Mount Penneal","lat":-42.2719097,"lon":172.0289504,"elevationM":1487},{"id":"node:4946765735","kind":"peak","name":"Mount Mueller","lat":-42.3594008,"lon":172.2961821,"elevationM":1630},{"id":"node:4946765736","kind":"peak","name":"Granite Pinnacle","lat":-42.1329002,"lon":172.2825265,"elevationM":926},{"id":"node:4946765737","kind":"peak","name":"Freyberg Peak","lat":-42.3393845,"lon":172.3794336,"elevationM":1817},{"id":"node:4946765738","kind":"peak","name":"Mount Alexander","lat":-42.3515993,"lon":172.1218579,"elevationM":1282},{"id":"node:4946765740","kind":"peak","name":"Marble Hill","lat":-42.3516437,"lon":172.2090554,"elevationM":715},{"id":"node:4946765743","kind":"peak","name":"Baldy","lat":-42.2870537,"lon":172.2542495,"elevationM":1329},{"id":"node:4946765744","kind":"peak","name":"Mount Puttick","lat":-42.3433194,"lon":172.0309245,"elevationM":1623},{"id":"node:4946765745","kind":"peak","name":"Devils Knob","lat":-42.1359125,"lon":172.2789302,"elevationM":762},{"id":"node:4946765747","kind":"peak","name":"Mount Kemp","lat":-42.3402092,"lon":172.084397,"elevationM":1637},{"id":"node:4946765748","kind":"peak","name":"Ivess Peak","lat":-42.2059329,"lon":172.1209931,"elevationM":1749},{"id":"node:4946804671","kind":"peak","name":"Mount Blackadder","lat":-42.2619687,"lon":172.1330788,"elevationM":1556},{"id":"node:5400372257","kind":"peak","name":"Mount Princess","lat":-42.1794954,"lon":172.6909178,"elevationM":2126},{"id":"node:5934144630","kind":"peak","name":"Baldy","lat":-42.0216869,"lon":172.4284419,"elevationM":1431},{"id":"node:6265124743","kind":"peak","name":"Mount Balaclava","lat":-42.1757156,"lon":172.8498802,"elevationM":1937},{"id":"node:6271138887","kind":"peak","name":"Mount Tarndale","lat":-42.1604051,"lon":172.8898003,"elevationM":1789},{"id":"node:6271138888","kind":"peak","name":"Southey Mount","lat":-42.1955238,"lon":172.7520737,"elevationM":1691},{"id":"node:6271138889","kind":"peak","name":"Mount McCabe","lat":-42.195104,"lon":172.7103958,"elevationM":1606},{"id":"node:6271138890","kind":"peak","name":"Mount Guinevere","lat":-42.1411456,"lon":172.7193437,"elevationM":2157},{"id":"node:6271138891","kind":"peak","name":"Mount Dora","lat":-42.1355035,"lon":172.7255154,"elevationM":2167},{"id":"node:6271138892","kind":"peak","name":"Crystal Peak","lat":-42.166755,"lon":172.730568,"elevationM":2020},{"id":"node:6271138893","kind":"peak","name":"Mount Maling","lat":-42.1723879,"lon":172.7500355,"elevationM":1825},{"id":"node:6363820491","kind":"peak","name":"Mount Technical","lat":-42.4084404,"lon":172.3533824,"elevationM":1870},{"id":"node:6554993503","kind":"peak","name":"Mount Tekoa","lat":-42.6638888,"lon":172.6267721,"elevationM":1615},{"id":"node:6556833200","kind":"peak","name":"Maritana","lat":-42.4495984,"lon":172.509405,"elevationM":1815},{"id":"node:6556833248","kind":"peak","name":"Miromiro","lat":-42.4827757,"lon":172.6683901,"elevationM":1875},{"id":"node:6556833249","kind":"peak","name":"Mount Moki","lat":-42.2380692,"lon":172.5939928,"elevationM":1883},{"id":"node:7212967185","kind":"peak","name":"Dumblane","lat":-42.4822513,"lon":172.800277,"elevationM":1303},{"id":"node:7334429007","kind":"peak","name":"Mount Arden","lat":-42.9913927,"lon":172.484689,"elevationM":728},{"id":"node:7539240756","kind":"peak","name":"Emily Peaks","lat":-42.141827,"lon":172.4451036,"elevationM":2028},{"id":"node:7977521348","kind":"peak","name":"Alma Peak","lat":-42.1432325,"lon":172.9694795,"elevationM":1617},{"id":"node:7977521349","kind":"peak","name":"Alma Heights","lat":-42.1449507,"lon":172.9761743,"elevationM":1615},{"id":"node:7977839486","kind":"peak","name":"Mount Sebastopol","lat":-42.247667,"lon":172.876306,"elevationM":2013},{"id":"node:7982226943","kind":"peak","name":"Black Serpent","lat":-42.2686237,"lon":172.8147054,"elevationM":1837},{"id":"node:7982232239","kind":"peak","name":"Mount Clara","lat":-42.3315829,"lon":172.6975679,"elevationM":1945},{"id":"node:7982232240","kind":"peak","name":"Mount Seymour","lat":-42.2996271,"lon":172.7435731,"elevationM":1793},{"id":"node:7982232241","kind":"peak","name":"Blue Mountain","lat":-42.2906436,"lon":172.735033,"elevationM":1745},{"id":"node:7982232242","kind":"peak","name":"Mount Kruse","lat":-42.2591434,"lon":172.7353763,"elevationM":1852},{"id":"node:7982232244","kind":"peak","name":"Mount Laura","lat":-42.299139,"lon":172.682306,"elevationM":1458},{"id":"node:7982232245","kind":"peak","name":"Mount Stanley","lat":-42.268417,"lon":172.678889,"elevationM":1860},{"id":"node:7983721958","kind":"peak","name":"Rabbit Hill","lat":-42.3080782,"lon":172.7077619,"elevationM":1420},{"id":"node:7983721959","kind":"peak","name":"Mount Pickett","lat":-42.3217313,"lon":172.7124263,"elevationM":1776},{"id":"node:7983721960","kind":"peak","name":"Mount Catley","lat":-42.3263003,"lon":172.7210395,"elevationM":1865},{"id":"node:7988041926","kind":"peak","name":"Mount Chittenden","lat":-42.0085846,"lon":172.8206062,"elevationM":2205},{"id":"node:7995762513","kind":"peak","name":"Tonga Hill","lat":-42.3884412,"lon":172.7097129,"elevationM":1672},{"id":"node:7995769682","kind":"peak","name":"Mount Saint George","lat":-42.336778,"lon":172.744111,"elevationM":18011744},{"id":"node:7995769683","kind":"peak","name":"Mount Taliessin","lat":-42.3433679,"lon":172.7585935,"elevationM":1641},{"id":"node:7995769684","kind":"peak","name":"Mount Sadd","lat":-42.3730663,"lon":172.7111721,"elevationM":1798},{"id":"node:7995769685","kind":"peak","name":"Mount Horrible","lat":-42.3649177,"lon":172.7318573,"elevationM":1764},{"id":"node:7996563035","kind":"peak","name":"San Jago","lat":-42.452278,"lon":172.7121806,"elevationM":1722},{"id":"node:8104637577","kind":"peak","name":"Mount Iris","lat":-42.095643,"lon":172.808032,"elevationM":20492114},{"id":"node:8703353199","kind":"peak","name":"Cherry Tree Hill","lat":-42.7973142,"lon":172.3175265,"elevationM":980},{"id":"node:8770380801","kind":"peak","name":"Isolated Hill","lat":-42.6909045,"lon":172.0874729,"elevationM":705},{"id":"node:8770380802","kind":"peak","name":"Dinner Hill","lat":-42.6887311,"lon":172.0732283,"elevationM":645},{"id":"node:8911433176","kind":"peak","name":"Little Sisters","lat":-42.7720772,"lon":172.3058945,"elevationM":878},{"id":"node:9003057083","kind":"peak","name":"Nukiwai","lat":-42.7557636,"lon":172.9799441,"elevationM":224},{"id":"node:9003057084","kind":"peak","name":"Mount Kākāpō","lat":-42.6109278,"lon":172.4867016,"elevationM":853},{"id":"node:9003057085","kind":"peak","name":"Mons Sex Millia","lat":-42.5350021,"lon":172.4499612,"elevationM":1835},{"id":"node:9140852760","kind":"peak","name":"The Monument","lat":-42.9085026,"lon":172.3237643,"elevationM":954},{"id":"node:9443618368","kind":"peak","name":"Tawhai Hill","lat":-42.6684619,"lon":172.2063386,"elevationM":1395},{"id":"node:9443630001","kind":"peak","name":"Macs Knob","lat":-42.6729528,"lon":172.1374973,"elevationM":1435},{"id":"node:9454535363","kind":"peak","name":"Little Organ","lat":-42.6630588,"lon":172.5289825,"elevationM":null},{"id":"node:9644932368","kind":"peak","name":"Turpentine","lat":-42.4295703,"lon":172.1303558,"elevationM":1368},{"id":"node:10680066923","kind":"peak","name":"Centre Hill","lat":-42.993917,"lon":172.944778,"elevationM":null},{"id":"node:10680066924","kind":"peak","name":"Moores Hill North","lat":-42.948778,"lon":172.892528,"elevationM":null},{"id":"node:10680066925","kind":"peak","name":"Mound","lat":-42.928333,"lon":172.949333,"elevationM":158},{"id":"node:10680066926","kind":"peak","name":"Ben Lomond","lat":-42.859611,"lon":172.916083,"elevationM":null},{"id":"node:10680066927","kind":"peak","name":"Cat Hill","lat":-42.8385,"lon":172.978611,"elevationM":null},{"id":"node:10680066939","kind":"peak","name":"Saint Leonards","lat":-42.775361,"lon":172.933778,"elevationM":null},{"id":"node:10680066961","kind":"peak","name":"Moores Hill South","lat":-42.959444,"lon":172.822306,"elevationM":null},{"id":"node:10680066962","kind":"peak","name":"Mount Alexander","lat":-42.906917,"lon":172.813194,"elevationM":null},{"id":"node:10680066963","kind":"peak","name":"Castle Hill","lat":-42.9302822,"lon":172.7541798,"elevationM":539},{"id":"node:10680066964","kind":"peak","name":"Mount Donald","lat":-42.983278,"lon":172.751944,"elevationM":null},{"id":"node:10680066965","kind":"peak","name":"Weka","lat":-42.987462,"lon":172.692921,"elevationM":427},{"id":"node:10680066972","kind":"peak","name":"Horsley Down","lat":-42.884056,"lon":172.623667,"elevationM":null},{"id":"node:10680066973","kind":"peak","name":"Green Hill","lat":-42.783806,"lon":172.672528,"elevationM":null},{"id":"node:10680066974","kind":"peak","name":"Charing Cross","lat":-42.744222,"lon":172.642611,"elevationM":1000},{"id":"node:10680066975","kind":"peak","name":"Mount Jonathan","lat":-42.727917,"lon":172.601333,"elevationM":null},{"id":"node:10680066976","kind":"peak","name":"Hurunui Peak","lat":-42.774278,"lon":172.588833,"elevationM":937},{"id":"node:10680066977","kind":"peak","name":"Ramatama","lat":-42.739806,"lon":172.708083,"elevationM":434},{"id":"node:10680066978","kind":"peak","name":"Ben More","lat":-42.699417,"lon":172.720944,"elevationM":null},{"id":"node:10680066979","kind":"peak","name":"Montrose","lat":-42.683667,"lon":172.774139,"elevationM":null},{"id":"node:10680066980","kind":"peak","name":"Mount Culverden","lat":-42.723278,"lon":172.812139,"elevationM":null},{"id":"node:10680099158","kind":"peak","name":"Mount Lance","lat":-42.965167,"lon":172.447389,"elevationM":778},{"id":"node:10680099159","kind":"peak","name":"Double Tops","lat":-42.946001,"lon":172.435182,"elevationM":null},{"id":"node:10680099160","kind":"peak","name":"Madrid Hill","lat":-42.941188,"lon":172.400888,"elevationM":null},{"id":"node:10680099161","kind":"peak","name":"Tower Hill","lat":-42.915889,"lon":172.407944,"elevationM":709},{"id":"node:10680099162","kind":"peak","name":"Mount Noble","lat":-42.868694,"lon":172.390556,"elevationM":1220},{"id":"node:10680099171","kind":"peak","name":"Cloudy Hill","lat":-42.844444,"lon":172.448222,"elevationM":745},{"id":"node:10680099172","kind":"peak","name":"Mount Oval","lat":-42.867986,"lon":172.451193,"elevationM":665},{"id":"node:10680099173","kind":"peak","name":"Mount Mason","lat":-42.894194,"lon":172.502806,"elevationM":null},{"id":"node:10680099174","kind":"peak","name":"Mount Hilton","lat":-42.952333,"lon":172.505083,"elevationM":621},{"id":"node:10680099175","kind":"peak","name":"Mount Selfe","lat":-42.832472,"lon":172.503889,"elevationM":856},{"id":"node:10680099176","kind":"peak","name":"Coopers Knob","lat":-42.831498,"lon":172.548266,"elevationM":414},{"id":"node:10680099177","kind":"peak","name":"Dampier Knob","lat":-42.778472,"lon":172.520833,"elevationM":795},{"id":"node:10680099178","kind":"peak","name":"Mount Roderick","lat":-42.783667,"lon":172.499917,"elevationM":885},{"id":"node:10680099179","kind":"peak","name":"Mount Catherine","lat":-42.797222,"lon":172.465,"elevationM":null},{"id":"node:10680099180","kind":"peak","name":"Ben Cliberick","lat":-42.800917,"lon":172.400917,"elevationM":1479},{"id":"node:10680099181","kind":"peak","name":"Mount Miza","lat":-42.817694,"lon":172.393667,"elevationM":1464},{"id":"node:10680099182","kind":"peak","name":"Mons Boreas","lat":-42.757528,"lon":172.401028,"elevationM":1412},{"id":"node:10680099183","kind":"peak","name":"Jollie Brook","lat":-42.721722,"lon":172.379417,"elevationM":1528},{"id":"node:10680099184","kind":"peak","name":"Balquether","lat":-42.736965,"lon":172.467798,"elevationM":1337},{"id":"node:10680099185","kind":"peak","name":"Sunny Knob","lat":-42.746889,"lon":172.484944,"elevationM":1300},{"id":"node:10680099186","kind":"peak","name":"Silverton","lat":-42.748833,"lon":172.534028,"elevationM":null},{"id":"node:10680099187","kind":"peak","name":"Clay Knob","lat":-42.717944,"lon":172.520861,"elevationM":null},{"id":"node:10680099188","kind":"peak","name":"Nicholsons Knob","lat":-42.697111,"lon":172.532139,"elevationM":null},{"id":"node:10680099189","kind":"peak","name":"Spider Web","lat":-42.688431,"lon":172.502789,"elevationM":1673},{"id":"node:10680099190","kind":"peak","name":"La Grippe","lat":-42.702222,"lon":172.481222,"elevationM":null},{"id":"node:10680099191","kind":"peak","name":"Pig Hill","lat":-42.68675,"lon":172.571944,"elevationM":null},{"id":"node:10680099192","kind":"peak","name":"Mount Longfellow","lat":-42.692028,"lon":172.290639,"elevationM":null},{"id":"node:10680099193","kind":"peak","name":"Conical Hill","lat":-42.769224,"lon":172.24846,"elevationM":854},{"id":"node:10680099194","kind":"peak","name":"Bell Knoll","lat":-42.775113,"lon":172.164937,"elevationM":856},{"id":"node:10680099195","kind":"peak","name":"Island Hills","lat":-42.8116403,"lon":172.1868328,"elevationM":1071},{"id":"node:10680099196","kind":"peak","name":"Mount Turnbull","lat":-42.852151,"lon":172.054739,"elevationM":2024},{"id":"node:10680099197","kind":"peak","name":"Shingle Hill","lat":-42.894583,"lon":172.049972,"elevationM":null},{"id":"node:10680099198","kind":"peak","name":"Big Flora","lat":-42.926072,"lon":172.048225,"elevationM":1242},{"id":"node:10680099199","kind":"peak","name":"Little Flora","lat":-42.962041,"lon":172.067313,"elevationM":1035},{"id":"node:10680099200","kind":"peak","name":"Surveyors Knob","lat":-42.97541,"lon":172.08143,"elevationM":null},{"id":"node:10680099201","kind":"peak","name":"Kānuka Hills","lat":-42.9717383,"lon":172.0319902,"elevationM":null},{"id":"node:10680099209","kind":"peak","name":"Terrible Knob","lat":-42.720306,"lon":172.080806,"elevationM":null},{"id":"node:10680099212","kind":"peak","name":"Mount Meehan","lat":-42.919966,"lon":172.300892,"elevationM":null},{"id":"node:10680099213","kind":"peak","name":"Virginia Peak","lat":-42.899389,"lon":172.33425,"elevationM":null},{"id":"node:10680099214","kind":"peak","name":"Gola Peak","lat":-42.950278,"lon":172.342722,"elevationM":1285},{"id":"node:10680099215","kind":"peak","name":"Block Hill","lat":-42.973722,"lon":172.320528,"elevationM":1297},{"id":"node:10680146218","kind":"peak","name":"Mount Cann","lat":-42.148823,"lon":172.333382,"elevationM":null},{"id":"node:10680146219","kind":"peak","name":"Hill Forty","lat":-42.236613,"lon":172.475223,"elevationM":1456},{"id":"node:10680146220","kind":"peak","name":"Philosophers Knob","lat":-42.323361,"lon":172.507833,"elevationM":1921},{"id":"node:10680146221","kind":"peak","name":"Discovery Peak","lat":-42.369611,"lon":172.478778,"elevationM":1661},{"id":"node:10680146222","kind":"peak","name":"Mount Esther","lat":-42.3755,"lon":172.481694,"elevationM":1665},{"id":"node:10680146223","kind":"peak","name":"Rokeby","lat":-42.414,"lon":172.507278,"elevationM":null},{"id":"node:10680146224","kind":"peak","name":"Mount Jervois","lat":-42.373306,"lon":172.547278,"elevationM":null},{"id":"node:10680146225","kind":"peak","name":"Bunkers Hill","lat":-42.363639,"lon":172.589861,"elevationM":1329},{"id":"node:10680146226","kind":"peak","name":"Mount Scott","lat":-42.388222,"lon":172.586444,"elevationM":1736},{"id":"node:10680146227","kind":"peak","name":"Saint Mary","lat":-42.429444,"lon":172.578972,"elevationM":null},{"id":"node:10680146228","kind":"peak","name":"Charlies Hill","lat":-42.440194,"lon":172.622417,"elevationM":795},{"id":"node:10680146229","kind":"peak","name":"Mount Douglas","lat":-42.450722,"lon":172.654861,"elevationM":null},{"id":"node:10680146230","kind":"peak","name":"Mount Scaife","lat":-42.4761262,"lon":172.6619493,"elevationM":1836},{"id":"node:10680146231","kind":"peak","name":"Mount Woolley","lat":-42.4790233,"lon":172.6844467,"elevationM":1743},{"id":"node:10680146232","kind":"peak","name":"Grey Hill","lat":-42.537361,"lon":172.654583,"elevationM":null},{"id":"node:10680146233","kind":"peak","name":"Handyside","lat":-42.561861,"lon":172.572944,"elevationM":null},{"id":"node:10680146234","kind":"peak","name":"Shale Peak","lat":-42.607778,"lon":172.634194,"elevationM":null},{"id":"node:10680146235","kind":"peak","name":"Windy Knob","lat":-42.635194,"lon":172.621361,"elevationM":null},{"id":"node:10680146236","kind":"peak","name":"Frozen Hill","lat":-42.625361,"lon":172.586861,"elevationM":null},{"id":"node:10680146237","kind":"peak","name":"Big Big D","lat":-42.641139,"lon":172.660722,"elevationM":1362},{"id":"node:10680146238","kind":"peak","name":"Te Kooti","lat":-42.677556,"lon":172.640083,"elevationM":1469},{"id":"node:10680146239","kind":"peak","name":"Mount Skedaddle","lat":-42.679778,"lon":172.509528,"elevationM":null},{"id":"node:10680146240","kind":"peak","name":"Mount Skiddaw","lat":-42.660056,"lon":172.449,"elevationM":1673},{"id":"node:10680146241","kind":"peak","name":"Scaw Fell","lat":-42.669472,"lon":172.413667,"elevationM":null},{"id":"node:10680146242","kind":"peak","name":"Mount Pan","lat":-42.6765,"lon":172.374167,"elevationM":1545},{"id":"node:10680146243","kind":"peak","name":"Mount Edison","lat":-42.673194,"lon":172.326694,"elevationM":null},{"id":"node:10680146244","kind":"peak","name":"Neschacker Hill","lat":-42.639,"lon":172.312722,"elevationM":null},{"id":"node:10680146245","kind":"peak","name":"Mount Emerson","lat":-42.662222,"lon":172.275444,"elevationM":1834},{"id":"node:10680146246","kind":"peak","name":"Mount Garfield","lat":-42.576639,"lon":172.298472,"elevationM":null},{"id":"node:10680146247","kind":"peak","name":"Mount Murray","lat":-42.555028,"lon":172.274028,"elevationM":null},{"id":"node:10680146248","kind":"peak","name":"Mount Quail","lat":-42.508056,"lon":172.260333,"elevationM":null},{"id":"node:10680146249","kind":"peak","name":"Mount Carrington","lat":-42.497833,"lon":172.25825,"elevationM":null},{"id":"node:10680146250","kind":"peak","name":"Mount Lakeman","lat":-42.545639,"lon":172.205472,"elevationM":1782},{"id":"node:10680146251","kind":"peak","name":"Mount Novaro","lat":-42.508676,"lon":172.121741,"elevationM":1567},{"id":"node:10680146252","kind":"peak","name":"Slate Slip Hill","lat":-42.44785,"lon":172.101522,"elevationM":1447},{"id":"node:10680146253","kind":"peak","name":"Pinnacle","lat":-42.406611,"lon":172.042611,"elevationM":1500},{"id":"node:10680146255","kind":"peak","name":"Mount Albert","lat":-42.191278,"lon":172.000361,"elevationM":null},{"id":"node:10680146256","kind":"peak","name":"Kirwans Hill","lat":-42.09675,"lon":172.018083,"elevationM":1297},{"id":"node:10680146258","kind":"peak","name":"Bourkes Rock","lat":-42.008056,"lon":172.013,"elevationM":null},{"id":"node:10680146259","kind":"peak","name":"Mount Ossa","lat":-42.022962,"lon":172.065879,"elevationM":1462},{"id":"node:10680146274","kind":"peak","name":"Nardoo","lat":-42.04625,"lon":172.462306,"elevationM":null},{"id":"node:10680146275","kind":"peak","name":"Mount Oliver","lat":-42.023612,"lon":172.3227,"elevationM":772},{"id":"node:10680146276","kind":"peak","name":"Yanks Hill","lat":-42.268028,"lon":172.598583,"elevationM":1650},{"id":"node:10680146277","kind":"peak","name":"Mount Federation","lat":-42.312361,"lon":172.584778,"elevationM":null},{"id":"node:10680146278","kind":"peak","name":"Lake Hill","lat":-42.307556,"lon":172.644139,"elevationM":null},{"id":"node:10680146279","kind":"peak","name":"Lookout Hill","lat":-42.32432,"lon":172.65864,"elevationM":1068},{"id":"node:10680146280","kind":"peak","name":"Mount Maria","lat":-42.364056,"lon":172.636944,"elevationM":1663},{"id":"node:10680146281","kind":"peak","name":"Mount Willmer","lat":-42.376604,"lon":172.680629,"elevationM":1802},{"id":"node:10680146282","kind":"peak","name":"Plinlimmon","lat":-42.401417,"lon":172.652111,"elevationM":null},{"id":"node:10680146283","kind":"peak","name":"Billhook Peak","lat":-42.464639,"lon":172.601889,"elevationM":null},{"id":"node:10680146284","kind":"peak","name":"Fandang","lat":-42.483194,"lon":172.558778,"elevationM":null},{"id":"node:10680146285","kind":"peak","name":"Martha","lat":-42.474,"lon":172.478722,"elevationM":null},{"id":"node:10680146286","kind":"peak","name":"Norma","lat":-42.431472,"lon":172.374056,"elevationM":1722},{"id":"node:10680146287","kind":"peak","name":"Mount Hochstetter","lat":-42.512389,"lon":172.023111,"elevationM":null},{"id":"node:10680146293","kind":"peak","name":"Mount Ajax","lat":-42.58925,"lon":172.0665,"elevationM":null},{"id":"node:10680157938","kind":"peak","name":"Mount Paul","lat":-42.555944,"lon":172.964,"elevationM":null},{"id":"node:10680157939","kind":"peak","name":"Sunday Hill","lat":-42.541278,"lon":172.921333,"elevationM":739},{"id":"node:10680157940","kind":"peak","name":"Birch Topping","lat":-42.577417,"lon":172.899944,"elevationM":null},{"id":"node:10680157941","kind":"peak","name":"Druids Hill","lat":-42.603667,"lon":172.912056,"elevationM":590},{"id":"node:10680157942","kind":"peak","name":"Mount Leslie","lat":-42.599556,"lon":172.860694,"elevationM":null},{"id":"node:10680157943","kind":"peak","name":"Mizzen Peak","lat":-42.622889,"lon":172.818083,"elevationM":null},{"id":"node:10680157944","kind":"peak","name":"Wallace Peak","lat":-42.596111,"lon":172.804611,"elevationM":null},{"id":"node:10680157945","kind":"peak","name":"Holmes","lat":-42.590056,"lon":172.758444,"elevationM":null},{"id":"node:10680157946","kind":"peak","name":"Mount Saul","lat":-42.604908,"lon":172.713653,"elevationM":1020},{"id":"node:10680157947","kind":"peak","name":"Castle Hill","lat":-42.633,"lon":172.748556,"elevationM":null},{"id":"node:10680157948","kind":"peak","name":"Mount Cropp","lat":-42.658361,"lon":172.714722,"elevationM":null},{"id":"node:10680157949","kind":"peak","name":"Rodney","lat":-42.527,"lon":172.703417,"elevationM":null},{"id":"node:10680157950","kind":"peak","name":"Tabletop","lat":-42.498639,"lon":172.706806,"elevationM":null},{"id":"node:10680157951","kind":"peak","name":"Mount Captain","lat":-42.4746743,"lon":172.7133127,"elevationM":1785},{"id":"node:10680157952","kind":"peak","name":"San Miguel","lat":-42.475111,"lon":172.724694,"elevationM":null},{"id":"node:10680157953","kind":"peak","name":"Mount Charon","lat":-42.484361,"lon":172.751722,"elevationM":null},{"id":"node:10680157954","kind":"peak","name":"Benvoirlich","lat":-42.50175,"lon":172.759556,"elevationM":null},{"id":"node:10680157955","kind":"peak","name":"Ben May","lat":-42.515278,"lon":172.778472,"elevationM":null},{"id":"node:10680157956","kind":"peak","name":"Peters Hill","lat":-42.423944,"lon":172.782306,"elevationM":null},{"id":"node:10680157957","kind":"peak","name":"Samoa Mound","lat":-42.392616,"lon":172.761941,"elevationM":null},{"id":"node:10680157958","kind":"peak","name":"Red Hill","lat":-42.370472,"lon":172.767278,"elevationM":null},{"id":"node:10680157960","kind":"peak","name":"Mount Pollock","lat":-42.374417,"lon":172.698667,"elevationM":null},{"id":"node:10680157961","kind":"peak","name":"Eulalie Mound","lat":-42.317389,"lon":172.78475,"elevationM":null},{"id":"node:10680157962","kind":"peak","name":"Mount Weld","lat":-42.098063,"lon":172.855436,"elevationM":2114},{"id":"node:10680157963","kind":"peak","name":"Turk Mountain","lat":-42.072807,"lon":172.893172,"elevationM":1846},{"id":"node:10680157964","kind":"peak","name":"Stockyard Face","lat":-42.021643,"lon":172.907927,"elevationM":null},{"id":"node:10680157965","kind":"peak","name":"Mount Cashel","lat":-42.022637,"lon":172.879722,"elevationM":1594},{"id":"node:10680157979","kind":"peak","name":"Mount Muntz","lat":-42.361917,"lon":172.818278,"elevationM":null},{"id":"node:10680157980","kind":"peak","name":"Mount Percival","lat":-42.473528,"lon":172.935667,"elevationM":null},{"id":"node:10680157981","kind":"peak","name":"Mount Balfour","lat":-42.452237,"lon":172.996917,"elevationM":1672},{"id":"node:10680157995","kind":"peak","name":"Mount Saint Patrick","lat":-42.445889,"lon":172.728556,"elevationM":null},{"id":"node:11367709136","kind":"peak","name":"Pumpkin Hill","lat":-42.5153603,"lon":172.8190927,"elevationM":null}]}