{"tileKey":"la_m18_lo_p47","version":"v1-1775891056926","entries":[{"id":"node:2461534303","kind":"peak","name":"Analafotsivolo","lat":-17.6985425,"lon":47.7675052,"elevationM":null},{"id":"node:2461534327","kind":"peak","name":"Namakia","lat":-17.0099287,"lon":47.2830942,"elevationM":null},{"id":"node:2461534352","kind":"peak","name":"Vatoloha","lat":-17.8685554,"lon":47.7964092,"elevationM":null},{"id":"node:2463852779","kind":"peak","name":"Ambatomboromahery","lat":-17.3651626,"lon":47.441093,"elevationM":null},{"id":"node:2465470239","kind":"peak","name":"Belambo","lat":-17.8129715,"lon":47.3257661,"elevationM":null},{"id":"node:2483841076","kind":"peak","name":"Antsahabe","lat":-17.4408643,"lon":47.2302096,"elevationM":null}]}