{"tileKey":"la_m6_lo_p119","version":"v1-1775891056926","entries":[{"id":"node:1070155195","kind":"peak","name":"Moncong Ciduk","lat":-5.3013,"lon":119.6528,"elevationM":null},{"id":"node:1070155287","kind":"peak","name":"Moncong Taloto","lat":-5.4683,"lon":119.6705,"elevationM":null},{"id":"node:1070155314","kind":"peak","name":"Moncong Tolong","lat":-5.4557,"lon":119.6179,"elevationM":null},{"id":"node:1070155339","kind":"peak","name":"Moncong Samu","lat":-5.4102,"lon":119.9687,"elevationM":null},{"id":"node:1070155726","kind":"peak","name":"Moncong Baika","lat":-5.4161,"lon":119.5958,"elevationM":null},{"id":"node:1070155833","kind":"peak","name":"Bulu Parring","lat":-5.1712,"lon":119.7286,"elevationM":null},{"id":"node:1070156157","kind":"peak","name":"Moncong Beleangi","lat":-5.2749,"lon":119.6735,"elevationM":null},{"id":"node:1070156395","kind":"peak","name":"Bulu Pattontongang","lat":-5.1118,"lon":119.5662,"elevationM":null},{"id":"node:1070156658","kind":"peak","name":"Bulu Lohea","lat":-5.1679,"lon":119.9553,"elevationM":null},{"id":"node:1070156833","kind":"peak","name":"Moncong Karamasa","lat":-5.4878,"lon":119.742,"elevationM":null},{"id":"node:1070156838","kind":"peak","name":"Bulu Lanti","lat":-5.1514,"lon":119.8776,"elevationM":null},{"id":"node:1070156909","kind":"peak","name":"Bonto Kassikassi","lat":-5.5752,"lon":119.6128,"elevationM":null},{"id":"node:1070156963","kind":"peak","name":"Moncong Saraung","lat":-5.4476,"lon":119.9043,"elevationM":null},{"id":"node:1070157042","kind":"peak","name":"Bulu Sarongan","lat":-5.3043,"lon":119.938,"elevationM":null},{"id":"node:1070157061","kind":"peak","name":"Bulu Kantisang","lat":-5.176,"lon":119.6372,"elevationM":null},{"id":"node:1070157189","kind":"peak","name":"Bonto Carumbai Satu","lat":-5.0377,"lon":119.9212,"elevationM":null},{"id":"node:1070157265","kind":"peak","name":"Bulu Bawakaraeng","lat":-5.3173,"lon":119.944,"elevationM":null},{"id":"node:1070157269","kind":"peak","name":"Pegunungan Pangkalaeng","lat":-5.2087,"lon":119.7861,"elevationM":null},{"id":"node:1070157318","kind":"peak","name":"Bulu Lerallerang","lat":-5.2154,"lon":119.7234,"elevationM":null},{"id":"node:1070157444","kind":"peak","name":"Bonto Padagang","lat":-5.0821,"lon":119.9003,"elevationM":null},{"id":"node:1070157571","kind":"peak","name":"Moncong Larangang","lat":-5.5225,"lon":119.7955,"elevationM":null},{"id":"node:1070157942","kind":"peak","name":"Bulu Lampasa","lat":-5.2157,"lon":119.67,"elevationM":null},{"id":"node:1070158093","kind":"peak","name":"Bulu Cikorang","lat":-5.411,"lon":119.7601,"elevationM":null},{"id":"node:1070158721","kind":"peak","name":"Moncong Pusu","lat":-5.3863,"lon":119.6527,"elevationM":null},{"id":"node:1070159012","kind":"peak","name":"Bulu Karopo","lat":-5.1244,"lon":119.8696,"elevationM":null},{"id":"node:1070159092","kind":"peak","name":"Bulu Lehelopu","lat":-5.1092,"lon":119.8493,"elevationM":null},{"id":"node:1070159137","kind":"peak","name":"Bulu Jambua","lat":-5.1897,"lon":119.7133,"elevationM":null},{"id":"node:1070159347","kind":"peak","name":"Bulu Dakki","lat":-5.1838,"lon":119.6646,"elevationM":null},{"id":"node:1070159350","kind":"peak","name":"Moncong Taneteloe","lat":-5.3914,"lon":119.6887,"elevationM":null},{"id":"node:1070159581","kind":"peak","name":"Bulu Sarobaiya","lat":-5.2981,"lon":119.9369,"elevationM":null},{"id":"node:1070160019","kind":"peak","name":"Bonto Towenga","lat":-5.5819,"lon":119.5914,"elevationM":null},{"id":"node:1070160094","kind":"peak","name":"Moncong Tallasi","lat":-5.4192,"lon":119.949,"elevationM":null},{"id":"node:1070160244","kind":"peak","name":"Moncong Cibod","lat":-5.4346,"lon":119.9256,"elevationM":null},{"id":"node:1070160391","kind":"peak","name":"Moncong Puntamono","lat":-5.4017,"lon":119.6972,"elevationM":null},{"id":"node:1070160424","kind":"peak","name":"Bonto Pocimmanuk","lat":-5.1444,"lon":119.9798,"elevationM":null},{"id":"node:1070160537","kind":"peak","name":"Bulu Tempogia","lat":-5.2381,"lon":119.7146,"elevationM":null},{"id":"node:1070160869","kind":"peak","name":"Bulu Manjalling","lat":-5.0386,"lon":119.7068,"elevationM":null},{"id":"node:1070160932","kind":"peak","name":"Bulu Bualo","lat":-5.1013,"lon":119.8526,"elevationM":null},{"id":"node:1070161190","kind":"peak","name":"Bulu Patirolemba","lat":-5.3302,"lon":119.863,"elevationM":null},{"id":"node:1070161225","kind":"peak","name":"Moncong Assumpolong","lat":-5.364,"lon":119.931,"elevationM":null},{"id":"node:1070161368","kind":"peak","name":"Bulu Kalimbungang","lat":-5.2733,"lon":119.9453,"elevationM":null},{"id":"node:1070161409","kind":"peak","name":"Moncong Batuberaning","lat":-5.4316,"lon":119.5619,"elevationM":null},{"id":"node:1070161523","kind":"peak","name":"Bulu Sorongan","lat":-5.1871,"lon":119.8379,"elevationM":null},{"id":"node:1070161626","kind":"peak","name":"Bonto Bulubuluk","lat":-5.0862,"lon":119.9875,"elevationM":null},{"id":"node:1070161800","kind":"peak","name":"Bulu Batumaeja","lat":-5.1672,"lon":119.62,"elevationM":null},{"id":"node:1070161835","kind":"peak","name":"Moncong Ganteng","lat":-5.4427,"lon":119.7466,"elevationM":null},{"id":"node:1070161875","kind":"peak","name":"Bulu Porong","lat":-5.3434,"lon":119.9466,"elevationM":null},{"id":"node:1070161985","kind":"peak","name":"Moncong Samelang","lat":-5.4371,"lon":119.596,"elevationM":null},{"id":"node:1070162020","kind":"peak","name":"Moncong Lojong","lat":-5.3928,"lon":119.935,"elevationM":null},{"id":"node:1070162311","kind":"peak","name":"Bulu Tanette","lat":-5.0046,"lon":119.7227,"elevationM":null},{"id":"node:1070162386","kind":"peak","name":"Moncong Parringparring","lat":-5.4387,"lon":119.972,"elevationM":null},{"id":"node:1070162528","kind":"peak","name":"Bulu Buttamereng","lat":-5.0216,"lon":119.7065,"elevationM":null},{"id":"node:1070162601","kind":"peak","name":"Kapita","lat":-5.546944,"lon":119.646111,"elevationM":null},{"id":"node:1070162640","kind":"peak","name":"Bulu Kaca","lat":-5.3623,"lon":119.9169,"elevationM":null},{"id":"node:1070162782","kind":"peak","name":"Bonto Carumbai Dua","lat":-5.05,"lon":119.9177,"elevationM":null},{"id":"node:1070162897","kind":"peak","name":"Moncong Pabintingang","lat":-5.3973,"lon":119.6377,"elevationM":null},{"id":"node:1070162951","kind":"peak","name":"Moncong Pasaukang","lat":-5.511556,"lon":119.8540364,"elevationM":null},{"id":"node:1070163021","kind":"peak","name":"Bulu Bululoe","lat":-5.2336,"lon":119.9724,"elevationM":null},{"id":"node:1070163108","kind":"peak","name":"Moncong Karangpuang","lat":-5.421,"lon":119.7205,"elevationM":null},{"id":"node:1070163360","kind":"peak","name":"Bonto Sirukang","lat":-5.5875,"lon":119.6365,"elevationM":null},{"id":"node:1070163396","kind":"peak","name":"Bulu Batusipoko","lat":-5.1519,"lon":119.9551,"elevationM":null},{"id":"node:1070163401","kind":"peak","name":"Bulu Turaya","lat":-5.2455,"lon":119.6654,"elevationM":null},{"id":"node:1070163441","kind":"peak","name":"Moncong Pusu","lat":-5.4772,"lon":119.5862,"elevationM":null},{"id":"node:1070163653","kind":"peak","name":"Moncong Bataja","lat":-5.3039,"lon":119.671,"elevationM":null},{"id":"node:1070163793","kind":"peak","name":"Moncong Gantarang","lat":-5.3011,"lon":119.6063,"elevationM":null},{"id":"node:1070163863","kind":"peak","name":"Bonto Toppalang","lat":-5.1474,"lon":119.9811,"elevationM":null},{"id":"node:1070163965","kind":"peak","name":"Bulu Rumbia","lat":-5.1748,"lon":119.6692,"elevationM":null},{"id":"node:1070164031","kind":"peak","name":"Moncong Damara","lat":-5.4303,"lon":119.7202,"elevationM":null},{"id":"node:1070164241","kind":"peak","name":"Moncong Datara","lat":-5.3325,"lon":119.6628,"elevationM":null},{"id":"node:1070164273","kind":"peak","name":"Bulu Balleanging","lat":-5.1826,"lon":119.7184,"elevationM":null},{"id":"node:1070164341","kind":"peak","name":"Bonto Bintoweng","lat":-5.0849,"lon":119.9425,"elevationM":null},{"id":"node:1070164527","kind":"peak","name":"Moncong Tabing Goyang","lat":-5.5639,"lon":119.8422,"elevationM":null},{"id":"node:1070164667","kind":"peak","name":"Moncong Lompoa","lat":-5.5306,"lon":119.7616,"elevationM":null},{"id":"node:1070164699","kind":"peak","name":"Moncong Aruaru","lat":-5.4091,"lon":119.6995,"elevationM":null},{"id":"node:1070164776","kind":"peak","name":"Bulu Malenteng","lat":-5.1289,"lon":119.8924,"elevationM":null},{"id":"node:1070164849","kind":"peak","name":"Bonto Matabalu","lat":-5.5168,"lon":119.7305,"elevationM":null},{"id":"node:1070164885","kind":"peak","name":"Bulu Parangpeda","lat":-5.1673,"lon":119.8992,"elevationM":null},{"id":"node:1070164979","kind":"peak","name":"Bulu Bontolaja","lat":-5.1339,"lon":119.9293,"elevationM":null},{"id":"node:1070165017","kind":"peak","name":"Bulu Bisolong","lat":-5.1432,"lon":119.9494,"elevationM":null},{"id":"node:1070165023","kind":"peak","name":"Moncong Sipolong","lat":-5.3573,"lon":119.6353,"elevationM":null},{"id":"node:1070165159","kind":"peak","name":"Bonto Kasa","lat":-5.051,"lon":119.985,"elevationM":null},{"id":"node:1070165165","kind":"peak","name":"Bulu Ramma","lat":-5.298,"lon":119.915,"elevationM":null},{"id":"node:1070165443","kind":"peak","name":"Moncong Tanabanjorok","lat":-5.3136,"lon":119.7407,"elevationM":null},{"id":"node:1070165575","kind":"peak","name":"Bulu Batumarolok","lat":-5.1031,"lon":119.7035,"elevationM":null},{"id":"node:1070165602","kind":"peak","name":"Bonto Mappakkae","lat":-5.0169,"lon":119.9828,"elevationM":null},{"id":"node:1070167071","kind":"peak","name":"Bulu Balatung","lat":-5.2019,"lon":119.5931,"elevationM":null},{"id":"node:1070167179","kind":"peak","name":"Moncong Kura","lat":-5.4711,"lon":119.6457,"elevationM":null},{"id":"node:1070167296","kind":"peak","name":"Bulu Bata","lat":-5.1393,"lon":119.9706,"elevationM":null},{"id":"node:1070167605","kind":"peak","name":"Bulu Kallikalli","lat":-5.1786,"lon":119.7104,"elevationM":null},{"id":"node:1070168432","kind":"peak","name":"Moncong Kebo","lat":-5.4439,"lon":119.5361,"elevationM":null},{"id":"node:1070168504","kind":"peak","name":"Moncong Anginangin","lat":-5.5386,"lon":119.7625,"elevationM":null},{"id":"node:1070168763","kind":"peak","name":"Bulu Ganting","lat":-5.3458,"lon":119.9047,"elevationM":null},{"id":"node:1070168803","kind":"peak","name":"Moncong Tuadampang","lat":-5.4188,"lon":119.6535,"elevationM":null},{"id":"node:1070169236","kind":"peak","name":"Bonto Kalumpatallo","lat":-5.503,"lon":119.6927,"elevationM":null},{"id":"node:1070169273","kind":"peak","name":"Bulu Lawekang","lat":-5.1546,"lon":119.8691,"elevationM":null},{"id":"node:1070169345","kind":"peak","name":"Bonto Sakengkeng","lat":-5.5345,"lon":119.6361,"elevationM":null},{"id":"node:1070169414","kind":"peak","name":"Moncong Loduong","lat":-5.4084,"lon":119.9455,"elevationM":null},{"id":"node:1070169546","kind":"peak","name":"Bulu Rea","lat":-5.1446,"lon":119.9005,"elevationM":null},{"id":"node:1070169871","kind":"peak","name":"Bulu Bontopanno","lat":-5.2034,"lon":119.634,"elevationM":null},{"id":"node:1070169982","kind":"peak","name":"Moncong Bincanai","lat":-5.4415,"lon":119.6474,"elevationM":null},{"id":"node:1070170098","kind":"peak","name":"Bulu Borisallo","lat":-5.1669,"lon":119.6858,"elevationM":null},{"id":"node:1070170147","kind":"peak","name":"Bonto Langilangiri","lat":-5.0722,"lon":119.8823,"elevationM":null},{"id":"node:1070170178","kind":"peak","name":"Bulu Ganjeng","lat":-5.2365,"lon":119.9134,"elevationM":null},{"id":"node:1070170337","kind":"peak","name":"Labucinri","lat":-5.576944,"lon":119.548889,"elevationM":null},{"id":"node:1070170532","kind":"peak","name":"Bonto Petorombali","lat":-5.5174,"lon":119.6992,"elevationM":null},{"id":"node:1070170595","kind":"peak","name":"Bulu Maya","lat":-5.45,"lon":119.683333,"elevationM":null},{"id":"node:1070170761","kind":"peak","name":"Bonto Batukelong","lat":-5.0297,"lon":119.8832,"elevationM":null},{"id":"node:1070171026","kind":"peak","name":"Bulu Lamutagi","lat":-5.0306,"lon":119.8221,"elevationM":null},{"id":"node:1070171235","kind":"peak","name":"Bulu Bulunta","lat":-5.2185,"lon":119.8311,"elevationM":null},{"id":"node:1070171243","kind":"peak","name":"Bonto Tabilangara","lat":-5.5172,"lon":119.5675,"elevationM":null},{"id":"node:1070171581","kind":"peak","name":"Bulu Rukuruku","lat":-5.1974392,"lon":119.8702497,"elevationM":null},{"id":"node:1070171648","kind":"peak","name":"Moncong Passaungang","lat":-5.414,"lon":119.6611,"elevationM":null},{"id":"node:1070171681","kind":"peak","name":"Moncong Datara","lat":-5.4375,"lon":119.6108,"elevationM":null},{"id":"node:1070171716","kind":"peak","name":"Bulu Bollangi","lat":-5.2293,"lon":119.5738,"elevationM":null},{"id":"node:1070171721","kind":"peak","name":"Moncong Samabintung","lat":-5.4723,"lon":119.9067,"elevationM":null},{"id":"node:1070171965","kind":"peak","name":"Bulu Togotogo","lat":-5.1975,"lon":119.6971,"elevationM":null},{"id":"node:1070172136","kind":"peak","name":"Bonto Surulangi","lat":-5.5163,"lon":119.6826,"elevationM":null},{"id":"node:1070172239","kind":"peak","name":"Bulu Anaana","lat":-5.1575,"lon":119.6623,"elevationM":null},{"id":"node:1070172274","kind":"peak","name":"Moncong Campulili","lat":-5.3774,"lon":119.5672,"elevationM":null},{"id":"node:1070172426","kind":"peak","name":"Bulu Parangpucak","lat":-5.1888,"lon":119.6872,"elevationM":null},{"id":"node:1070172461","kind":"peak","name":"Bulu Parengpeda","lat":-5.1391,"lon":119.861,"elevationM":null},{"id":"node:1070172654","kind":"peak","name":"Moncong Bontoloe","lat":-5.4495,"lon":119.6827,"elevationM":null},{"id":"node:1070172927","kind":"peak","name":"Moncong Sairu","lat":-5.4617,"lon":119.6255,"elevationM":null},{"id":"node:1070173003","kind":"peak","name":"Bulu Panrungang","lat":-5.2055,"lon":119.6581,"elevationM":null},{"id":"node:1070173075","kind":"peak","name":"Bonto Kuca","lat":-5.5596,"lon":119.7382,"elevationM":null},{"id":"node:1070173176","kind":"peak","name":"Bulu Bonto","lat":-5.086,"lon":119.9945,"elevationM":null},{"id":"node:1070173221","kind":"peak","name":"Bulu Macenri","lat":-5.3296,"lon":119.8368,"elevationM":null},{"id":"node:1070173258","kind":"peak","name":"Bonto Tinambung","lat":-5.041,"lon":119.8665,"elevationM":null},{"id":"node:1070173569","kind":"peak","name":"Bulu Batumenteng","lat":-5.0919,"lon":119.8643,"elevationM":null},{"id":"node:1070173708","kind":"peak","name":"Moncong Paowang","lat":-5.4118,"lon":119.712,"elevationM":null},{"id":"node:1070173771","kind":"peak","name":"Bonto Kacombang","lat":-5.0681,"lon":119.9141,"elevationM":null},{"id":"node:1070173779","kind":"peak","name":"Bulu Tinggi","lat":-5.3473,"lon":119.9797,"elevationM":null},{"id":"node:1070174071","kind":"peak","name":"Moncong Batuleleng","lat":-5.4082,"lon":119.6707,"elevationM":null},{"id":"node:1070174142","kind":"peak","name":"Bulu Bohonglangi","lat":-5.1291,"lon":119.9368,"elevationM":null},{"id":"node:1070175661","kind":"peak","name":"Bonto Magatinggating","lat":-5.0026,"lon":119.9296,"elevationM":null},{"id":"node:1070175757","kind":"peak","name":"Bulu Pangi","lat":-5.1224,"lon":119.6604,"elevationM":null},{"id":"node:1070175895","kind":"peak","name":"Bulu Pattekne","lat":-5.0964,"lon":119.7733,"elevationM":null},{"id":"node:1070175945","kind":"volcano","name":"Moncong Lompobattang","lat":-5.3468257,"lon":119.9317864,"elevationM":2874},{"id":"node:1070176033","kind":"peak","name":"Moncong Pangngallowantoppa","lat":-5.4727,"lon":119.5288,"elevationM":null},{"id":"node:1070176155","kind":"peak","name":"Bulu Kabulompoa","lat":-5.124,"lon":119.914,"elevationM":null},{"id":"node:1070176286","kind":"peak","name":"Bulu Linring","lat":-5.4966,"lon":119.497,"elevationM":null},{"id":"node:1070176322","kind":"peak","name":"Bulu Saleha","lat":-5.1829,"lon":119.9222,"elevationM":null},{"id":"node:1070176386","kind":"peak","name":"Bulu Bossolok","lat":-5.2348,"lon":119.7436,"elevationM":null},{"id":"node:1070176432","kind":"peak","name":"Bulu Pallajangeng","lat":-5.1211,"lon":119.6209,"elevationM":null},{"id":"node:1070176505","kind":"peak","name":"Bulu Bontomanai","lat":-5.1345,"lon":119.8288,"elevationM":null},{"id":"node:1070176581","kind":"peak","name":"Bonto Dongolo","lat":-5.5066,"lon":119.6112,"elevationM":null},{"id":"node:1070176586","kind":"peak","name":"Bulu Moncongloebulu","lat":-5.1419,"lon":119.5886,"elevationM":null},{"id":"node:1070176619","kind":"peak","name":"Bulu Pemokemama","lat":-5.1388,"lon":119.8916,"elevationM":null},{"id":"node:1070176659","kind":"peak","name":"Bulu Timbua","lat":-5.1661,"lon":119.9719,"elevationM":null},{"id":"node:1070176852","kind":"peak","name":"Bulu Bulukumba","lat":-5.0829,"lon":119.8002,"elevationM":null},{"id":"node:1070176893","kind":"peak","name":"Bonto Baturenging","lat":-5.5456,"lon":119.6938,"elevationM":null},{"id":"node:1070176898","kind":"peak","name":"Moncong Terang","lat":-5.4481,"lon":119.5544,"elevationM":null},{"id":"node:1070176932","kind":"peak","name":"Moncong Karaengtombang","lat":-5.5359,"lon":119.6149,"elevationM":null},{"id":"node:1070176937","kind":"peak","name":"Moncong Pusu","lat":-5.3576,"lon":119.6058,"elevationM":null},{"id":"node:1070177256","kind":"peak","name":"Bulu Lilikang","lat":-5.0314,"lon":119.8563,"elevationM":null},{"id":"node:1070177476","kind":"peak","name":"Bulu Tattakang","lat":-5.1361,"lon":119.7944,"elevationM":null},{"id":"node:1070177516","kind":"peak","name":"Moncong Tolotolo","lat":-5.5733,"lon":119.538,"elevationM":null},{"id":"node:1070177553","kind":"peak","name":"Moncong Takasiyang","lat":-5.4744,"lon":119.6156,"elevationM":null},{"id":"node:1070177779","kind":"peak","name":"Bonto Rupulumuwe","lat":-5.09,"lon":119.8942,"elevationM":null},{"id":"node:1070178025","kind":"peak","name":"Bulu Bilang","lat":-5.2072,"lon":119.8929,"elevationM":null},{"id":"node:1070178099","kind":"peak","name":"Bonto Jamara","lat":-5.538,"lon":119.6837,"elevationM":null},{"id":"node:1070178236","kind":"peak","name":"Bulu Singgang","lat":-5.3530923,"lon":119.9698755,"elevationM":null},{"id":"node:1070178310","kind":"peak","name":"Moncong Tallasak","lat":-5.3824,"lon":119.9396,"elevationM":null},{"id":"node:1070178498","kind":"peak","name":"Bulu Saringan","lat":-5.1956,"lon":119.8268,"elevationM":null},{"id":"node:1070178649","kind":"peak","name":"Bulu Patinoang","lat":-5.3059,"lon":119.9765,"elevationM":null},{"id":"node:1070178753","kind":"peak","name":"Bulu Biroyong","lat":-5.2016,"lon":119.6905,"elevationM":null},{"id":"node:1070178858","kind":"peak","name":"Bulu Janjang","lat":-5.1928,"lon":119.6857,"elevationM":null},{"id":"node:1070178902","kind":"peak","name":"Moncong Matutu","lat":-5.4363,"lon":119.5911,"elevationM":null},{"id":"node:1070179013","kind":"peak","name":"Bulu Pengka","lat":-5.5129,"lon":119.6647,"elevationM":null},{"id":"node:1070179506","kind":"peak","name":"Bulu Taijangi","lat":-5.0881,"lon":119.8785,"elevationM":null},{"id":"node:1070179654","kind":"peak","name":"Bulu Tawar","lat":-5.318558,"lon":119.7561121,"elevationM":null},{"id":"node:1070179841","kind":"peak","name":"Moncong Lejanglaku","lat":-5.4827,"lon":119.513,"elevationM":null},{"id":"node:1070179952","kind":"peak","name":"Moncong Badopatiroang","lat":-5.5654,"lon":119.5497,"elevationM":null},{"id":"node:1070179989","kind":"peak","name":"Bulu Monrolo","lat":-5.1292,"lon":119.8135,"elevationM":null},{"id":"node:1070180098","kind":"peak","name":"Moncong Balangkolasa","lat":-5.4868,"lon":119.6371,"elevationM":null},{"id":"node:1070180143","kind":"peak","name":"Bonto Ajuditungoe","lat":-5.1539,"lon":119.9929,"elevationM":null},{"id":"node:1070180261","kind":"peak","name":"Moncong Biyanglowe","lat":-5.39,"lon":119.9536,"elevationM":null},{"id":"node:1070180269","kind":"peak","name":"Moncong Parele","lat":-5.4246,"lon":119.5391,"elevationM":null},{"id":"node:1070180420","kind":"peak","name":"Bulu Mandalle","lat":-5.0019,"lon":119.8434,"elevationM":null},{"id":"node:1070180596","kind":"peak","name":"Bulu Kacici","lat":-5.0992,"lon":119.6665,"elevationM":null},{"id":"node:1070180601","kind":"peak","name":"Moncong Piyaing","lat":-5.4752,"lon":119.5743,"elevationM":null},{"id":"node:1070180783","kind":"peak","name":"Bulu Uwaementang","lat":-5.1226,"lon":119.9834,"elevationM":null},{"id":"node:1070180979","kind":"peak","name":"Batu Jawia","lat":-5.557778,"lon":119.635833,"elevationM":null},{"id":"node:1070180985","kind":"peak","name":"Bulu Tanaruntung","lat":-5.0378,"lon":119.7247,"elevationM":null},{"id":"node:1070181097","kind":"peak","name":"Moncong Mataketeng","lat":-5.4206,"lon":119.6059,"elevationM":null},{"id":"node:1070181213","kind":"peak","name":"Gunung Rumbia","lat":-5.0360851,"lon":119.625527,"elevationM":null},{"id":"node:1070181241","kind":"peak","name":"Bulu Bontoloherang","lat":-5.1556,"lon":119.9268,"elevationM":null},{"id":"node:1070181539","kind":"peak","name":"Bulu Parangloe","lat":-5.1933,"lon":119.7041,"elevationM":null},{"id":"node:1070181573","kind":"peak","name":"Bonto Uhekeke","lat":-5.1482,"lon":119.9992,"elevationM":null},{"id":"node:1070181651","kind":"peak","name":"Bonto Kukusan","lat":-5.1136,"lon":119.9515,"elevationM":null},{"id":"node:1070181790","kind":"peak","name":"Moncong Bulobulo","lat":-5.3913,"lon":119.6743,"elevationM":null},{"id":"node:1070181794","kind":"peak","name":"Bulu Sanjang","lat":-5.1467,"lon":119.6185,"elevationM":null},{"id":"node:1070181861","kind":"peak","name":"Karampuang","lat":-5.573333,"lon":119.539167,"elevationM":null},{"id":"node:1070182577","kind":"peak","name":"Bulu Tattangeng","lat":-5.0133,"lon":119.7647,"elevationM":null},{"id":"node:1070183132","kind":"peak","name":"Bulu Poso","lat":-5.0767,"lon":119.7835,"elevationM":null},{"id":"node:1070183355","kind":"peak","name":"Moncong Loka","lat":-5.4462,"lon":119.9228,"elevationM":null},{"id":"node:1070183572","kind":"peak","name":"Bulu Sikucik","lat":-5.116,"lon":119.7073,"elevationM":null},{"id":"node:1070183651","kind":"peak","name":"Bulu Karampuang","lat":-5.2291,"lon":119.8856,"elevationM":null},{"id":"node:1070184039","kind":"peak","name":"Bulu Pasaloang","lat":-5.0367,"lon":119.764,"elevationM":null},{"id":"node:1070184092","kind":"peak","name":"Bulu Alapolong","lat":-5.0045,"lon":119.6842,"elevationM":null},{"id":"node:1070184558","kind":"peak","name":"Moncong Puro","lat":-5.4355,"lon":119.5755,"elevationM":null},{"id":"node:1070184956","kind":"peak","name":"Bulu Kabbasa","lat":-5.2403,"lon":119.6343,"elevationM":null},{"id":"node:1070185251","kind":"peak","name":"Bonto Kajenorang","lat":-5.0795,"lon":119.8557,"elevationM":null},{"id":"node:1070185421","kind":"peak","name":"Bonto Ligara","lat":-5.5306,"lon":119.6862,"elevationM":null},{"id":"node:1070185556","kind":"peak","name":"Bonto Pammolikang","lat":-5.1283,"lon":119.9981,"elevationM":null},{"id":"node:1070185685","kind":"peak","name":"Moncong Buakang","lat":-5.4483,"lon":119.9687,"elevationM":null},{"id":"node:1070186190","kind":"peak","name":"Bonto Limpoe","lat":-5.0141,"lon":119.9338,"elevationM":null},{"id":"node:1070186215","kind":"peak","name":"Bulu Timpalaja","lat":-5.0677,"lon":119.9272,"elevationM":null},{"id":"node:1070186440","kind":"peak","name":"Bulu Lewang","lat":-5.1104,"lon":119.7337,"elevationM":null},{"id":"node:1070186635","kind":"peak","name":"Moncong Bantu","lat":-5.4147,"lon":119.7405,"elevationM":null},{"id":"node:1070186660","kind":"peak","name":"Bulu Moncongritangnga","lat":-5.2132,"lon":119.6092,"elevationM":null},{"id":"node:1070186705","kind":"peak","name":"Bulu Halahalaya","lat":-5.2356,"lon":119.9392,"elevationM":null},{"id":"node:1070186933","kind":"peak","name":"Bulu Baria","lat":-5.3402,"lon":119.9221,"elevationM":null},{"id":"node:1070186957","kind":"peak","name":"Moncong Pandala","lat":-5.5662048,"lon":119.4431598,"elevationM":null},{"id":"node:1070187034","kind":"peak","name":"Bulu Bedenglolo","lat":-5.4902,"lon":119.7513,"elevationM":null},{"id":"node:1070187087","kind":"peak","name":"Bulu Bogo","lat":-5.125,"lon":119.5908,"elevationM":null},{"id":"node:1070187142","kind":"peak","name":"Bonto Padange","lat":-5.0224,"lon":119.8914,"elevationM":null},{"id":"node:1070187166","kind":"peak","name":"Bulu Saukang","lat":-5.1612,"lon":119.629,"elevationM":null},{"id":"node:1070187362","kind":"peak","name":"Moncong Lajaya","lat":-5.4261,"lon":119.5411,"elevationM":null},{"id":"node:1070187495","kind":"peak","name":"Bonto Tarutu","lat":-5.5117,"lon":119.58,"elevationM":null},{"id":"node:1070187671","kind":"peak","name":"Moncong Parumbenrung","lat":-5.4945,"lon":119.6228,"elevationM":null},{"id":"node:1070187699","kind":"peak","name":"Bonto Sehak","lat":-5.142,"lon":119.9775,"elevationM":null},{"id":"node:1070187718","kind":"peak","name":"Moncong Bontolonto","lat":-5.3361,"lon":119.6201,"elevationM":null},{"id":"node:1070187723","kind":"peak","name":"Bulu Rampak","lat":-5.0919,"lon":119.8056,"elevationM":null},{"id":"node:1070187845","kind":"peak","name":"Bulu Kokmarak","lat":-5.149,"lon":119.74,"elevationM":null},{"id":"node:1070187925","kind":"peak","name":"Moncong Peda","lat":-5.4667,"lon":119.4955,"elevationM":null},{"id":"node:1070188102","kind":"peak","name":"Moncong Tangnga","lat":-5.5642,"lon":119.532,"elevationM":null},{"id":"node:1070188259","kind":"peak","name":"Bulu Pokolompo","lat":-5.2184,"lon":119.7022,"elevationM":null},{"id":"node:1070188311","kind":"peak","name":"Bonto Makajoa","lat":-5.0589,"lon":119.9155,"elevationM":null},{"id":"node:1070188413","kind":"peak","name":"Bulu Batuejang","lat":-5.2247,"lon":119.8005,"elevationM":null},{"id":"node:1070188439","kind":"peak","name":"Bonto Simelu","lat":-5.0962,"lon":119.9966,"elevationM":null},{"id":"node:1070188637","kind":"peak","name":"Bonto Suka","lat":-5.582,"lon":119.6653,"elevationM":null},{"id":"node:1070188783","kind":"peak","name":"Moncong Silanu","lat":-5.5432,"lon":119.5863,"elevationM":null},{"id":"node:1070189551","kind":"peak","name":"Bulu Ganrangganrang","lat":-5.0572,"lon":119.631,"elevationM":null},{"id":"node:1070189636","kind":"peak","name":"Bulu Maranne","lat":-5.3986,"lon":119.7822,"elevationM":null},{"id":"node:1070189950","kind":"peak","name":"Moncong Surangara","lat":-5.4701,"lon":119.5086,"elevationM":null},{"id":"node:1070190963","kind":"peak","name":"Bonto Diharelaju","lat":-5.0932,"lon":119.8829,"elevationM":null},{"id":"node:1070191048","kind":"peak","name":"Bonto Romansibotong","lat":-5.5572,"lon":119.6361,"elevationM":null},{"id":"node:1070191466","kind":"peak","name":"Bulu Panring","lat":-5.2689,"lon":119.8972,"elevationM":null},{"id":"node:1070191523","kind":"peak","name":"Moncong Bincanaja","lat":-5.4518,"lon":119.6404,"elevationM":null},{"id":"node:1070191530","kind":"peak","name":"Moncong Ritapayung","lat":-5.4485,"lon":119.6511,"elevationM":null},{"id":"node:1070191793","kind":"peak","name":"Bulu Ganrang","lat":-5.1049,"lon":119.5706,"elevationM":null},{"id":"node:1070192293","kind":"peak","name":"Moncong Tanaeja","lat":-5.519,"lon":119.5931,"elevationM":null},{"id":"node:1070192474","kind":"peak","name":"Bulu Katoba","lat":-5.1982,"lon":119.8966,"elevationM":null},{"id":"node:1070192687","kind":"peak","name":"Bulu Taroang","lat":-5.3827,"lon":119.7555,"elevationM":null},{"id":"node:1070193391","kind":"peak","name":"Moncong Talakabatua","lat":-5.5682,"lon":119.4545,"elevationM":null},{"id":"node:1070193465","kind":"peak","name":"Bulu Leheka","lat":-5.1644,"lon":119.8685,"elevationM":null},{"id":"node:1070193598","kind":"peak","name":"Bonto Jahongjahong","lat":-5.1069,"lon":119.9626,"elevationM":null},{"id":"node:1070193746","kind":"peak","name":"Bulu Leonrokko","lat":-5.0489,"lon":119.7331,"elevationM":null},{"id":"node:1070193967","kind":"peak","name":"Moncong Rumbia","lat":-5.4773,"lon":119.861,"elevationM":null},{"id":"node:1070194106","kind":"peak","name":"Bulu Tanetelangi","lat":-5.2374,"lon":119.768,"elevationM":null},{"id":"node:1070194236","kind":"peak","name":"Bulu Bitolo","lat":-5.1794,"lon":119.6474,"elevationM":null},{"id":"node:1070195403","kind":"peak","name":"Bulu Batutiga","lat":-5.1314,"lon":119.5912,"elevationM":null},{"id":"node:1070195459","kind":"peak","name":"Moncong Gimbara","lat":-5.3997,"lon":119.9434,"elevationM":null},{"id":"node:1070195474","kind":"peak","name":"Bulu Malahira","lat":-5.1576,"lon":119.8878,"elevationM":null},{"id":"node:1070195542","kind":"peak","name":"Bulu Arangang","lat":-5.1906,"lon":119.6322,"elevationM":null},{"id":"node:1070195692","kind":"peak","name":"Bulu Manuklappung","lat":-5.0268,"lon":119.6978,"elevationM":null},{"id":"node:1070196051","kind":"peak","name":"Bulu Punrehata","lat":-5.0514,"lon":119.7771,"elevationM":null},{"id":"node:1070196104","kind":"peak","name":"Moncong Bunebune","lat":-5.4817,"lon":119.6952,"elevationM":null},{"id":"node:1070196261","kind":"peak","name":"Bulu Bossolo","lat":-5.0867,"lon":119.695,"elevationM":null},{"id":"node:1070196355","kind":"peak","name":"Bulu Tanettepanasa","lat":-5.1619,"lon":119.6732,"elevationM":null},{"id":"node:1070196432","kind":"peak","name":"Bulu Kariango","lat":-5.0868,"lon":119.5947,"elevationM":null},{"id":"node:1070196596","kind":"peak","name":"Bonto Timbele","lat":-5.0431,"lon":119.8424,"elevationM":null},{"id":"node:1070196827","kind":"peak","name":"Moncong Manai","lat":-5.4701,"lon":119.6274,"elevationM":null},{"id":"node:1070196872","kind":"peak","name":"Moncong Tangnga","lat":-5.3367,"lon":119.5401,"elevationM":null},{"id":"node:1070196912","kind":"peak","name":"Moncong Tinambung","lat":-5.3822,"lon":119.6327,"elevationM":null},{"id":"node:1070196993","kind":"peak","name":"Moncong Campagarung","lat":-5.4638,"lon":119.6416,"elevationM":null},{"id":"node:1070197100","kind":"peak","name":"Moncong Bilabila","lat":-5.4578,"lon":119.6075,"elevationM":null},{"id":"node:2503444184","kind":"peak","name":"Bukit Tanakeke (HKM)","lat":-5.5413972,"lon":119.6204916,"elevationM":null},{"id":"node:2503444185","kind":"peak","name":"Kawasan Hutang Kemasyarakatan","lat":-5.5294395,"lon":119.6229991,"elevationM":null},{"id":"node:5610783854","kind":"peak","name":"Gunung Tangngayya","lat":-5.0416561,"lon":119.62605,"elevationM":null},{"id":"node:5610784537","kind":"peak","name":"Gunung Leang","lat":-5.0372155,"lon":119.6285498,"elevationM":null},{"id":"node:5610786514","kind":"peak","name":"Gunung Bungung Dare","lat":-5.046615,"lon":119.6292257,"elevationM":null},{"id":"node:11422486346","kind":"peak","name":"Moncong Panngalleang Toppak","lat":-5.2536836,"lon":119.5354664,"elevationM":null},{"id":"node:12192143493","kind":"peak","name":"Moncong Sare Teʼne","lat":-5.2636871,"lon":119.5726344,"elevationM":273},{"id":"node:12192143494","kind":"peak","name":"Moncong Tabbanga","lat":-5.2734088,"lon":119.5548009,"elevationM":190}]}