{"tileKey":"la_m26_lo_p15","version":"v1-1775891056926","entries":[{"id":"node:3649799153","kind":"peak","name":"Chowagasberg","lat":-25.2706256,"lon":15.7547102,"elevationM":2063},{"id":"node:3649799768","kind":"peak","name":"Satanskop","lat":-25.4552689,"lon":15.9143983,"elevationM":1762},{"id":"node:3649799882","kind":"peak","name":"Awasibberge","lat":-25.5203023,"lon":15.6582579,"elevationM":1817},{"id":"node:12182274359","kind":"peak","name":"Piekniekkoppe","lat":-25.672905,"lon":15.9561956,"elevationM":944},{"id":"node:12182274361","kind":"peak","name":"Haiber Hill","lat":-25.6112072,"lon":15.7186974,"elevationM":1150},{"id":"node:12182274362","kind":"peak","name":"Guinasibberg","lat":-25.2644235,"lon":15.5099768,"elevationM":1327},{"id":"node:12182274363","kind":"peak","name":"Bushman Hill","lat":-25.1072922,"lon":15.7983367,"elevationM":1690},{"id":"node:12182274364","kind":"peak","name":"Hauchab","lat":-25.4194823,"lon":15.2620757,"elevationM":1014},{"id":"node:12182274365","kind":"peak","name":"Uri-Hauchab","lat":-25.3697235,"lon":15.1940893,"elevationM":840},{"id":"node:12981748492","kind":"peak","name":"Nos Numabis","lat":-25.4766557,"lon":15.5898464,"elevationM":null},{"id":"node:13100222091","kind":"peak","name":"Gorrasis","lat":-25.2966252,"lon":15.9674609,"elevationM":1767}]}