{"tileKey":"la_m70_lo_m64","version":"v1-1775891056926","entries":[{"id":"node:9252694677","kind":"peak","name":"Scripps Heights","lat":-69.1354107,"lon":-63.6672178,"elevationM":null},{"id":"node:9252702078","kind":"peak","name":"Finley Heights","lat":-69.2188674,"lon":-63.2134779,"elevationM":null},{"id":"node:9252722538","kind":"peak","name":"Engel Peaks","lat":-69.5332695,"lon":-63.0900923,"elevationM":null},{"id":"node:9252727167","kind":"peak","name":"Mount Sullivan","lat":-69.6508149,"lon":-63.8170931,"elevationM":null},{"id":"node:9253110066","kind":"peak","name":"Mount Bailey","lat":-69.9769917,"lon":-63.0173347,"elevationM":null}]}