{"tileKey":"la_m18_lo_m67","version":"v1-1775891056926","entries":[{"id":"node:352734841","kind":"peak","name":"Tunari","lat":-17.2864714,"lon":-66.3933014,"elevationM":5035},{"id":"node:617150308","kind":"peak","name":"Acutani","lat":-17.132071,"lon":-66.759508,"elevationM":4072},{"id":"node:617154310","kind":"peak","name":"Cerro Pucarani","lat":-17.0508917,"lon":-66.6457855,"elevationM":4164},{"id":"node:786662311","kind":"peak","name":"Cerro de Cota","lat":-17.4240339,"lon":-66.2842423,"elevationM":2610},{"id":"node:1121438245","kind":"peak","name":"Khacha","lat":-17.7150377,"lon":-66.2397225,"elevationM":null},{"id":"node:1121473704","kind":"peak","name":"Lokhosa","lat":-17.6943055,"lon":-66.2472502,"elevationM":null},{"id":"node:1121473707","kind":"peak","name":"Pakolla","lat":-17.6933298,"lon":-66.2430647,"elevationM":null},{"id":"node:1615337317","kind":"peak","name":"Jojta Chulpa","lat":-17.3498656,"lon":-66.6069165,"elevationM":null},{"id":"node:1615357437","kind":"peak","name":"Cerro Koari","lat":-17.3909485,"lon":-66.7215137,"elevationM":4372},{"id":"node:2072490524","kind":"peak","name":"Cerro San Pedro","lat":-17.3843037,"lon":-66.1349575,"elevationM":2840},{"id":"node:2072491874","kind":"peak","name":"Cerro Redondo","lat":-17.4025081,"lon":-66.127394,"elevationM":2640},{"id":"node:2075687494","kind":"peak","name":"Colina de San Sebastián","lat":-17.4047386,"lon":-66.1603151,"elevationM":2632},{"id":"node:2075687875","kind":"peak","name":"Cerro Huayra K'asa","lat":-17.4098435,"lon":-66.1441296,"elevationM":2630},{"id":"node:2075687876","kind":"peak","name":"Cerro del Abra","lat":-17.4125326,"lon":-66.1166027,"elevationM":2860},{"id":"node:2075687878","kind":"peak","name":"Cerro Verde","lat":-17.4167239,"lon":-66.1481455,"elevationM":2640},{"id":"node:2075687879","kind":"peak","name":"Cerro Ticti","lat":-17.4253482,"lon":-66.1442961,"elevationM":2750},{"id":"node:2075687881","kind":"peak","name":"Cerro Yanachanca","lat":-17.4298801,"lon":-66.1415587,"elevationM":2790},{"id":"node:2075687884","kind":"peak","name":"Sau Sau Loma","lat":-17.4344259,"lon":-66.1414972,"elevationM":2750},{"id":"node:2075736807","kind":"peak","name":"Cerro Asuada","lat":-17.4155712,"lon":-66.1151749,"elevationM":2860},{"id":"node:2203823229","kind":"peak","name":"Cerro Tahuina","lat":-17.1995222,"lon":-66.8616651,"elevationM":null},{"id":"node:3301003615","kind":"peak","name":"Cerro San Agustín","lat":-17.072968,"lon":-66.2686431,"elevationM":4830},{"id":"node:3302247661","kind":"peak","name":"Cerro Kope Khana","lat":-17.6790472,"lon":-66.7348475,"elevationM":4423},{"id":"node:3636003077","kind":"peak","name":"Cerro Chocoloma","lat":-17.4267843,"lon":-66.1047633,"elevationM":2990},{"id":"node:4449675988","kind":"peak","name":"Cerro Sorata","lat":-17.450373,"lon":-66.3346888,"elevationM":null},{"id":"node:4666458206","kind":"peak","name":"Yuraq Yaku","lat":-17.500349,"lon":-66.3767307,"elevationM":3230},{"id":"node:4794594591","kind":"peak","name":"Cerro Jatun Chuto","lat":-17.4719208,"lon":-66.196686,"elevationM":null},{"id":"node:4938969723","kind":"peak","name":"Cerro Caramarca","lat":-17.4253559,"lon":-66.3057171,"elevationM":2774},{"id":"node:4942699798","kind":"peak","name":"Cerro Calomani","lat":-17.4721538,"lon":-66.1557145,"elevationM":2721},{"id":"node:4942699799","kind":"peak","name":"Cerro Itojtaloma","lat":-17.4667512,"lon":-66.193192,"elevationM":2759},{"id":"node:4942699800","kind":"peak","name":"Cerro Patamanta Punta","lat":-17.4779381,"lon":-66.220767,"elevationM":2924},{"id":"node:4942699801","kind":"peak","name":"Cerro Thakoloma","lat":-17.4837637,"lon":-66.203168,"elevationM":2806},{"id":"node:4942699802","kind":"peak","name":"Cerro Lagunillas","lat":-17.4922419,"lon":-66.1407898,"elevationM":3026},{"id":"node:4942699808","kind":"peak","name":"Cerro Papa Tarpuna","lat":-17.4396153,"lon":-66.0904883,"elevationM":3077},{"id":"node:4952801105","kind":"peak","name":"Cerro Mojona","lat":-17.4940331,"lon":-66.7692376,"elevationM":4296},{"id":"node:5050058268","kind":"peak","name":"Cerro Mula Pacana","lat":-17.4520749,"lon":-66.0629021,"elevationM":null},{"id":"node:5084495181","kind":"peak","name":"Cerro Quenamari","lat":-17.2682031,"lon":-66.6687298,"elevationM":null},{"id":"node:5157942906","kind":"peak","name":"Cerro Pirhuata","lat":-17.2133962,"lon":-66.3992771,"elevationM":5060},{"id":"node:5417796102","kind":"peak","name":"Cerro Azufrini","lat":-17.7453713,"lon":-66.2778752,"elevationM":2582},{"id":"node:5633558868","kind":"peak","name":"Sau Sau Loma","lat":-17.4376983,"lon":-66.1354279,"elevationM":null},{"id":"node:5737770973","kind":"peak","name":"Cerro Rodeo","lat":-17.3607471,"lon":-66.1003207,"elevationM":null},{"id":"node:5737770975","kind":"peak","name":"Cerro Mulli Mayu","lat":-17.3611634,"lon":-66.1236029,"elevationM":null},{"id":"node:5737772099","kind":"peak","name":"Cerro Linkho","lat":-17.3539661,"lon":-66.1038065,"elevationM":null},{"id":"node:5737772100","kind":"peak","name":"Cerro Takholoma","lat":-17.3495467,"lon":-66.120822,"elevationM":3225},{"id":"node:5737772101","kind":"peak","name":"Cerro Kewiñal","lat":-17.3438917,"lon":-66.1386285,"elevationM":null},{"id":"node:5743756998","kind":"peak","name":"Cerro Huaycha","lat":-17.3479342,"lon":-66.0956288,"elevationM":null},{"id":"node:5743756999","kind":"peak","name":"Cerro Potrera","lat":-17.343588,"lon":-66.085953,"elevationM":3794},{"id":"node:5743757000","kind":"peak","name":"Cerro Palomeana","lat":-17.3514695,"lon":-66.0857582,"elevationM":null},{"id":"node:5857127568","kind":"peak","name":"Cerro San Miguel","lat":-17.4044884,"lon":-66.1473611,"elevationM":null},{"id":"node:7505414124","kind":"peak","name":"Cerro Kirikiri","lat":-17.4321767,"lon":-66.0995286,"elevationM":null},{"id":"node:7509368074","kind":"peak","name":"Cerro Lagunillas","lat":-17.4533496,"lon":-66.0837955,"elevationM":3110},{"id":"node:7509368075","kind":"peak","name":"Cerro Mojon Okha","lat":-17.45499,"lon":-66.0789653,"elevationM":null},{"id":"node:7509368076","kind":"peak","name":"Cerro Mula Pacana","lat":-17.4585656,"lon":-66.0700584,"elevationM":null},{"id":"node:7509368077","kind":"peak","name":"Cerro Usfaloma","lat":-17.4620121,"lon":-66.0661749,"elevationM":2913},{"id":"node:7509368078","kind":"peak","name":"Cerro Khara Orkho","lat":-17.4728488,"lon":-66.0708312,"elevationM":3027},{"id":"node:7509368079","kind":"peak","name":"Cerro Milliojo","lat":-17.4686469,"lon":-66.0747147,"elevationM":null},{"id":"node:8289520851","kind":"peak","name":"Cerro Silla Orkho","lat":-17.5029853,"lon":-66.1284362,"elevationM":3090},{"id":"node:8297353992","kind":"peak","name":"Cerro Chiar Jakke","lat":-17.4873534,"lon":-66.0653969,"elevationM":null},{"id":"node:8297404982","kind":"peak","name":"Cerro Thakoloma","lat":-17.5022827,"lon":-66.064825,"elevationM":null},{"id":"node:8320542456","kind":"peak","name":"Cerro Pucara","lat":-17.4725258,"lon":-66.1681841,"elevationM":null},{"id":"node:9259603593","kind":"peak","name":"Kuntur Samaña","lat":-17.5384398,"lon":-66.911974,"elevationM":null},{"id":"node:9259608765","kind":"peak","name":"Jach'a Warmi Qullu","lat":-17.5431353,"lon":-66.9363955,"elevationM":null},{"id":"node:9259610835","kind":"peak","name":"T'ula T'ulani","lat":-17.5257387,"lon":-66.9805285,"elevationM":null},{"id":"node:9259613142","kind":"peak","name":"Qala Piwrani","lat":-17.5133385,"lon":-66.9312054,"elevationM":null},{"id":"node:9259617353","kind":"peak","name":"Jaqi Jiwata","lat":-17.5259305,"lon":-66.9392896,"elevationM":null},{"id":"node:9259621418","kind":"peak","name":"Iru Pata","lat":-17.5296775,"lon":-66.9488516,"elevationM":null},{"id":"node:9259638831","kind":"peak","name":"Wila Jaqhi","lat":-17.5414346,"lon":-66.8011907,"elevationM":null},{"id":"node:9259644937","kind":"peak","name":"Janq'u Pukara","lat":-17.5899692,"lon":-66.8993595,"elevationM":null},{"id":"node:9259648273","kind":"peak","name":"Chachakumani","lat":-17.5816773,"lon":-66.9028062,"elevationM":null},{"id":"node:9259649990","kind":"peak","name":"Ñuñu Qullu","lat":-17.5974323,"lon":-66.8900362,"elevationM":null},{"id":"node:9259665939","kind":"peak","name":"Wila Apachita","lat":-17.604279,"lon":-66.8823382,"elevationM":null},{"id":"node:9259680598","kind":"peak","name":"P'iq'iñ Q'ara Punta","lat":-17.564136,"lon":-66.845592,"elevationM":null},{"id":"node:9259809098","kind":"peak","name":"Warawarani","lat":-17.622003,"lon":-66.7910224,"elevationM":null},{"id":"node:9259834521","kind":"peak","name":"Qillqata","lat":-17.6032282,"lon":-66.7777455,"elevationM":null},{"id":"node:9259892039","kind":"peak","name":"Jach'a Ch'utu","lat":-17.6411183,"lon":-66.8031701,"elevationM":null},{"id":"node:9259900807","kind":"peak","name":"Q'ara Willk'i","lat":-17.6925111,"lon":-66.871604,"elevationM":null},{"id":"node:9259905673","kind":"peak","name":"Turu Qullu","lat":-17.6332761,"lon":-66.8104202,"elevationM":null},{"id":"node:9259905703","kind":"peak","name":"Siwinqani","lat":-17.6271003,"lon":-66.8182147,"elevationM":null},{"id":"node:9259906570","kind":"peak","name":"Chunkara","lat":-17.9650834,"lon":-66.9187385,"elevationM":null},{"id":"node:9259920535","kind":"peak","name":"Janq'u Qalani","lat":-17.6870937,"lon":-66.8457931,"elevationM":null},{"id":"node:9259924523","kind":"peak","name":"Kuntur Ikiña","lat":-17.6681979,"lon":-66.8204168,"elevationM":null},{"id":"node:9259929717","kind":"peak","name":"Lluxita","lat":-17.7054381,"lon":-66.8610495,"elevationM":null},{"id":"node:9259939125","kind":"peak","name":"Wayllani","lat":-17.9778478,"lon":-66.9072157,"elevationM":null},{"id":"node:9259939223","kind":"peak","name":"Q'uwa Qullu","lat":-17.5944793,"lon":-66.9962704,"elevationM":null},{"id":"node:9259939501","kind":"peak","name":"Jach'a Ch'ankha","lat":-17.975641,"lon":-66.9310927,"elevationM":4345},{"id":"node:9259940124","kind":"peak","name":"Wichhu Qullu","lat":-17.9986418,"lon":-66.9121885,"elevationM":null},{"id":"node:9259980253","kind":"peak","name":"Sirk'i","lat":-17.9388476,"lon":-66.4517444,"elevationM":null},{"id":"node:9259984998","kind":"peak","name":"Qiñwa Q'asa","lat":-17.3884148,"lon":-66.4536139,"elevationM":null},{"id":"node:9260000608","kind":"peak","name":"Yuraq Q'asa","lat":-17.4579212,"lon":-66.4802617,"elevationM":null},{"id":"node:9260002807","kind":"peak","name":"Kuntur Wachana","lat":-17.7125439,"lon":-66.3516659,"elevationM":null},{"id":"node:9260002943","kind":"peak","name":"Jach'a Khuchi","lat":-17.9366275,"lon":-66.4658931,"elevationM":null},{"id":"node:9260011785","kind":"peak","name":"Siwinqani","lat":-17.852371,"lon":-66.3960055,"elevationM":null},{"id":"node:9260012549","kind":"peak","name":"Yana Qaqa","lat":-17.3489307,"lon":-66.423313,"elevationM":null},{"id":"node:9260014756","kind":"peak","name":"Puka Puka","lat":-17.8973043,"lon":-66.4410773,"elevationM":null},{"id":"node:9260016618","kind":"peak","name":"Chuymani","lat":-17.8087773,"lon":-66.4468735,"elevationM":null},{"id":"node:9260019031","kind":"peak","name":"Atuq Wachana","lat":-17.4764194,"lon":-66.465421,"elevationM":null},{"id":"node:9260019032","kind":"peak","name":"Pichaqani","lat":-17.472372,"lon":-66.4747122,"elevationM":null},{"id":"node:9260020406","kind":"peak","name":"Salla Willk'i Punta","lat":-17.0488789,"lon":-66.4795402,"elevationM":null},{"id":"node:9260021549","kind":"peak","name":"Q'ara Apachita","lat":-17.4021851,"lon":-66.4519322,"elevationM":null},{"id":"node:9260024266","kind":"peak","name":"Wayna Tunari","lat":-17.2661695,"lon":-66.4041594,"elevationM":null},{"id":"node:9260025774","kind":"peak","name":"Tikrasqa","lat":-17.4072732,"lon":-66.4813936,"elevationM":null},{"id":"node:9260026009","kind":"peak","name":"Sankayuni","lat":-17.1665578,"lon":-66.4617598,"elevationM":null},{"id":"node:9260031075","kind":"peak","name":"Janq'u Qala","lat":-17.2339796,"lon":-66.3768277,"elevationM":null},{"id":"node:9260031239","kind":"peak","name":"Phullu Punchu","lat":-17.2972896,"lon":-66.4247748,"elevationM":null},{"id":"node:9260032508","kind":"peak","name":"Qiñwani","lat":-17.337873,"lon":-66.4266872,"elevationM":null},{"id":"node:9260043292","kind":"peak","name":"Jatun Yuraq Q'asa","lat":-17.1165729,"lon":-66.5109918,"elevationM":null},{"id":"node:9260047550","kind":"peak","name":"Puma Apachita","lat":-17.2136955,"lon":-66.4276394,"elevationM":null},{"id":"node:9260048051","kind":"peak","name":"Jatun Q'asa","lat":-17.186305,"lon":-66.450001,"elevationM":null},{"id":"node:9260050475","kind":"peak","name":"Wari Warini","lat":-17.2253193,"lon":-66.357497,"elevationM":null},{"id":"node:9260056585","kind":"peak","name":"Qina Qina","lat":-17.2225344,"lon":-66.3972312,"elevationM":null},{"id":"node:9260069052","kind":"peak","name":"Liqiliqini","lat":-17.160197,"lon":-66.4968967,"elevationM":null},{"id":"node:9260069666","kind":"peak","name":"Quna Quna Q'asa","lat":-17.2058452,"lon":-66.3141136,"elevationM":null},{"id":"node:9260072644","kind":"peak","name":"Silla Q'asa","lat":-17.0867452,"lon":-66.442515,"elevationM":null},{"id":"node:9260074747","kind":"peak","name":"Q'illu Q'illu","lat":-17.0636643,"lon":-66.4897621,"elevationM":null},{"id":"node:9260080117","kind":"peak","name":"Qiñwani Punta","lat":-17.0420012,"lon":-66.4267784,"elevationM":null},{"id":"node:9260082057","kind":"peak","name":"Q'illu Suchusqa","lat":-17.1915029,"lon":-66.3252313,"elevationM":null},{"id":"node:9260084164","kind":"peak","name":"Wila Qullu Punta","lat":-17.1823076,"lon":-66.3216895,"elevationM":null},{"id":"node:9260089088","kind":"peak","name":"P'utu P'utu","lat":-17.1451553,"lon":-66.3983148,"elevationM":null},{"id":"node:9260091858","kind":"peak","name":"Jatun Kimray Punta","lat":-17.141772,"lon":-66.3598359,"elevationM":null},{"id":"node:9260111498","kind":"peak","name":"Kimsa Tinkuy","lat":-17.2201749,"lon":-66.3023776,"elevationM":null},{"id":"node:9260113311","kind":"peak","name":"Yuraq Qaqa","lat":-17.41998,"lon":-66.6472614,"elevationM":null},{"id":"node:9260122621","kind":"peak","name":"Awila Wachana Punta","lat":-17.2194908,"lon":-66.2900904,"elevationM":null},{"id":"node:9260127059","kind":"peak","name":"Puka Salli","lat":-17.2395552,"lon":-66.2728652,"elevationM":null},{"id":"node:9260128405","kind":"peak","name":"T'ula Jayani Apachita","lat":-17.2555908,"lon":-66.3125137,"elevationM":null},{"id":"node:9260128612","kind":"peak","name":"Kuntur Chukuña","lat":-17.3903652,"lon":-66.5958059,"elevationM":null},{"id":"node:9260131258","kind":"peak","name":"Jukumarini","lat":-17.3459737,"lon":-66.3528112,"elevationM":null},{"id":"node:9260135787","kind":"peak","name":"Ch'illiwani","lat":-17.4014505,"lon":-66.6151983,"elevationM":null},{"id":"node:9260140922","kind":"peak","name":"Llust'a Q'asa","lat":-17.4246863,"lon":-66.6348723,"elevationM":null},{"id":"node:9260142120","kind":"peak","name":"Yaritani","lat":-17.4358335,"lon":-66.6320184,"elevationM":null},{"id":"node:9260166482","kind":"peak","name":"Uqi Salli Punta","lat":-17.0452837,"lon":-66.3027772,"elevationM":null},{"id":"node:9260252802","kind":"peak","name":"Warawarani","lat":-17.4131725,"lon":-66.6600448,"elevationM":null},{"id":"node:9260265735","kind":"peak","name":"T'utura","lat":-17.4054868,"lon":-66.6815373,"elevationM":null},{"id":"node:9260284669","kind":"peak","name":"Lip'ichi","lat":-17.3644781,"lon":-66.6013876,"elevationM":null},{"id":"node:9260292025","kind":"peak","name":"Wichhu Qullu","lat":-17.4595536,"lon":-66.6326943,"elevationM":null},{"id":"node:11287169646","kind":"peak","name":"Cerro Santa Rosa","lat":-17.2579155,"lon":-66.1401574,"elevationM":4600},{"id":"node:11998215098","kind":"peak","name":"Cerro Chicote Chico","lat":-17.3429868,"lon":-66.853268,"elevationM":null},{"id":"node:12542780320","kind":"peak","name":"Cerro Santiago","lat":-17.2544775,"lon":-66.2817777,"elevationM":null},{"id":"node:12798073017","kind":"peak","name":"Cerro Yachi Sanco","lat":-17.7234215,"lon":-66.5354078,"elevationM":null},{"id":"node:12798100293","kind":"peak","name":"Cerro Churuchu Rumi","lat":-17.6000305,"lon":-66.8433309,"elevationM":null},{"id":"node:12798199307","kind":"peak","name":"Cerro Taruquiña","lat":-17.9178915,"lon":-66.9817995,"elevationM":4264}]}