{"tileKey":"la_m1_lo_p119","version":"v1-1775891056926","entries":[{"id":"node:1070155075","kind":"peak","name":"Bulu Sialalon","lat":-0.2078,"lon":119.9764,"elevationM":null},{"id":"node:1070155677","kind":"peak","name":"Bulu Cermi","lat":-0.5114,"lon":119.9051,"elevationM":null},{"id":"node:1070155907","kind":"peak","name":"Bulu Sirama","lat":-0.5352,"lon":119.811,"elevationM":null},{"id":"node:1070156764","kind":"peak","name":"Bulu Batalita","lat":-0.2651,"lon":119.9284,"elevationM":null},{"id":"node:1070156946","kind":"peak","name":"Bulu Sioti","lat":-0.3023,"lon":119.8143,"elevationM":null},{"id":"node:1070157074","kind":"peak","name":"Bulu Dora","lat":-0.3902,"lon":119.9868,"elevationM":null},{"id":"node:1070157097","kind":"peak","name":"Bulu Boseh","lat":-0.7834,"lon":119.9761,"elevationM":null},{"id":"node:1070157301","kind":"peak","name":"Bulu Silutung","lat":-0.3794,"lon":119.9717,"elevationM":null},{"id":"node:1070158126","kind":"peak","name":"Bulu Tokeya","lat":-0.4423,"lon":119.8114,"elevationM":null},{"id":"node:1070159156","kind":"peak","name":"Bulu Karama","lat":-0.5795,"lon":119.9438,"elevationM":null},{"id":"node:1070159235","kind":"peak","name":"Bulu Tarara","lat":-0.8597,"lon":119.7244,"elevationM":null},{"id":"node:1070159306","kind":"peak","name":"Bulu Tenggurung","lat":-0.0442,"lon":119.6499,"elevationM":null},{"id":"node:1070159365","kind":"peak","name":"Bulu Siviu","lat":-0.5232,"lon":119.78,"elevationM":null},{"id":"node:1070159414","kind":"peak","name":"Bulu Sandu","lat":-0.6761,"lon":119.9578,"elevationM":null},{"id":"node:1070159450","kind":"peak","name":"Bulu Kabarumano","lat":-0.9873,"lon":119.5594,"elevationM":null},{"id":"node:1070159455","kind":"peak","name":"Bulu Pantaumanuk","lat":-0.8107,"lon":119.7668,"elevationM":null},{"id":"node:1070159508","kind":"peak","name":"Bulu Lapaloan","lat":-0.6703,"lon":119.7309,"elevationM":null},{"id":"node:1070159763","kind":"peak","name":"Bulu Siuntuk","lat":-0.2096,"lon":119.9359,"elevationM":null},{"id":"node:1070160069","kind":"peak","name":"Bulu Punjung","lat":-0.2698,"lon":119.9049,"elevationM":null},{"id":"node:1070160661","kind":"peak","name":"Bulu Vinisdei","lat":-0.3243,"lon":119.8208,"elevationM":null},{"id":"node:1070160737","kind":"peak","name":"Bulu Bangat","lat":-0.0839,"lon":119.6513,"elevationM":null},{"id":"node:1070161395","kind":"peak","name":"Bulu Saroranga","lat":-0.563,"lon":119.9044,"elevationM":null},{"id":"node:1070161567","kind":"peak","name":"Bulu Sinonju","lat":-0.1136,"lon":119.9159,"elevationM":null},{"id":"node:1070161654","kind":"peak","name":"Bulu Dama","lat":-0.5218,"lon":119.8985,"elevationM":null},{"id":"node:1070161724","kind":"peak","name":"Bulu Sesere","lat":-0.6549,"lon":119.9226,"elevationM":null},{"id":"node:1070161882","kind":"peak","name":"Bulu Masomba","lat":-0.8604,"lon":119.9736,"elevationM":null},{"id":"node:1070161897","kind":"peak","name":"Bulu Siniu","lat":-0.6176,"lon":119.9461,"elevationM":null},{"id":"node:1070161967","kind":"peak","name":"Bulu Kebonkopi","lat":-0.7413,"lon":119.9862,"elevationM":null},{"id":"node:1070162178","kind":"peak","name":"Bulu Silomolo","lat":-0.4698,"lon":119.7806,"elevationM":null},{"id":"node:1070162227","kind":"peak","name":"Bulu Kumbili","lat":-0.7192,"lon":119.9555,"elevationM":null},{"id":"node:1070162395","kind":"peak","name":"Bulu Jolovani","lat":-0.0133,"lon":119.6154,"elevationM":null},{"id":"node:1070162723","kind":"peak","name":"Bulu Riapu","lat":-0.8948137,"lon":119.9656199,"elevationM":null},{"id":"node:1070162762","kind":"peak","name":"Bulu Sindungo","lat":-0.3761,"lon":119.8725,"elevationM":null},{"id":"node:1070162997","kind":"peak","name":"Bulu Kalama","lat":-0.4566,"lon":119.8449,"elevationM":null},{"id":"node:1070163084","kind":"peak","name":"Bulu Sinayoang","lat":-0.3337,"lon":119.928,"elevationM":null},{"id":"node:1070163157","kind":"peak","name":"Bulu Alupute","lat":-0.068,"lon":119.9401,"elevationM":null},{"id":"node:1070163263","kind":"peak","name":"Bulu Kajalata","lat":-0.3959,"lon":119.8607,"elevationM":null},{"id":"node:1070163773","kind":"peak","name":"Bulu Wese","lat":-0.3638,"lon":119.8731,"elevationM":null},{"id":"node:1070163820","kind":"peak","name":"Bulu Loli","lat":-0.7376,"lon":119.7674,"elevationM":null},{"id":"node:1070163936","kind":"peak","name":"Bulu Sigandia","lat":-0.844,"lon":119.9803,"elevationM":null},{"id":"node:1070163973","kind":"peak","name":"Bulu Siviya","lat":-0.0342,"lon":119.6861,"elevationM":null},{"id":"node:1070164011","kind":"peak","name":"Bulu Taipa","lat":-0.3554,"lon":119.8301,"elevationM":null},{"id":"node:1070164180","kind":"peak","name":"Bulu Kaparunoomo","lat":-0.8294,"lon":119.9699,"elevationM":null},{"id":"node:1070164214","kind":"peak","name":"Bulu Lemo","lat":-0.7417,"lon":119.7382,"elevationM":null},{"id":"node:1070164571","kind":"peak","name":"Bulu Patambuu","lat":-0.3222,"lon":119.9488,"elevationM":null},{"id":"node:1070165138","kind":"peak","name":"Bulu Susmoi","lat":-0.3718,"lon":119.8628,"elevationM":null},{"id":"node:1070165146","kind":"peak","name":"Gunung Taipa","lat":-0.216667,"lon":119.9,"elevationM":null},{"id":"node:1070165305","kind":"peak","name":"Bulu Sambean","lat":-0.0939,"lon":119.6556,"elevationM":null},{"id":"node:1070165808","kind":"peak","name":"Bulu Tombita","lat":-0.435,"lon":119.7913,"elevationM":null},{"id":"node:1070167736","kind":"peak","name":"Bulu Tamangku","lat":-0.7393,"lon":119.926,"elevationM":null},{"id":"node:1070168051","kind":"peak","name":"Bulu Toriansam","lat":-0.1827,"lon":119.9799,"elevationM":null},{"id":"node:1070168259","kind":"peak","name":"Bulu Uluwuntu","lat":-0.1008,"lon":119.9318,"elevationM":null},{"id":"node:1070168490","kind":"peak","name":"Bulu Palayua","lat":-0.5085,"lon":119.8465,"elevationM":null},{"id":"node:1070168559","kind":"peak","name":"Bulu Sigalosari","lat":-0.5454,"lon":119.7913,"elevationM":null},{"id":"node:1070168824","kind":"peak","name":"Bulu Tovavonanga","lat":-0.5167,"lon":119.8007,"elevationM":null},{"id":"node:1070169244","kind":"peak","name":"Bulu Sienju","lat":-0.331,"lon":119.7781,"elevationM":null},{"id":"node:1070169350","kind":"peak","name":"Bulu Nggarui","lat":-0.7773,"lon":119.769,"elevationM":null},{"id":"node:1070169454","kind":"peak","name":"Bulu Enjulit","lat":-0.0257,"lon":119.6235,"elevationM":null},{"id":"node:1070169521","kind":"peak","name":"Bulu Tinjuawo","lat":-0.307,"lon":119.8469,"elevationM":null},{"id":"node:1070169699","kind":"peak","name":"Bulu Mpatidu","lat":-0.7527,"lon":119.7524,"elevationM":null},{"id":"node:1070169848","kind":"peak","name":"Bulu Siaya","lat":-0.422,"lon":119.9692,"elevationM":null},{"id":"node:1070170230","kind":"peak","name":"Bulu Watukonjai","lat":-0.0923,"lon":119.8739,"elevationM":null},{"id":"node:1070170347","kind":"peak","name":"Bulu Taidala","lat":-0.3814,"lon":119.7651,"elevationM":null},{"id":"node:1070170662","kind":"peak","name":"Bulu Wanja","lat":-0.9598,"lon":119.7644,"elevationM":null},{"id":"node:1070170699","kind":"peak","name":"Bulu Eas","lat":-0.0277,"lon":119.9179,"elevationM":null},{"id":"node:1070170844","kind":"peak","name":"Bulu Sipajang","lat":-0.0604,"lon":119.6785,"elevationM":null},{"id":"node:1070170878","kind":"peak","name":"Bulu Puseong","lat":-0.3522,"lon":119.8645,"elevationM":null},{"id":"node:1070170939","kind":"peak","name":"Bulu Simanggole","lat":-0.5703,"lon":119.8462,"elevationM":null},{"id":"node:1070171107","kind":"peak","name":"Bulu Totoili","lat":-0.0494,"lon":119.6777,"elevationM":null},{"id":"node:1070171147","kind":"peak","name":"Bulu Pura","lat":-0.3651,"lon":119.836,"elevationM":null},{"id":"node:1070172070","kind":"peak","name":"Bulu Tokekera","lat":-0.4121,"lon":119.8552,"elevationM":null},{"id":"node:1070172502","kind":"peak","name":"Bulu Rauang","lat":-0.1175,"lon":119.7377,"elevationM":null},{"id":"node:1070172827","kind":"peak","name":"Bulu Maliko","lat":-0.3894,"lon":119.8329,"elevationM":null},{"id":"node:1070172899","kind":"peak","name":"Bulu Sironti","lat":-0.4349,"lon":119.8392,"elevationM":null},{"id":"node:1070172973","kind":"peak","name":"Bulu Tubardaya","lat":-0.0786,"lon":119.6893,"elevationM":null},{"id":"node:1070173086","kind":"peak","name":"Bulu Sipongga","lat":-0.3834,"lon":119.8257,"elevationM":null},{"id":"node:1070173659","kind":"peak","name":"Bulu Sinio","lat":-0.5433,"lon":119.9591,"elevationM":null},{"id":"node:1070173748","kind":"peak","name":"Bulu Sibeine","lat":-0.1856,"lon":119.9787,"elevationM":null},{"id":"node:1070173914","kind":"peak","name":"Bulu Toribo","lat":-0.5146,"lon":119.8809,"elevationM":null},{"id":"node:1070173938","kind":"peak","name":"Bulu Silolo","lat":-0.2775,"lon":119.8106,"elevationM":null},{"id":"node:1070173988","kind":"peak","name":"Bulu Paboo","lat":-0.6492,"lon":119.931,"elevationM":null},{"id":"node:1070174169","kind":"peak","name":"Bulu Tamarambu","lat":-0.6083,"lon":119.8744,"elevationM":null},{"id":"node:1070174814","kind":"peak","name":"Bulu Salapene","lat":-0.1629,"lon":119.8074,"elevationM":null},{"id":"node:1070175231","kind":"peak","name":"Bulu Campada","lat":-0.3247,"lon":119.8082,"elevationM":null},{"id":"node:1070175349","kind":"peak","name":"Bulu Sidole","lat":-0.5158,"lon":119.9278,"elevationM":null},{"id":"node:1070176051","kind":"peak","name":"Bulu Punti","lat":-0.0459,"lon":119.9396,"elevationM":null},{"id":"node:1070176628","kind":"peak","name":"Bulu Watiro","lat":-0.7415,"lon":119.6995,"elevationM":null},{"id":"node:1070176757","kind":"peak","name":"Bulu Sijou","lat":-0.447,"lon":119.8388,"elevationM":null},{"id":"node:1070176904","kind":"peak","name":"Bulu Kayunaya","lat":-0.7326,"lon":119.7471,"elevationM":null},{"id":"node:1070177334","kind":"peak","name":"Bulu Sikumbar","lat":-0.062,"lon":119.7203,"elevationM":null},{"id":"node:1070177378","kind":"peak","name":"Bulu Salugoo","lat":-0.404,"lon":119.7913,"elevationM":null},{"id":"node:1070177428","kind":"peak","name":"Bulu Lelenggasa","lat":-0.5899,"lon":119.8095,"elevationM":null},{"id":"node:1070177638","kind":"peak","name":"Bulu Siponani","lat":-0.3555,"lon":119.9712,"elevationM":null},{"id":"node:1070177758","kind":"peak","name":"Bulu Maliko","lat":-0.5457,"lon":119.8395,"elevationM":null},{"id":"node:1070178282","kind":"peak","name":"Bulu Sira","lat":-0.4709,"lon":119.8047,"elevationM":null},{"id":"node:1070178549","kind":"peak","name":"Bulu Sinjilo","lat":-0.2782,"lon":119.8693,"elevationM":null},{"id":"node:1070178653","kind":"peak","name":"Bulu Batuputih","lat":-0.1912,"lon":119.9284,"elevationM":null},{"id":"node:1070178731","kind":"peak","name":"Bulu Simanci","lat":-0.3994,"lon":119.9898,"elevationM":null},{"id":"node:1070178762","kind":"peak","name":"Bulu Pombilikari","lat":-0.8717,"lon":119.9976,"elevationM":null},{"id":"node:1070178982","kind":"peak","name":"Bulu Sikokorang","lat":-0.0694,"lon":119.6858,"elevationM":null},{"id":"node:1070179099","kind":"peak","name":"Bulu Sibuga","lat":-0.382,"lon":119.9574,"elevationM":null},{"id":"node:1070179677","kind":"peak","name":"Bulu Toposo","lat":-0.5544,"lon":119.9087,"elevationM":null},{"id":"node:1070179771","kind":"peak","name":"Bulu Tobaba","lat":-0.1764,"lon":119.9047,"elevationM":null},{"id":"node:1070179938","kind":"peak","name":"Bulu Towera","lat":-0.5802,"lon":119.9959,"elevationM":null},{"id":"node:1070180013","kind":"peak","name":"Bulu Kalimbua","lat":-0.6676,"lon":119.9375,"elevationM":null},{"id":"node:1070180215","kind":"peak","name":"Bulu Sikulinti","lat":-0.6064,"lon":119.8985,"elevationM":null},{"id":"node:1070180287","kind":"peak","name":"Bulu Petebula","lat":-0.6955,"lon":119.9624,"elevationM":null},{"id":"node:1070180555","kind":"peak","name":"Bulu Toayu","lat":-0.7114,"lon":119.9911,"elevationM":null},{"id":"node:1070180606","kind":"peak","name":"Bulu Tiayak","lat":-0.2137,"lon":119.9499,"elevationM":null},{"id":"node:1070181028","kind":"peak","name":"Bulu Taweok","lat":-0.0703,"lon":119.8759,"elevationM":null},{"id":"node:1070181469","kind":"peak","name":"Bulu Tokalationo","lat":-0.3198,"lon":119.8302,"elevationM":null},{"id":"node:1070181545","kind":"peak","name":"Bulu Uwelana","lat":-0.7362,"lon":119.7354,"elevationM":null},{"id":"node:1070181837","kind":"peak","name":"Bulu Marampayang","lat":-0.09,"lon":119.7156,"elevationM":null},{"id":"node:1070182249","kind":"peak","name":"Bulu Tampasusa","lat":-0.0339,"lon":119.641,"elevationM":null},{"id":"node:1070182517","kind":"peak","name":"Bulu Salubasal","lat":-0.0082,"lon":119.6903,"elevationM":null},{"id":"node:1070182754","kind":"peak","name":"Bulu Bungin","lat":-0.0262,"lon":119.7109,"elevationM":null},{"id":"node:1070182793","kind":"peak","name":"Bulu Baku","lat":-0.4306,"lon":119.7636,"elevationM":null},{"id":"node:1070182843","kind":"peak","name":"Bulu Semen","lat":-0.5927,"lon":119.9573,"elevationM":null},{"id":"node:1070182918","kind":"peak","name":"Bulu Pamanu","lat":-0.5357,"lon":119.8605,"elevationM":null},{"id":"node:1070183258","kind":"peak","name":"Bulu Pompa","lat":-0.9197,"lon":119.599,"elevationM":null},{"id":"node:1070183285","kind":"peak","name":"Bulu Bomba","lat":-0.712,"lon":119.9283,"elevationM":null},{"id":"node:1070183546","kind":"peak","name":"Bulu Panjulete","lat":-0.2763,"lon":119.9704,"elevationM":null},{"id":"node:1070183948","kind":"peak","name":"Bulu Kata","lat":-0.4764,"lon":119.8571,"elevationM":null},{"id":"node:1070184230","kind":"peak","name":"Bulu Salubai","lat":-0.1954,"lon":119.9174,"elevationM":null},{"id":"node:1070184600","kind":"peak","name":"Bulu Sinaha","lat":-0.4614,"lon":119.9405,"elevationM":null},{"id":"node:1070185146","kind":"peak","name":"Bulu Sipagoa","lat":-0.3136,"lon":119.9191,"elevationM":null},{"id":"node:1070185893","kind":"peak","name":"Bulu Watuponganga","lat":-0.3919,"lon":119.7831,"elevationM":null},{"id":"node:1070186130","kind":"peak","name":"Bulu Siwintono","lat":-0.3437,"lon":119.8631,"elevationM":null},{"id":"node:1070186195","kind":"peak","name":"Bulu Batupipi","lat":-0.0788,"lon":119.7287,"elevationM":null},{"id":"node:1070186358","kind":"peak","name":"Bulu Ranuwau","lat":-0.851,"lon":119.9918,"elevationM":null},{"id":"node:1070186664","kind":"peak","name":"Bulu Loli","lat":-0.8213,"lon":119.7553,"elevationM":null},{"id":"node:1070186689","kind":"peak","name":"Bulu Lapor","lat":-0.1715,"lon":119.9228,"elevationM":null},{"id":"node:1070186766","kind":"peak","name":"Bulu Siput","lat":-0.3506,"lon":119.9614,"elevationM":null},{"id":"node:1070187106","kind":"peak","name":"Bulu Kadia","lat":-0.6151,"lon":119.8193,"elevationM":null},{"id":"node:1070187193","kind":"peak","name":"Bulu Ronti","lat":-0.2244,"lon":119.899,"elevationM":null},{"id":"node:1070187368","kind":"peak","name":"Bulu Siponjuit","lat":-0.2108,"lon":119.9646,"elevationM":null},{"id":"node:1070187880","kind":"peak","name":"Bulu Sibeling","lat":-0.4065,"lon":119.9685,"elevationM":null},{"id":"node:1070188008","kind":"peak","name":"Bulu Palembena","lat":-0.3693,"lon":119.9373,"elevationM":null},{"id":"node:1070188107","kind":"peak","name":"Bulu Bonjo","lat":-0.1086,"lon":119.7151,"elevationM":null},{"id":"node:1070188242","kind":"peak","name":"Bulu Salaya","lat":-0.0215,"lon":119.9248,"elevationM":null},{"id":"node:1070188256","kind":"peak","name":"Bulu Sadakanjai","lat":-0.8972,"lon":119.6827,"elevationM":null},{"id":"node:1070188340","kind":"peak","name":"Bulu Sibarera","lat":-0.0549,"lon":119.6385,"elevationM":null},{"id":"node:1070188403","kind":"peak","name":"Bulu Lantoah","lat":-0.7392,"lon":119.9629,"elevationM":null},{"id":"node:1070188732","kind":"peak","name":"Bulu Tuampana","lat":-0.5848,"lon":119.8577,"elevationM":null},{"id":"node:1070188833","kind":"peak","name":"Bulu Tompea","lat":-0.5483,"lon":119.8021,"elevationM":null},{"id":"node:1070189422","kind":"peak","name":"Bulu Ongontopopo","lat":-0.9235,"lon":119.6216,"elevationM":null},{"id":"node:1070189892","kind":"peak","name":"Bulu Tokombakomba","lat":-0.4095,"lon":119.8666,"elevationM":null},{"id":"node:1070190420","kind":"peak","name":"Bulu Palaing","lat":-0.0192,"lon":119.6988,"elevationM":null},{"id":"node:1070191230","kind":"peak","name":"Bulu Rue","lat":-0.5474,"lon":119.8751,"elevationM":null},{"id":"node:1070191273","kind":"peak","name":"Bulu Tobenenjea","lat":-0.4332,"lon":119.8839,"elevationM":null},{"id":"node:1070191337","kind":"peak","name":"Bulu Palombo","lat":-0.8485,"lon":119.9478,"elevationM":null},{"id":"node:1070191621","kind":"peak","name":"Bulu Welente","lat":-0.2827,"lon":119.8493,"elevationM":null},{"id":"node:1070191722","kind":"peak","name":"Bulu Towuli","lat":-0.5196,"lon":119.8491,"elevationM":null},{"id":"node:1070192494","kind":"peak","name":"Bulu Tanamalei","lat":-0.4144,"lon":119.8422,"elevationM":null},{"id":"node:1070192694","kind":"peak","name":"Bulu Banbete","lat":-0.8409,"lon":119.9682,"elevationM":null},{"id":"node:1070193474","kind":"peak","name":"Bulu Lanta","lat":-0.6953,"lon":119.746,"elevationM":null},{"id":"node:1070193650","kind":"peak","name":"Bulu Tosimbere","lat":-0.579,"lon":119.8932,"elevationM":null},{"id":"node:1070193984","kind":"peak","name":"Bulu Membala","lat":-0.0349,"lon":119.6617,"elevationM":null},{"id":"node:1070194059","kind":"peak","name":"Bulu Tigapuluh","lat":-0.4133,"lon":119.8188,"elevationM":null},{"id":"node:1070194148","kind":"peak","name":"Bulu Togia","lat":-0.6133,"lon":119.8326,"elevationM":null},{"id":"node:1070194391","kind":"peak","name":"Bulu Torenda","lat":-0.9919,"lon":119.5385,"elevationM":null},{"id":"node:1070194402","kind":"peak","name":"Bulu Setiou","lat":-0.2344,"lon":119.8549,"elevationM":null},{"id":"node:1070194476","kind":"peak","name":"Bulu Sipuringgi","lat":-0.1629,"lon":119.8539,"elevationM":null},{"id":"node:1070196490","kind":"peak","name":"Bulu Silebe","lat":-0.4382,"lon":119.8335,"elevationM":null}]}