{"tileKey":"la_m24_lo_p28","version":"v1-1775891056926","entries":[{"id":"node:4412211583","kind":"peak","name":"Blouberg","lat":-23.0741882,"lon":28.9855769,"elevationM":2035},{"id":"node:6251177542","kind":"peak","name":"Kgopung","lat":-23.8158,"lon":28.5842,"elevationM":1438},{"id":"node:6253204369","kind":"peak","name":"Lokwe","lat":-23.8125,"lon":28.9942,"elevationM":1518},{"id":"node:6253204371","kind":"peak","name":"Marapse","lat":-23.8983,"lon":28.7767,"elevationM":1236},{"id":"node:6253204379","kind":"peak","name":"Mmamatlakala","lat":-23.9892,"lon":28.5817,"elevationM":1281},{"id":"node:6255303735","kind":"peak","name":"Morothotse","lat":-23.73,"lon":28.585,"elevationM":1222}]}