{"tileKey":"la_m23_lo_p147","version":"v1-1775891056926","entries":[{"id":"node:2374872549","kind":"peak","name":"Mount Mclaren","lat":-22.3569821,"lon":147.7883445,"elevationM":466},{"id":"node:2374884146","kind":"peak","name":"Mount Milson","lat":-22.6258603,"lon":147.6711575,"elevationM":375},{"id":"node:2374884149","kind":"peak","name":"Wolfang Peak","lat":-22.54865,"lon":147.8344074,"elevationM":null},{"id":"node:2374884152","kind":"peak","name":"Mount McDonald","lat":-22.5271033,"lon":147.8487547,"elevationM":null},{"id":"node:2374889896","kind":"peak","name":"Mount Pollux","lat":-22.4742537,"lon":147.8752778,"elevationM":null},{"id":"node:2374889897","kind":"peak","name":"Mount Commissioner","lat":-22.4827616,"lon":147.8838922,"elevationM":null},{"id":"node:2374889898","kind":"peak","name":"Mount Castor","lat":-22.4645161,"lon":147.8799311,"elevationM":null},{"id":"node:2374889899","kind":"peak","name":"Mount Saddleback","lat":-22.4920125,"lon":147.9086789,"elevationM":null},{"id":"node:2374891938","kind":"peak","name":"Red Hiding Hood","lat":-22.4866758,"lon":147.9635973,"elevationM":null},{"id":"node:2374891941","kind":"peak","name":"Rock Knob","lat":-22.6164004,"lon":147.8983003,"elevationM":null},{"id":"node:2374893283","kind":"peak","name":"One Tree Hill","lat":-22.6236801,"lon":147.8832809,"elevationM":null},{"id":"node:2376922818","kind":"peak","name":"Red Mountain","lat":-22.8717515,"lon":147.2432371,"elevationM":null},{"id":"node:2733198613","kind":"peak","name":"Mount Violet","lat":-22.198716,"lon":147.650524,"elevationM":null},{"id":"node:2844383168","kind":"peak","name":"Black Mountain","lat":-22.4538889,"lon":147.6605556,"elevationM":null},{"id":"node:2844383169","kind":"peak","name":"Bluchers Knob","lat":-22.35,"lon":147.7,"elevationM":null},{"id":"node:2844383173","kind":"peak","name":"Mount Eliott","lat":-22.6833333,"lon":147.6,"elevationM":null},{"id":"node:2844383174","kind":"peak","name":"Mount Falkner","lat":-22.3716667,"lon":147.5669444,"elevationM":null},{"id":"node:2844383175","kind":"peak","name":"Mount Greenmantle","lat":-22.4755556,"lon":147.5180556,"elevationM":null},{"id":"node:2844383180","kind":"peak","name":"Mount Rolfe","lat":-22.1561111,"lon":147.1013889,"elevationM":null},{"id":"node:2844383183","kind":"peak","name":"Mount Wilkin","lat":-22.2463889,"lon":147.4622222,"elevationM":null},{"id":"node:2844386360","kind":"peak","name":"Mount Hammond","lat":-22.9925,"lon":147.58,"elevationM":null},{"id":"node:2844386364","kind":"peak","name":"Mount Livingstone","lat":-22.985,"lon":147.5691667,"elevationM":null},{"id":"node:2844386369","kind":"peak","name":"Mount Oscar","lat":-22.7494444,"lon":147.8358333,"elevationM":null},{"id":"node:2844386374","kind":"peak","name":"Mount Wallaby","lat":-22.9833333,"lon":147.5666667,"elevationM":null}]}