{"tileKey":"la_m28_lo_p18","version":"v1-1775891056926","entries":[{"id":"node:4224107240","kind":"peak","name":"Schroffenstein","lat":-27.1804897,"lon":18.7288647,"elevationM":2202},{"id":"node:6251171874","kind":"peak","name":"Damelack","lat":-27.4090622,"lon":18.4788041,"elevationM":1829},{"id":"node:6251171875","kind":"peak","name":"Witberg","lat":-27.4767216,"lon":18.4590998,"elevationM":1805},{"id":"node:6251171878","kind":"peak","name":"Gräberberg","lat":-27.329225,"lon":18.7648584,"elevationM":1944},{"id":"node:6253199206","kind":"peak","name":"Dom","lat":-27.6444651,"lon":18.2163455,"elevationM":1582},{"id":"node:6253199208","kind":"peak","name":"Mickberg","lat":-27.5536264,"lon":18.5280746,"elevationM":1734},{"id":"node:6253199209","kind":"peak","name":"Riegel","lat":-27.5436342,"lon":18.5527994,"elevationM":1763},{"id":"node:6253202268","kind":"peak","name":"Rooiberg","lat":-27.4809582,"lon":18.4050052,"elevationM":1721},{"id":"node:6253202277","kind":"peak","name":"Falscher Freund","lat":-27.4931374,"lon":18.5447459,"elevationM":1825},{"id":"node:6253202278","kind":"peak","name":"Glockenberg","lat":-27.3381408,"lon":18.5387626,"elevationM":1733},{"id":"node:6253202282","kind":"peak","name":"Krantzberg","lat":-27.1658,"lon":18.93,"elevationM":1878},{"id":"node:11841390212","kind":"peak","name":"Bondels","lat":-27.9131151,"lon":18.6783378,"elevationM":1039},{"id":"node:12271841076","kind":"peak","name":"Karashöhe","lat":-27.1970572,"lon":18.0910218,"elevationM":1510},{"id":"node:12271841077","kind":"peak","name":"Schettler","lat":-27.0972182,"lon":18.1182148,"elevationM":1477},{"id":"node:12271841078","kind":"peak","name":"Einaug","lat":-27.2911092,"lon":18.0156572,"elevationM":1528},{"id":"node:12271841083","kind":"peak","name":"Toring","lat":-27.9302286,"lon":18.1550222,"elevationM":999},{"id":"node:12271841089","kind":"peak","name":"Grenzberg","lat":-27.880399,"lon":18.5783013,"elevationM":1046},{"id":"node:12271841090","kind":"peak","name":"Pfingstberg","lat":-27.8226956,"lon":18.6732387,"elevationM":1091},{"id":"node:12271841091","kind":"peak","name":"Quarzriff","lat":-27.716061,"lon":18.407819,"elevationM":1027},{"id":"node:12271841094","kind":"peak","name":"Gründorn","lat":-27.5424293,"lon":18.2683123,"elevationM":1458},{"id":"node:12271841095","kind":"peak","name":"Neusberg","lat":-27.5053994,"lon":18.4497257,"elevationM":1584},{"id":"node:12271841096","kind":"peak","name":"Koedoekoppies","lat":-27.4951108,"lon":18.3554871,"elevationM":1324},{"id":"node:12271841097","kind":"peak","name":"Kamberg","lat":-27.3953511,"lon":18.3733861,"elevationM":1465},{"id":"node:12271841098","kind":"peak","name":"Hochland","lat":-27.1354262,"lon":18.3588861,"elevationM":1205},{"id":"node:12271863301","kind":"peak","name":"Schwarzkuppen","lat":-27.3098178,"lon":18.2663542,"elevationM":1114},{"id":"node:12271863306","kind":"peak","name":"Tafelkoppe","lat":-27.1092583,"lon":18.2613846,"elevationM":1336},{"id":"node:12296158920","kind":"peak","name":"Wittmund","lat":-27.3052227,"lon":18.6740022,"elevationM":1860},{"id":"node:12296158921","kind":"peak","name":"Hohenfels","lat":-27.1356828,"lon":18.9544045,"elevationM":1812},{"id":"node:12296158922","kind":"peak","name":"Adkus","lat":-27.1993173,"lon":18.9261469,"elevationM":1853},{"id":"node:12296158926","kind":"peak","name":"Narudas","lat":-27.3393734,"lon":18.8793897,"elevationM":1670},{"id":"node:12301941121","kind":"peak","name":"Gaiserecke","lat":-27.6981,"lon":18.5893435,"elevationM":1235},{"id":"node:12301941124","kind":"peak","name":"Steinbruch","lat":-27.7546024,"lon":18.7270778,"elevationM":1177},{"id":"node:12301941125","kind":"peak","name":"Sonnenwende","lat":-27.5536933,"lon":18.908344,"elevationM":1304},{"id":"node:12301941126","kind":"peak","name":"Tafelkop","lat":-27.5844694,"lon":18.812261,"elevationM":1244},{"id":"node:12301941127","kind":"peak","name":"Duurdrift","lat":-27.7290477,"lon":18.9921129,"elevationM":1197},{"id":"node:12301941130","kind":"peak","name":"Nanzes","lat":-27.8051978,"lon":18.8259084,"elevationM":1107},{"id":"node:12301941131","kind":"peak","name":"Am Weg","lat":-27.9320999,"lon":18.8560878,"elevationM":1074},{"id":"node:12301941132","kind":"peak","name":"Obub","lat":-27.8821091,"lon":18.7858107,"elevationM":1069},{"id":"node:12301941133","kind":"peak","name":"Amas","lat":-27.86484,"lon":18.9341794,"elevationM":1005}]}