{"tileKey":"la_m20_lo_p148","version":"v1-1775891056926","entries":[{"id":"node:2444098235","kind":"peak","name":"Mount Nutt","lat":-19.9830811,"lon":148.2289973,"elevationM":null},{"id":"node:2456839662","kind":"peak","name":"Mount Little","lat":-19.9733504,"lon":148.1176687,"elevationM":97},{"id":"node:2844932843","kind":"peak","name":"Mount Luce","lat":-19.8977778,"lon":148.0358333,"elevationM":null},{"id":"node:2844932846","kind":"peak","name":"Sprole Castle","lat":-19.9922222,"lon":148.1061111,"elevationM":null},{"id":"node:6191069544","kind":"peak","name":"Mother Beddock","lat":-19.9883963,"lon":148.2630105,"elevationM":82},{"id":"node:6191069545","kind":"peak","name":"Edgecumbe Heights","lat":-19.9841887,"lon":148.2621906,"elevationM":81}]}