{"tileKey":"la_m28_lo_m70","version":"v1-1775891056926","entries":[{"id":"node:96186827","kind":"peak","name":"Cerro Vidal Gormaz","lat":-27.7952581,"lon":-69.0958197,"elevationM":5470},{"id":"node:1272302259","kind":"peak","name":"Cerro Bonete","lat":-27.6386864,"lon":-69.0308877,"elevationM":4943},{"id":"node:1272302286","kind":"peak","name":"Quebrada Seca Norte","lat":-27.8668539,"lon":-69.129078,"elevationM":5050},{"id":"node:1272426508","kind":"volcano","name":"Volcán Copiapó","lat":-27.306089,"lon":-69.131237,"elevationM":6052},{"id":"node:1272455523","kind":"peak","name":"Cerro Pastillitos","lat":-27.1472172,"lon":-69.1909084,"elevationM":5073},{"id":"node:1272455535","kind":"peak","name":"San Román","lat":-27.2482232,"lon":-69.1500036,"elevationM":null},{"id":"node:1272463827","kind":"peak","name":"Siete Hermanas","lat":-27.0280995,"lon":-69.2035791,"elevationM":4870},{"id":"node:1272463878","kind":"peak","name":"Pastillos","lat":-27.1589168,"lon":-69.06522,"elevationM":4885},{"id":"node:3424323537","kind":"peak","name":"Cerro Santa Rosa","lat":-27.1074503,"lon":-69.2594598,"elevationM":4910},{"id":"node:4556413543","kind":"peak","name":"Cerro Dulcinea","lat":-27.1596485,"lon":-69.9591711,"elevationM":2332},{"id":"node:13542072795","kind":"peak","name":"Quebrada Seca","lat":-27.9265114,"lon":-69.147008,"elevationM":5055}]}