{"tileKey":"la_m36_lo_p137","version":"v1-1775891056926","entries":[{"id":"node:2588204207","kind":"peak","name":"Prospect Hill","lat":-35.842988,"lon":137.7451086,"elevationM":65},{"id":"node:3008901797","kind":"peak","name":"Black Hill","lat":-35.15059,"lon":137.04718,"elevationM":45},{"id":"node:3008902081","kind":"peak","name":"Coonarie Hill","lat":-35.11188,"lon":137.16428,"elevationM":96},{"id":"node:3008902245","kind":"peak","name":"Foul Hill","lat":-35.23401,"lon":137.17391,"elevationM":52},{"id":"node:3008902275","kind":"peak","name":"Green Hill","lat":-35.09277,"lon":137.45308,"elevationM":26},{"id":"node:3008902667","kind":"peak","name":"Mount Marsden","lat":-35.57896,"lon":137.5814,"elevationM":185},{"id":"node:3008902671","kind":"peak","name":"Mount McDonnell","lat":-35.62206,"lon":137.30061,"elevationM":null},{"id":"node:3008902710","kind":"peak","name":"Mount Pleasant","lat":-35.01504,"lon":137.121,"elevationM":89},{"id":"node:3008902842","kind":"peak","name":"Mount Stockdale","lat":-35.94277,"lon":137.06834,"elevationM":null},{"id":"node:3008902847","kind":"peak","name":"Mount Taylor","lat":-35.92908,"lon":137.05268,"elevationM":null},{"id":"node:3008903050","kind":"peak","name":"Phillips Hill","lat":-35.22834,"lon":137.15518,"elevationM":58},{"id":"node:3008903647","kind":"peak","name":"Troubridge Hill","lat":-35.16607,"lon":137.64047,"elevationM":31}]}