{"tileKey":"la_m33_lo_p115","version":"v1-1775891056926","entries":[{"id":"node:52170808","kind":"peak","name":"Mount Henry","lat":-32.0319806,"lon":115.8611093,"elevationM":null},{"id":"node:276582035","kind":"peak","name":"Wadjemup Hill","lat":-32.0073613,"lon":115.5044206,"elevationM":45},{"id":"node:276582056","kind":"peak","name":"Lookout Hill","lat":-32.0104877,"lon":115.5378744,"elevationM":27},{"id":"node:276584862","kind":"peak","name":"White Hill","lat":-32.012296,"lon":115.4867439,"elevationM":37},{"id":"node:361248972","kind":"peak","name":"Clontarf Hill","lat":-32.0763636,"lon":115.7650992,"elevationM":33},{"id":"node:620395263","kind":"peak","name":"Cantonment Hill","lat":-32.0436899,"lon":115.7552597,"elevationM":null},{"id":"node:1390830819","kind":"peak","name":"Mount Brown","lat":-32.1807685,"lon":115.7857136,"elevationM":null},{"id":"node:2663319768","kind":"peak","name":"Banksia Hill","lat":-32.0235851,"lon":115.9183294,"elevationM":null},{"id":"node:3020140183","kind":"peak","name":"Dog Hill","lat":-32.31196,"lon":115.85299,"elevationM":null},{"id":"node:3020140483","kind":"peak","name":"Gobbelmup Hill","lat":-32.56773,"lon":115.99695,"elevationM":278},{"id":"node:3020141181","kind":"peak","name":"Mount John","lat":-32.75189,"lon":115.67729,"elevationM":null},{"id":"node:3020141195","kind":"peak","name":"Mount Klein","lat":-32.21451,"lon":115.67477,"elevationM":null},{"id":"node:3020141221","kind":"peak","name":"Mount Lotus","lat":-32.16087,"lon":115.66175,"elevationM":null},{"id":"node:3020141387","kind":"peak","name":"Mount Moke","lat":-32.19221,"lon":115.67479,"elevationM":55},{"id":"node:3020141701","kind":"peak","name":"Mount Stewart","lat":-32.23032,"lon":115.68344,"elevationM":null},{"id":"node:3020141896","kind":"peak","name":"Mundup Hill","lat":-32.52735,"lon":115.9904,"elevationM":null},{"id":"node:3020142166","kind":"peak","name":"South Hill","lat":-32.22386,"lon":115.68274,"elevationM":null},{"id":"node:3020142182","kind":"peak","name":"Stake Hill","lat":-32.38722,"lon":115.78003,"elevationM":48},{"id":"node:3020142510","kind":"peak","name":"White Hill","lat":-32.68642,"lon":115.61447,"elevationM":47},{"id":"node:3544814913","kind":"peak","name":"Peelhurst Hill","lat":-32.4323104,"lon":115.7673956,"elevationM":null},{"id":"node:4828182746","kind":"peak","name":"Tamworth hill","lat":-32.3192486,"lon":115.8029615,"elevationM":76},{"id":"node:4838183386","kind":"peak","name":"Oliver Hill","lat":-32.0069535,"lon":115.5170567,"elevationM":36},{"id":"node:9012992845","kind":"peak","name":"One Post Hill (PA)","lat":-32.0204508,"lon":115.4621829,"elevationM":null},{"id":"node:9012992846","kind":"peak","name":"Conical Hill (PA)","lat":-32.0187543,"lon":115.4598118,"elevationM":null},{"id":"node:9012992847","kind":"peak","name":"Radar Hill (PA)","lat":-32.0238279,"lon":115.4528998,"elevationM":null},{"id":"node:9012992850","kind":"peak","name":"Forbes Hill (PA)","lat":-32.0023323,"lon":115.5198601,"elevationM":null},{"id":"node:9013005789","kind":"peak","name":"Tree Hill","lat":-32.0188171,"lon":115.5290296,"elevationM":19},{"id":"node:9014449118","kind":"peak","name":"Forbes Hill","lat":-32.0018685,"lon":115.5217802,"elevationM":null},{"id":"node:10146586465","kind":"peak","name":"Stark Pinnacle","lat":-32.0083208,"lon":115.4858036,"elevationM":null},{"id":"node:11524124974","kind":"peak","name":"Monkey Hill","lat":-32.0950567,"lon":115.768188,"elevationM":null}]}