{"tileKey":"la_m20_lo_m69","version":"v1-1775891056926","entries":[{"id":"node:96304983","kind":"peak","name":"Cerro de Irruputuncu","lat":-19.890018,"lon":-68.5423091,"elevationM":4228},{"id":"node:96305110","kind":"peak","name":"Cerro Patalani","lat":-19.8455193,"lon":-68.5281982,"elevationM":4410},{"id":"node:96305579","kind":"peak","name":"Cerro Irpa","lat":-19.7893266,"lon":-68.6204817,"elevationM":5240},{"id":"node:96306220","kind":"volcano","name":"Volcán Sillajhuay","lat":-19.752439,"lon":-68.6969626,"elevationM":5982},{"id":"node:339266847","kind":"peak","name":"Cerro Irpa Pueblo","lat":-19.8280047,"lon":-68.5993592,"elevationM":4291},{"id":"node:339266939","kind":"volcano","name":"Volcán Cariquima","lat":-19.5433916,"lon":-68.6699331,"elevationM":5390},{"id":"node:339577599","kind":"peak","name":"Cerro Tapa","lat":-19.5671101,"lon":-68.9956105,"elevationM":4900},{"id":"node:339581247","kind":"peak","name":"Cerro Gordo","lat":-19.9879101,"lon":-68.8493543,"elevationM":4384},{"id":"node:353187363","kind":"volcano","name":"Cerro Cabaraya","lat":-19.1464832,"lon":-68.6978237,"elevationM":5869},{"id":"node:353187491","kind":"peak","name":"Cerro Curumaya","lat":-19.0051929,"lon":-68.8324342,"elevationM":5211},{"id":"node:452865682","kind":"peak","name":"Cerro Lacataya","lat":-19.4309099,"lon":-68.4125559,"elevationM":3791},{"id":"node:452865684","kind":"peak","name":"Alto de Panantalla","lat":-19.5962668,"lon":-68.5568843,"elevationM":4327},{"id":"node:493041581","kind":"peak","name":"Cerro Puchuldiza","lat":-19.352725,"lon":-68.966986,"elevationM":null},{"id":"node:493041584","kind":"peak","name":"Cerro Guayna Potosi","lat":-19.6142446,"lon":-68.9762557,"elevationM":4750},{"id":"node:493064849","kind":"peak","name":"Cerro Lirima","lat":-19.7582551,"lon":-68.8624442,"elevationM":5572},{"id":"node:493064870","kind":"peak","name":"Cerro Aroma","lat":-19.7356358,"lon":-68.8404715,"elevationM":5520},{"id":"node:621766612","kind":"volcano","name":"Cerro Villa Pucarani","lat":-19.3247935,"lon":-68.3142001,"elevationM":4910},{"id":"node:660855097","kind":"peak","name":"Cerro Hunumia","lat":-19.9667162,"lon":-68.4293956,"elevationM":4588},{"id":"node:660855101","kind":"peak","name":"Cerro Chinchilhuma","lat":-19.9768341,"lon":-68.3775597,"elevationM":5110},{"id":"node:660855106","kind":"peak","name":"Cerro Vilajake","lat":-19.8591113,"lon":-68.4284614,"elevationM":4350},{"id":"node:1316574681","kind":"peak","name":"Cerrito Toldo","lat":-19.2510683,"lon":-68.6284273,"elevationM":3788},{"id":"node:1495367459","kind":"peak","name":"Cerro Porquesa","lat":-19.9620792,"lon":-68.7367105,"elevationM":5190},{"id":"node:1495367476","kind":"peak","name":"Cerro Paza","lat":-19.9795744,"lon":-68.6970942,"elevationM":5122},{"id":"node:1607487295","kind":"peak","name":"Cerro Chacotiya","lat":-19.7677286,"lon":-68.1853651,"elevationM":4572},{"id":"node:1607487298","kind":"peak","name":"Cerro Sapajo","lat":-19.9471587,"lon":-68.3112934,"elevationM":null},{"id":"node:1607487304","kind":"peak","name":"Cerro Pucara","lat":-19.6222957,"lon":-68.0321153,"elevationM":null},{"id":"node:1607487308","kind":"volcano","name":"Cerro Titivini","lat":-19.7179028,"lon":-68.1882859,"elevationM":null},{"id":"node:1607520165","kind":"volcano","name":"Cerro Pitalaca","lat":-19.8318069,"lon":-68.201519,"elevationM":null},{"id":"node:2356665117","kind":"volcano","name":"Volcán Isluga","lat":-19.1552201,"lon":-68.8281102,"elevationM":5530},{"id":"node:2507680453","kind":"peak","name":"Cerro Pacocollo","lat":-19.395934,"lon":-68.5670777,"elevationM":null},{"id":"node:2507680454","kind":"peak","name":"Cerro Panalla","lat":-19.633851,"lon":-68.709281,"elevationM":null},{"id":"node:2507680455","kind":"peak","name":"Cerro Picavilque","lat":-19.7476743,"lon":-68.7657146,"elevationM":null},{"id":"node:2507680456","kind":"peak","name":"Cerro Pichune","lat":-19.4002624,"lon":-68.6713525,"elevationM":null},{"id":"node:2507680458","kind":"peak","name":"Loma Coniri","lat":-19.3589327,"lon":-68.6363132,"elevationM":null},{"id":"node:2507680459","kind":"peak","name":"Sierra de Chilani","lat":-19.4475645,"lon":-68.669638,"elevationM":null},{"id":"node:2507706849","kind":"peak","name":"Cerro Anillos","lat":-19.289598,"lon":-68.805802,"elevationM":null},{"id":"node:2507706850","kind":"peak","name":"Cerro Chapiyicsa","lat":-19.1877453,"lon":-68.7130481,"elevationM":null},{"id":"node:2507706851","kind":"peak","name":"Cerro Cosupuyo","lat":-19.280386,"lon":-68.764997,"elevationM":null},{"id":"node:2507706852","kind":"peak","name":"Cerro Fraile","lat":-19.153188,"lon":-68.892604,"elevationM":null},{"id":"node:2507706853","kind":"peak","name":"Cerro Mitijane","lat":-19.27862,"lon":-68.831883,"elevationM":null},{"id":"node:2507706854","kind":"peak","name":"Cerro Paran","lat":-19.240742,"lon":-68.749903,"elevationM":null},{"id":"node:2507706855","kind":"peak","name":"Cerro Sicaya","lat":-19.2116548,"lon":-68.6933353,"elevationM":4336},{"id":"node:2556038589","kind":"peak","name":"Cerro Armasaya","lat":-19.6409872,"lon":-68.5987307,"elevationM":4632},{"id":"node:3148829427","kind":"peak","name":"Cerro Polontupsa","lat":-19.8891798,"lon":-68.3893763,"elevationM":null},{"id":"node:3188817622","kind":"peak","name":"Cerro Banza","lat":-19.9045643,"lon":-68.3957221,"elevationM":null},{"id":"node:3188817623","kind":"peak","name":"Cerro Caracarani","lat":-19.849384,"lon":-68.4294564,"elevationM":null},{"id":"node:3188817624","kind":"peak","name":"Cerro Chillincani","lat":-19.9164963,"lon":-68.3962811,"elevationM":4350},{"id":"node:3188817625","kind":"peak","name":"Cerro Chillincani","lat":-19.9349237,"lon":-68.4100679,"elevationM":null},{"id":"node:3188817626","kind":"peak","name":"Cerro Cosluca","lat":-19.906395,"lon":-68.3556621,"elevationM":null},{"id":"node:3188817627","kind":"peak","name":"Cerro Escola","lat":-19.9021464,"lon":-68.4596403,"elevationM":null},{"id":"node:3188817628","kind":"peak","name":"Cerro Manuel Khillimani","lat":-19.8580688,"lon":-68.3931394,"elevationM":null},{"id":"node:3188817629","kind":"peak","name":"Cerro Pacoloma","lat":-19.9108246,"lon":-68.4402686,"elevationM":null},{"id":"node:3188817630","kind":"peak","name":"Cerro Pampatancani","lat":-19.9002498,"lon":-68.4361044,"elevationM":null},{"id":"node:3188817631","kind":"peak","name":"Cerro Pinta Pintani","lat":-19.8944701,"lon":-68.4262868,"elevationM":null},{"id":"node:3188817632","kind":"peak","name":"Cerro Salle Cuchu","lat":-19.8871708,"lon":-68.3613342,"elevationM":null},{"id":"node:3188817633","kind":"peak","name":"Cerro Tancani","lat":-19.8697048,"lon":-68.3578415,"elevationM":null},{"id":"node:3188817634","kind":"peak","name":"Cerro Tancani","lat":-19.8834981,"lon":-68.4206681,"elevationM":null},{"id":"node:3188817635","kind":"peak","name":"Cerro Titihuana","lat":-19.8383958,"lon":-68.3729836,"elevationM":null},{"id":"node:3188817636","kind":"peak","name":"Cerro Tulco","lat":-19.9118824,"lon":-68.380854,"elevationM":null},{"id":"node:3188817637","kind":"peak","name":"Cerro Tunca Pujio","lat":-19.8665459,"lon":-68.382225,"elevationM":null},{"id":"node:3188817638","kind":"peak","name":"Cerro Wilasaca","lat":-19.8474578,"lon":-68.4175225,"elevationM":null},{"id":"node:3188817639","kind":"peak","name":"Cerro Yosa","lat":-19.8710064,"lon":-68.3796397,"elevationM":null},{"id":"node:3188817640","kind":"peak","name":"CerroTrincherani","lat":-19.8792724,"lon":-68.4017283,"elevationM":null},{"id":"node:3365763841","kind":"peak","name":"Cerro Quimsachata","lat":-19.1154812,"lon":-68.8105819,"elevationM":5516},{"id":"node:3365786654","kind":"volcano","name":"Paryani","lat":-19.1262338,"lon":-68.4199748,"elevationM":5090},{"id":"node:3365827941","kind":"peak","name":"Cerro Culebra","lat":-19.0705672,"lon":-68.7016091,"elevationM":5192},{"id":"node:3429580563","kind":"peak","name":"Cerrito del Salitral","lat":-19.4161865,"lon":-68.4048135,"elevationM":3707},{"id":"node:3429581634","kind":"peak","name":"Cerrito Tapacollo","lat":-19.3678403,"lon":-68.4514523,"elevationM":3697},{"id":"node:4067631526","kind":"peak","name":"Cerro Cumi","lat":-19.0847441,"lon":-68.7660027,"elevationM":5530},{"id":"node:4067631528","kind":"peak","name":"Cerro Separaya","lat":-19.131914,"lon":-68.6123548,"elevationM":5570},{"id":"node:5008578972","kind":"peak","name":"Cerrito de Chiarcollo","lat":-19.7362693,"lon":-68.4676981,"elevationM":3880},{"id":"node:5008578973","kind":"peak","name":"Cerro Pinta Pintani","lat":-19.6809395,"lon":-68.4727945,"elevationM":4190},{"id":"node:5008578974","kind":"peak","name":"Cerro Pumire","lat":-19.618173,"lon":-68.4829761,"elevationM":4431},{"id":"node:5008827652","kind":"peak","name":"Quimsachatas","lat":-19.7466301,"lon":-68.8086391,"elevationM":5780},{"id":"node:5008827674","kind":"peak","name":"Cerro Marancel","lat":-19.7362085,"lon":-68.7452318,"elevationM":5403},{"id":"node:5008827676","kind":"peak","name":"Cerro Oke Vinto","lat":-19.7497078,"lon":-68.5117552,"elevationM":3980},{"id":"node:5008827678","kind":"peak","name":"Cerro Santiago","lat":-19.808054,"lon":-68.6207773,"elevationM":4613},{"id":"node:5008827679","kind":"peak","name":"Cerro Patalani","lat":-19.9162253,"lon":-68.8887407,"elevationM":4812},{"id":"node:5008827680","kind":"peak","name":"Cerro Verde","lat":-19.9433372,"lon":-68.8952638,"elevationM":4544},{"id":"node:5008827681","kind":"peak","name":"Cerro Lupe Grande","lat":-19.9152771,"lon":-68.7532355,"elevationM":4728},{"id":"node:5008827684","kind":"peak","name":"Cerro Upila","lat":-19.986255,"lon":-68.5160639,"elevationM":4355},{"id":"node:5501293490","kind":"peak","name":"Tata Sabaya","lat":-19.1356711,"lon":-68.5235948,"elevationM":5430},{"id":"node:11733374910","kind":"peak","name":"Cerro Pichacani","lat":-19.0958215,"lon":-68.7705946,"elevationM":null},{"id":"node:11733374913","kind":"peak","name":"Cerro San Antonio","lat":-19.1422694,"lon":-68.6761594,"elevationM":null},{"id":"node:11733374914","kind":"peak","name":"Cerro Pumatanga","lat":-19.1439063,"lon":-68.6503512,"elevationM":5518},{"id":"node:12645154312","kind":"peak","name":"Cerro Liminda Khuchu","lat":-19.4634239,"lon":-68.4306898,"elevationM":4242},{"id":"node:12645154313","kind":"peak","name":"Cosapa Loma","lat":-19.4838813,"lon":-68.4012686,"elevationM":3747},{"id":"node:12645154314","kind":"peak","name":"Cerro Chacra Punta","lat":-19.4556283,"lon":-68.4369099,"elevationM":null},{"id":"node:12645173521","kind":"peak","name":"Lujcay Churo Loma","lat":-19.4270406,"lon":-68.3282292,"elevationM":3710},{"id":"node:12645173522","kind":"peak","name":"Tiyun Churo Loma","lat":-19.4260006,"lon":-68.2893133,"elevationM":null},{"id":"node:12645173523","kind":"peak","name":"Jaririnca Churo Loma","lat":-19.4033433,"lon":-68.3424323,"elevationM":null},{"id":"node:12645956437","kind":"peak","name":"Cerro Jiskha Toro Kollu","lat":-19.3821759,"lon":-68.3496359,"elevationM":null},{"id":"node:12645956438","kind":"peak","name":"Cerro Jachcha Toro Kollu","lat":-19.3715146,"lon":-68.349093,"elevationM":3978},{"id":"node:12645956439","kind":"peak","name":"Cerro Villa Kollu","lat":-19.3628351,"lon":-68.340222,"elevationM":null},{"id":"node:12646012314","kind":"peak","name":"Cerro Chuchulaya","lat":-19.056932,"lon":-68.5957305,"elevationM":null},{"id":"node:12646012315","kind":"peak","name":"Cerro Llunca Pucara","lat":-19.0303334,"lon":-68.619608,"elevationM":null},{"id":"node:12646012316","kind":"peak","name":"Cerro Ingenio","lat":-19.0195239,"lon":-68.6237885,"elevationM":null},{"id":"node:12646012317","kind":"peak","name":"Cerro Llaminaya","lat":-19.0039537,"lon":-68.6040662,"elevationM":null},{"id":"node:12646012318","kind":"peak","name":"Cerro Churi Kollu","lat":-19.0294661,"lon":-68.5804768,"elevationM":null},{"id":"node:12646012319","kind":"peak","name":"Cerro Wila Pucara","lat":-19.0747976,"lon":-68.5295595,"elevationM":null},{"id":"node:12646012320","kind":"peak","name":"Cerro Khuchu Huano","lat":-19.0810984,"lon":-68.5183583,"elevationM":null},{"id":"node:12646012321","kind":"peak","name":"Cerro Pucara","lat":-19.0880216,"lon":-68.5098847,"elevationM":null},{"id":"node:12646012322","kind":"peak","name":"Cerro Salli Vinto","lat":-19.0953479,"lon":-68.5105373,"elevationM":null},{"id":"node:12646012323","kind":"peak","name":"Cerro Sankaviri","lat":-19.1013878,"lon":-68.5044952,"elevationM":null},{"id":"node:12646012324","kind":"peak","name":"Cerro Chulimani","lat":-19.0150069,"lon":-68.7268733,"elevationM":null},{"id":"node:12646012325","kind":"peak","name":"Cerro Tankhana","lat":-19.0275733,"lon":-68.7267331,"elevationM":null},{"id":"node:12646012326","kind":"peak","name":"Cerro Chaqueri","lat":-19.0193502,"lon":-68.7450942,"elevationM":null},{"id":"node:12646012327","kind":"peak","name":"Cerro Jachchaloma","lat":-19.011117,"lon":-68.7468836,"elevationM":null},{"id":"node:12646559543","kind":"peak","name":"Cerro Mirada","lat":-19.018547,"lon":-68.8357719,"elevationM":null},{"id":"node:12646559544","kind":"peak","name":"Cerro Ahuatiri","lat":-19.0080504,"lon":-68.8928602,"elevationM":null},{"id":"node:12662593296","kind":"peak","name":"Cerro Saupacha","lat":-19.8045024,"lon":-68.1666532,"elevationM":null},{"id":"node:12662593297","kind":"peak","name":"Cerro Culahuasi","lat":-19.794382,"lon":-68.1950147,"elevationM":null},{"id":"node:12662593298","kind":"peak","name":"Cerro Umani","lat":-19.8036954,"lon":-68.209505,"elevationM":4345},{"id":"node:12662593299","kind":"peak","name":"Cerro Hualcani","lat":-19.8196014,"lon":-68.2164049,"elevationM":null},{"id":"node:12662593300","kind":"peak","name":"Cerro Hualchisa","lat":-19.8319052,"lon":-68.2095709,"elevationM":4363},{"id":"node:12662645619","kind":"peak","name":"Cerro Pucara","lat":-19.6260389,"lon":-68.1081998,"elevationM":null},{"id":"node:12662645621","kind":"peak","name":"Cerro Wila Wila Kollu","lat":-19.6681621,"lon":-68.0954247,"elevationM":null},{"id":"node:12662645622","kind":"peak","name":"Cerro Wila Jake","lat":-19.6547365,"lon":-68.0967169,"elevationM":3826},{"id":"node:12662645623","kind":"peak","name":"Cerro Lamijaño","lat":-19.5862968,"lon":-68.0558324,"elevationM":4044},{"id":"node:12662688001","kind":"peak","name":"Cerro Portavinto","lat":-19.8335309,"lon":-68.1692989,"elevationM":4050},{"id":"node:12662688003","kind":"peak","name":"Cerro Llallahuani","lat":-19.6845965,"lon":-68.1530407,"elevationM":4242},{"id":"node:12662688004","kind":"peak","name":"Cerro Pucarani","lat":-19.6743824,"lon":-68.0847119,"elevationM":null},{"id":"node:12662688005","kind":"peak","name":"Cerro Chacani","lat":-19.6818588,"lon":-68.0741936,"elevationM":3969},{"id":"node:12735546843","kind":"peak","name":"Cerro Hiizo","lat":-19.6327357,"lon":-68.3319497,"elevationM":4103},{"id":"node:12747196217","kind":"peak","name":"Chucunta Khasa","lat":-19.9765505,"lon":-68.1887253,"elevationM":3884},{"id":"node:12771543218","kind":"peak","name":"Cerro Tuca","lat":-19.7565529,"lon":-68.2796514,"elevationM":3836}]}