{"tileKey":"la_m3_lo_p29","version":"v1-1775891056926","entries":[{"id":"node:317543085","kind":"peak","name":"1840 m","lat":-2.089317,"lon":29.3492817,"elevationM":null},{"id":"node:1314202560","kind":"peak","name":"Karongi","lat":-2.1479468,"lon":29.3748143,"elevationM":2557},{"id":"node:1396137762","kind":"peak","name":"Umusozi Twinyoni","lat":-2.6771608,"lon":29.3314658,"elevationM":2659},{"id":"node:1396175837","kind":"peak","name":"Rusengesi","lat":-2.1345535,"lon":29.4722724,"elevationM":2351},{"id":"node:1732151995","kind":"peak","name":"Mount Huye","lat":-2.5647212,"lon":29.6843564,"elevationM":2242},{"id":"node:3946856661","kind":"peak","name":"Umusozi Rubona","lat":-2.2822434,"lon":29.6567552,"elevationM":null},{"id":"node:8380720302","kind":"peak","name":"Surya","lat":-2.8107029,"lon":29.025981,"elevationM":1093},{"id":"node:9949792818","kind":"peak","name":"Mt. Kanyarira","lat":-2.1188003,"lon":29.7133075,"elevationM":2029},{"id":"node:9963061034","kind":"peak","name":"Nyove","lat":-2.0413777,"lon":29.5030536,"elevationM":2529},{"id":"node:9963061337","kind":"peak","name":"Gafu","lat":-2.0263804,"lon":29.5133921,"elevationM":2530},{"id":"node:9963061338","kind":"peak","name":"Mushubati","lat":-2.0963111,"lon":29.7087109,"elevationM":2188},{"id":"node:10779445881","kind":"peak","name":"Mount Bigugu","lat":-2.4413456,"lon":29.249503,"elevationM":2954}]}