{"tileKey":"la_m5_lo_m42","version":"v1-1775891056926","entries":[{"id":"node:7330324140","kind":"peak","name":"Serra do Torto","lat":-4.6115879,"lon":-41.486435,"elevationM":null},{"id":"node:7330324141","kind":"peak","name":"Serra da Imburana","lat":-4.7499132,"lon":-41.4184572,"elevationM":null},{"id":"node:7330324142","kind":"peak","name":"Serra das Lajes","lat":-4.7927654,"lon":-41.4247228,"elevationM":null},{"id":"node:7330324143","kind":"peak","name":"Serra da Vargem","lat":-4.7917391,"lon":-41.4430905,"elevationM":null},{"id":"node:7330324144","kind":"peak","name":"Serra do Inferno","lat":-4.8040554,"lon":-41.4503432,"elevationM":null},{"id":"node:7330324145","kind":"peak","name":"Serra da Bomba","lat":-4.8133352,"lon":-41.4318896,"elevationM":null},{"id":"node:7330324146","kind":"peak","name":"Serra do Morcego","lat":-4.8025158,"lon":-41.4804269,"elevationM":null},{"id":"node:7330324147","kind":"peak","name":"Serra da Ladeira","lat":-4.6294682,"lon":-41.4042092,"elevationM":null},{"id":"node:7330324148","kind":"peak","name":"Serra da Esperança","lat":-4.6653131,"lon":-41.4793969,"elevationM":null},{"id":"node:7330324149","kind":"peak","name":"Serra do Retiro","lat":-4.686015,"lon":-41.4595271,"elevationM":null},{"id":"node:7330324150","kind":"peak","name":"Serra do São Gonçalo","lat":-4.6797275,"lon":-41.4344645,"elevationM":null},{"id":"node:7330324151","kind":"peak","name":"Morro do Tabuleiro Redondo","lat":-4.7799357,"lon":-41.2925435,"elevationM":357},{"id":"node:7330324152","kind":"peak","name":"Morro Redondo","lat":-4.5792482,"lon":-41.4020635,"elevationM":null},{"id":"node:7330335804","kind":"peak","name":"Morro da Milhã","lat":-4.7318008,"lon":-41.4849329,"elevationM":null},{"id":"node:7330399516","kind":"peak","name":"Serra Alta","lat":-4.1422802,"lon":-41.0420648,"elevationM":null},{"id":"node:7330399535","kind":"peak","name":"Serra Jurucutu","lat":-4.1092061,"lon":-41.0965736,"elevationM":null},{"id":"node:8214997290","kind":"peak","name":"Morro da Torre","lat":-4.4706301,"lon":-41.399586,"elevationM":640},{"id":"node:8215174400","kind":"peak","name":"Morro do Bico","lat":-4.5496792,"lon":-41.4007291,"elevationM":660},{"id":"node:8220752540","kind":"peak","name":"Serra do São João","lat":-4.5690779,"lon":-41.5741526,"elevationM":470},{"id":"node:8220768555","kind":"peak","name":"Serra do Frade","lat":-4.5501616,"lon":-41.5680645,"elevationM":490},{"id":"node:8220789695","kind":"peak","name":"Serra da Cangalha","lat":-4.5557864,"lon":-41.3798692,"elevationM":565},{"id":"node:8220801949","kind":"peak","name":"Serra da Ingazeira","lat":-4.525302,"lon":-41.5721857,"elevationM":443},{"id":"node:8220802418","kind":"peak","name":"Serra do Angical","lat":-4.6824355,"lon":-41.206107,"elevationM":610},{"id":"node:8220802885","kind":"peak","name":"Serra do Quinto","lat":-4.4226256,"lon":-41.3775457,"elevationM":790},{"id":"node:8220805483","kind":"peak","name":"Serra do Tetéu","lat":-4.6715703,"lon":-41.2672011,"elevationM":410},{"id":"node:8220812525","kind":"peak","name":"Serra da Janela","lat":-4.632485,"lon":-41.2274103,"elevationM":624},{"id":"node:8220835360","kind":"peak","name":"Serra da Lapa","lat":-4.7525251,"lon":-41.2457953,"elevationM":635},{"id":"node:8220843016","kind":"peak","name":"Serra dos Matões (840 m)","lat":-4.3861224,"lon":-41.4256397,"elevationM":840},{"id":"node:8220874109","kind":"peak","name":"Serra do Buriti","lat":-4.3691775,"lon":-41.4608619,"elevationM":690},{"id":"node:8220915749","kind":"peak","name":"Serra dos Gado Bravo","lat":-4.3185445,"lon":-41.4799979,"elevationM":490},{"id":"node:8220921301","kind":"peak","name":"Serra do Gado Velhaco","lat":-4.2735995,"lon":-41.4991669,"elevationM":470},{"id":"node:8220976861","kind":"peak","name":"Serra da Extrema","lat":-4.6232579,"lon":-41.2234559,"elevationM":656},{"id":"node:8221061618","kind":"peak","name":"Serra Azul","lat":-4.5334833,"lon":-41.1424241,"elevationM":655},{"id":"node:8221159702","kind":"peak","name":"Chapada do Boi Morto","lat":-4.3984492,"lon":-41.4611321,"elevationM":null},{"id":"node:8300122018","kind":"peak","name":"Morro do Xique-Xique","lat":-4.0828534,"lon":-41.762724,"elevationM":null},{"id":"node:8439594814","kind":"peak","name":"Morro Picot","lat":-4.2734047,"lon":-41.0073066,"elevationM":null},{"id":"node:10692090539","kind":"peak","name":"Serra Alta","lat":-4.4432244,"lon":-41.3741253,"elevationM":null}]}