{"tileKey":"la_m17_lo_p12","version":"v1-1775891056926","entries":[{"id":"node:9015830764","kind":"peak","name":"Iona","lat":-16.917573,"lon":12.603378,"elevationM":1740},{"id":"node:9018561248","kind":"peak","name":"Otumba","lat":-16.9001128,"lon":12.3216231,"elevationM":630},{"id":"node:9018561249","kind":"peak","name":"Muolofala","lat":-16.904895,"lon":12.3012387,"elevationM":593},{"id":"node:9018562070","kind":"peak","name":"Monte da Ilusão","lat":-16.9735213,"lon":12.250113,"elevationM":676},{"id":"node:9020177757","kind":"peak","name":"Golo","lat":-16.8022092,"lon":12.3473824,"elevationM":563},{"id":"node:9020177758","kind":"peak","name":"Cacolo","lat":-16.8060249,"lon":12.3457929,"elevationM":638},{"id":"node:9020195525","kind":"peak","name":"Serra Cauo Caiongombe","lat":-16.7182483,"lon":12.3892957,"elevationM":588},{"id":"node:9021510631","kind":"peak","name":"Oliobáti","lat":-16.9318874,"lon":12.562713,"elevationM":1060},{"id":"node:9021510632","kind":"peak","name":"Diacuála","lat":-16.9491035,"lon":12.5693023,"elevationM":1060},{"id":"node:9021510633","kind":"peak","name":"Humbi","lat":-16.9500395,"lon":12.546724,"elevationM":1040},{"id":"node:9026547269","kind":"peak","name":"Manaculama","lat":-16.7978855,"lon":12.7103731,"elevationM":1251},{"id":"node:9026547270","kind":"peak","name":"Tundaviquete","lat":-16.8157292,"lon":12.6638802,"elevationM":1290},{"id":"node:9026547284","kind":"peak","name":"Serra Mupaca","lat":-16.842843,"lon":12.6731557,"elevationM":1170},{"id":"node:9028588815","kind":"peak","name":"Tchilambo","lat":-16.7781985,"lon":12.9691496,"elevationM":1586},{"id":"node:9028589107","kind":"peak","name":"Capinde","lat":-16.7585998,"lon":12.9261591,"elevationM":1030},{"id":"node:9028589311","kind":"peak","name":"Cangombe","lat":-16.6049545,"lon":12.9597113,"elevationM":1210},{"id":"node:9031739356","kind":"peak","name":"Serra Comeamalulo","lat":-16.6865721,"lon":12.9275721,"elevationM":879},{"id":"node:9031739358","kind":"peak","name":"Serra Muiongoti","lat":-16.7138031,"lon":12.9241488,"elevationM":1130},{"id":"node:9649691070","kind":"peak","name":"Cambeno","lat":-16.9669531,"lon":12.4727007,"elevationM":1555}]}