{"tileKey":"la_m20_lo_m44","version":"v1-1775891056926","entries":[{"id":"node:1962488318","kind":"peak","name":"Serra da Piedade","lat":-19.8226283,"lon":-43.6766955,"elevationM":1751},{"id":"node:3052378045","kind":"peak","name":"Morro Queimado","lat":-19.9722936,"lon":-43.4469223,"elevationM":null},{"id":"node:3052378046","kind":"peak","name":"Morro da Pedra Vermelha","lat":-19.9975116,"lon":-43.5664278,"elevationM":null},{"id":"node:3225962607","kind":"peak","name":"Morro do Cabrito","lat":-19.9810743,"lon":-43.8149601,"elevationM":null},{"id":"node:3225962608","kind":"peak","name":"Morro do Espigão Santo","lat":-19.9776983,"lon":-43.8160628,"elevationM":null},{"id":"node:3245644663","kind":"peak","name":"Morro do Fogo-apagou","lat":-19.9023988,"lon":-43.8092744,"elevationM":null},{"id":"node:3259161456","kind":"peak","name":"Pico Belo Horizonte","lat":-19.9463657,"lon":-43.8902215,"elevationM":1390},{"id":"node:3883909327","kind":"peak","name":"Pico do Itacolomi","lat":-19.4317844,"lon":-43.3856151,"elevationM":null},{"id":"node:3883909328","kind":"peak","name":"Pico do Itambé","lat":-19.4449661,"lon":-43.4036754,"elevationM":null},{"id":"node:3915536999","kind":"peak","name":"Serra do Seara","lat":-19.8719155,"lon":-43.195371,"elevationM":1325},{"id":"node:3945113752","kind":"peak","name":"Coruja","lat":-19.9123329,"lon":-43.3409832,"elevationM":996},{"id":"node:4398048258","kind":"peak","name":"Pico do Breu","lat":-19.1079044,"lon":-43.6497784,"elevationM":2},{"id":"node:4398052488","kind":"peak","name":"Pico da Lapinha","lat":-19.1027861,"lon":-43.6741588,"elevationM":2},{"id":"node:4743119890","kind":"peak","name":"Morro da Lagoa","lat":-19.6741078,"lon":-43.4699057,"elevationM":null},{"id":"node:8864005015","kind":"peak","name":"Pedra da Tartaruga","lat":-19.9070773,"lon":-43.4892162,"elevationM":1083},{"id":"node:12021748331","kind":"peak","name":"Pico do Grotão","lat":-19.9427263,"lon":-43.879013,"elevationM":1205},{"id":"node:12083677410","kind":"peak","name":"Vulcãozinho","lat":-19.9493312,"lon":-43.8965736,"elevationM":1260},{"id":"node:12998201093","kind":"peak","name":"Pedra Rachada","lat":-19.8405456,"lon":-43.7662132,"elevationM":1341},{"id":"node:13043483397","kind":"peak","name":"Morro do Elefante","lat":-19.997107,"lon":-43.8682827,"elevationM":1185},{"id":"node:13148592880","kind":"peak","name":"Serra do Taquaril","lat":-19.9284035,"lon":-43.8711382,"elevationM":1194},{"id":"node:13148592881","kind":"peak","name":"Serra do Curral","lat":-19.9596448,"lon":-43.9090156,"elevationM":1349},{"id":"node:13151111829","kind":"peak","name":"Serra do Espírito Santo","lat":-19.9497948,"lon":-43.8366627,"elevationM":1027}]}