{"tileKey":"la_m1_lo_p38","version":"v1-1775891056926","entries":[{"id":"node:10744386130","kind":"peak","name":"Muuna rock","lat":-0.3153639,"lon":38.2307408,"elevationM":null},{"id":"node:10815963872","kind":"peak","name":"Kalimani ka Tseikuru","lat":-0.3289937,"lon":38.1922364,"elevationM":670},{"id":"node:10816025245","kind":"peak","name":"Kalimani Rock","lat":-0.3165175,"lon":38.227532,"elevationM":null},{"id":"node:10816030533","kind":"peak","name":"Kalimani ka Tseikuru","lat":-0.336107,"lon":38.1933336,"elevationM":645},{"id":"node:10846509479","kind":"peak","name":"Kangarai","lat":-0.2949857,"lon":38.1606103,"elevationM":610},{"id":"node:10846522402","kind":"peak","name":"Kangarai","lat":-0.2962646,"lon":38.157072,"elevationM":580},{"id":"node:10894475149","kind":"peak","name":"Kora Rock","lat":-0.107076,"lon":38.7590153,"elevationM":390}]}