{"tileKey":"la_m22_lo_p47","version":"v1-1775891056926","entries":[{"id":"node:2461534334","kind":"peak","name":"Tafia","lat":-21.2176172,"lon":47.1456181,"elevationM":null},{"id":"node:2461534347","kind":"peak","name":"Tsitondroina","lat":-21.8557896,"lon":47.1596274,"elevationM":2005},{"id":"node:2461534354","kind":"peak","name":"Vatovavy","lat":-21.4091324,"lon":47.9442283,"elevationM":561},{"id":"node:2461534364","kind":"peak","name":"Vohidratiana","lat":-21.1212024,"lon":47.5275651,"elevationM":null},{"id":"node:2461534386","kind":"peak","name":"Volontsokina","lat":-21.1959037,"lon":47.7692126,"elevationM":null},{"id":"node:5300872741","kind":"peak","name":"Tsiatena","lat":-21.4562,"lon":47.1636,"elevationM":1463},{"id":"node:5300872742","kind":"peak","name":"Ivoneana","lat":-21.461748,"lon":47.0771605,"elevationM":1263},{"id":"node:6837530430","kind":"peak","name":"Manolafaka","lat":-21.4303198,"lon":47.0818019,"elevationM":1292},{"id":"node:6837530431","kind":"peak","name":"Kianjasoa","lat":-21.4470472,"lon":47.0749837,"elevationM":1370},{"id":"node:7139882232","kind":"peak","name":"Andrainjato","lat":-21.4770619,"lon":47.1293789,"elevationM":1295},{"id":"node:7418907047","kind":"peak","name":"Vohitrafeno","lat":-21.6730003,"lon":47.219654,"elevationM":1265},{"id":"node:11607316203","kind":"peak","name":"Lakera","lat":-21.7556525,"lon":47.0203459,"elevationM":1954},{"id":"node:11607316204","kind":"peak","name":"Taimboro","lat":-21.7428383,"lon":47.0662236,"elevationM":1842},{"id":"node:11928177478","kind":"peak","name":"Andrambovato","lat":-21.51797,"lon":47.4258542,"elevationM":1176},{"id":"node:11928177479","kind":"peak","name":"Tsitondroina","lat":-21.4749902,"lon":47.4031037,"elevationM":1241},{"id":"node:11993414600","kind":"peak","name":"Ambondrombe","lat":-21.87724,"lon":47.2648106,"elevationM":1936},{"id":"node:11993414614","kind":"peak","name":"Ikongo","lat":-21.8767724,"lon":47.3725962,"elevationM":1049},{"id":"node:12229821771","kind":"peak","name":"Vatoratsy","lat":-21.5333907,"lon":47.2751979,"elevationM":1465},{"id":"node:12235825467","kind":"peak","name":"Mitongoa","lat":-21.5067808,"lon":47.1671605,"elevationM":1445},{"id":"node:12258286501","kind":"peak","name":"Vinaninoro","lat":-21.3900015,"lon":47.1166438,"elevationM":1290},{"id":"node:12258286502","kind":"peak","name":"Iharanany","lat":-21.5233647,"lon":47.072795,"elevationM":1480},{"id":"node:13064964838","kind":"peak","name":"Vinanitelo","lat":-21.7519067,"lon":47.2758678,"elevationM":1290}]}