{"tileKey":"la_m45_lo_m71","version":"v1-1775891056926","entries":[{"id":"node:4071131235","kind":"peak","name":"Cerro Colorado","lat":-44.8473952,"lon":-70.8683143,"elevationM":1183},{"id":"node:4071131236","kind":"peak","name":"Cerro Guacho","lat":-44.7601155,"lon":-70.9371459,"elevationM":null},{"id":"node:4071131237","kind":"peak","name":"Cerro Lote 15","lat":-44.8696506,"lon":-70.9534678,"elevationM":1237},{"id":"node:4071131238","kind":"peak","name":"Cerro Pedrero","lat":-44.7730956,"lon":-70.8473825,"elevationM":1190},{"id":"node:4071131239","kind":"peak","name":"Cerro Pepita","lat":-44.9408981,"lon":-70.9428005,"elevationM":1098},{"id":"node:4071131240","kind":"peak","name":"Cerro Teta","lat":-44.7919509,"lon":-70.9020948,"elevationM":1370},{"id":"node:4434446875","kind":"peak","name":"Cerro Alto del Crespo","lat":-44.1528683,"lon":-70.5884037,"elevationM":1305},{"id":"node:4434446879","kind":"peak","name":"Cerro Bayo","lat":-44.0467168,"lon":-70.4150243,"elevationM":null},{"id":"node:4434446990","kind":"peak","name":"Cerro Choiqueta","lat":-44.1734197,"lon":-70.2081733,"elevationM":1094},{"id":"node:4434446992","kind":"peak","name":"Cerro Cinco Piches","lat":-44.2741715,"lon":-70.010313,"elevationM":1130},{"id":"node:4434446995","kind":"peak","name":"Cerro Crespo","lat":-44.1841213,"lon":-70.584317,"elevationM":1078},{"id":"node:4434446999","kind":"peak","name":"Cerro El Crespudo","lat":-44.0522854,"lon":-70.1233964,"elevationM":1378},{"id":"node:4434447001","kind":"peak","name":"Cerro Granito","lat":-44.0169114,"lon":-70.3831973,"elevationM":1099},{"id":"node:4434447005","kind":"peak","name":"Cerro La Vertiente","lat":-44.0577075,"lon":-70.5754709,"elevationM":null},{"id":"node:4434447012","kind":"peak","name":"Cerro Monigote","lat":-44.4303344,"lon":-70.1813951,"elevationM":877},{"id":"node:4434447015","kind":"peak","name":"Cerro Negro","lat":-44.3607323,"lon":-70.8353329,"elevationM":1285},{"id":"node:4434447018","kind":"peak","name":"Cerro Parra Grande","lat":-44.4436255,"lon":-70.1411114,"elevationM":998},{"id":"node:4434447024","kind":"peak","name":"Cerro Punta Pedregosa","lat":-44.1083603,"lon":-70.1391907,"elevationM":1395},{"id":"node:4434447035","kind":"peak","name":"Cerro Zalazar","lat":-44.1848334,"lon":-70.2968767,"elevationM":1070},{"id":"node:4434447037","kind":"peak","name":"Cerro de La Cruz","lat":-44.071547,"lon":-70.4274163,"elevationM":1023},{"id":"node:4434447041","kind":"peak","name":"Cerro del Medio","lat":-44.3998972,"lon":-70.0312624,"elevationM":890},{"id":"node:4434447044","kind":"peak","name":"Loma Gonzalo","lat":-44.0738332,"lon":-70.6997144,"elevationM":1066},{"id":"node:4434947262","kind":"peak","name":"Cerro El Lucero","lat":-44.634704,"lon":-70.9476147,"elevationM":1162},{"id":"node:4434947265","kind":"peak","name":"Cerro El Puntudo","lat":-44.5848192,"lon":-70.6937675,"elevationM":1094},{"id":"node:4434947266","kind":"peak","name":"Cerro El Tronador","lat":-44.5986121,"lon":-70.5537629,"elevationM":821},{"id":"node:4434947267","kind":"peak","name":"Cerro Ferraroti","lat":-44.5227368,"lon":-70.0400586,"elevationM":null},{"id":"node:4434947273","kind":"peak","name":"Cerro Puntudo del Bajo","lat":-44.4968945,"lon":-70.2424047,"elevationM":null},{"id":"node:4434947275","kind":"peak","name":"Cerro Shequén","lat":-44.6487104,"lon":-70.1751242,"elevationM":681},{"id":"node:4434947276","kind":"peak","name":"Cerro Solo","lat":-44.5621595,"lon":-70.1920462,"elevationM":621},{"id":"node:4434947280","kind":"peak","name":"Cerro de Los Chenques","lat":-44.8705894,"lon":-70.0711069,"elevationM":723},{"id":"node:12338379667","kind":"peak","name":"Cerro de la Cruz","lat":-44.0585749,"lon":-70.5853592,"elevationM":null}]}