{"tileKey":"la_m23_lo_p46","version":"v1-1775891056926","entries":[{"id":"node:701527603","kind":"peak","name":"Imarivolanitra","lat":-22.194633,"lon":46.885233,"elevationM":2658},{"id":"node:893144622","kind":"peak","name":"Le Caméléon","lat":-22.0945665,"lon":46.7840699,"elevationM":1480},{"id":"node:2149769173","kind":"peak","name":"Pic Handa porta del Sud","lat":-22.0032659,"lon":46.3727943,"elevationM":955},{"id":"node:2454301388","kind":"peak","name":"Marohary","lat":-22.9545624,"lon":46.0204999,"elevationM":null},{"id":"node:2461534291","kind":"peak","name":"Amboahangimena","lat":-22.7536008,"lon":46.3307295,"elevationM":1360},{"id":"node:2461534329","kind":"peak","name":"Raketapanany","lat":-22.3669458,"lon":46.3520698,"elevationM":null},{"id":"node:2461534331","kind":"peak","name":"Salaza","lat":-22.8567233,"lon":46.3756489,"elevationM":null},{"id":"node:2461534337","kind":"peak","name":"Tsaramananga","lat":-22.3724254,"lon":46.724176,"elevationM":null},{"id":"node:2461534356","kind":"peak","name":"Voazezy","lat":-22.9176957,"lon":46.9338486,"elevationM":null},{"id":"node:2461534360","kind":"peak","name":"Vohibory Nord","lat":-22.6017171,"lon":46.7217042,"elevationM":1495},{"id":"node:2483841069","kind":"peak","name":"Andringitra","lat":-22.1567132,"lon":46.8751175,"elevationM":2556},{"id":"node:12216499160","kind":"peak","name":"Pic d'Ivohibe","lat":-22.5083149,"lon":46.9567037,"elevationM":1950}]}