{"tileKey":"la_m15_lo_p33","version":"v1-1775891056926","entries":[{"id":"node:317704504","kind":"peak","name":"Ngala Hill","lat":-14.161338,"lon":33.87739,"elevationM":1560},{"id":"node:3792160962","kind":"peak","name":"Monte Furancungo","lat":-14.9143861,"lon":33.5932784,"elevationM":1430},{"id":"node:5000260303","kind":"peak","name":"Lúngue","lat":-14.1379698,"lon":33.0441821,"elevationM":1396},{"id":"node:5343707921","kind":"peak","name":"Bunda Hill","lat":-14.159339,"lon":33.776864,"elevationM":1410},{"id":"node:5489242127","kind":"peak","name":"Kampambe Hill","lat":-14.1870709,"lon":33.4173599,"elevationM":1543},{"id":"node:5837788708","kind":"peak","name":"Mthawanthu Hill","lat":-14.182765,"lon":33.7751613,"elevationM":null},{"id":"node:7040864542","kind":"peak","name":"Go Anywhere Slab","lat":-14.1601396,"lon":33.8624178,"elevationM":null},{"id":"node:7040864544","kind":"peak","name":"Nathenje Quarry","lat":-14.0839005,"lon":33.8999055,"elevationM":null},{"id":"node:7098306948","kind":"peak","name":"Mkera Rock","lat":-14.1157359,"lon":33.9946603,"elevationM":null},{"id":"node:7922262021","kind":"peak","name":"Little Rock","lat":-14.132624,"lon":33.3023303,"elevationM":1325},{"id":"node:7935490753","kind":"peak","name":"Kulansani Hill","lat":-14.1695914,"lon":33.308682,"elevationM":null},{"id":"node:7935490754","kind":"peak","name":"Thyolosanu Hill","lat":-14.1424682,"lon":33.2966011,"elevationM":null}]}