{"tileKey":"la_m43_lo_p148","version":"v1-1775891056926","entries":[{"id":"node:321392837","kind":"peak","name":"Bear Hil","lat":-42.3064883,"lon":148.2923396,"elevationM":299},{"id":"node:582540585","kind":"peak","name":"Bishop and Clerk","lat":-42.5903744,"lon":148.1144162,"elevationM":599},{"id":"node:1624082653","kind":"peak","name":"Mount Graham","lat":-42.2116602,"lon":148.317544,"elevationM":579},{"id":"node:2286685275","kind":"peak","name":"Mount Freycinet","lat":-42.21659,"lon":148.3037585,"elevationM":620},{"id":"node:2287844868","kind":"peak","name":"Mount Maria","lat":-42.6216008,"lon":148.1061342,"elevationM":711},{"id":"node:3008759541","kind":"peak","name":"Big Hill","lat":-42.70061,"lon":148.05117,"elevationM":null},{"id":"node:3008759570","kind":"peak","name":"Bottom Hill","lat":-42.72733,"lon":148.03144,"elevationM":null},{"id":"node:3008759575","kind":"peak","name":"Bradys Hill","lat":-42.10611,"lon":148.03513,"elevationM":null},{"id":"node:3008760355","kind":"peak","name":"Mount Daedalus","lat":-42.3241961,"lon":148.3029898,"elevationM":400},{"id":"node:3008760363","kind":"peak","name":"Mount Dove","lat":-42.1515437,"lon":148.3079754,"elevationM":485},{"id":"node:3008760429","kind":"peak","name":"Mount Paul","lat":-42.05915,"lon":148.25294,"elevationM":null},{"id":"node:3008760431","kind":"peak","name":"Mount Peter","lat":-42.03107,"lon":148.24749,"elevationM":null},{"id":"node:3008760447","kind":"peak","name":"Mount Stacey","lat":-42.10599,"lon":148.29692,"elevationM":null},{"id":"node:3008760450","kind":"peak","name":"Mount Storey","lat":-42.3221331,"lon":148.2858265,"elevationM":420},{"id":"node:3008760501","kind":"peak","name":"Perpendicular Mountain","lat":-42.65604,"lon":148.14099,"elevationM":null},{"id":"node:3260073449","kind":"peak","name":"Mount Amos","lat":-42.1524755,"lon":148.3000072,"elevationM":454},{"id":"node:3260073450","kind":"peak","name":"Mount Baudin","lat":-42.1493304,"lon":148.3152708,"elevationM":413},{"id":"node:3260073451","kind":"peak","name":"Mount Mayson","lat":-42.1590209,"lon":148.2857178,"elevationM":415},{"id":"node:3260073452","kind":"peak","name":"Mount Parsons","lat":-42.1465951,"lon":148.3204094,"elevationM":331},{"id":"node:6294118166","kind":"peak","name":"Mount Pedder","lat":-42.5984451,"lon":148.1150579,"elevationM":653},{"id":"node:13067905863","kind":"peak","name":"Milligans Hill","lat":-42.3143377,"lon":148.2699019,"elevationM":317}]}