{"tileKey":"la_m17_lo_p127","version":"v1-1775891056926","entries":[{"id":"node:3020150023","kind":"peak","name":"Bald Hill","lat":-16.0055345,"lon":127.0759691,"elevationM":445},{"id":"node:3020150691","kind":"peak","name":"Castlereagh Hill","lat":-16.97698,"lon":127.95567,"elevationM":null},{"id":"node:3020150779","kind":"peak","name":"Gemini Hills","lat":-16.4107,"lon":127.01792,"elevationM":485},{"id":"node:3020151502","kind":"peak","name":"Mount Throssell","lat":-16.24491,"lon":127.72023,"elevationM":null},{"id":"node:3020151507","kind":"peak","name":"Mount Todd","lat":-16.12672,"lon":127.76426,"elevationM":null},{"id":"node:3020151551","kind":"peak","name":"Neal Knob","lat":-16.17885,"lon":127.78842,"elevationM":425}]}