{"tileKey":"la_m1_lo_p29","version":"v1-1775891056926","entries":[{"id":"node:633917762","kind":"peak","name":"Mont Nguaba","lat":-0.9076657,"lon":29.5769223,"elevationM":1878},{"id":"node:746514740","kind":"peak","name":"Karemante","lat":-0.9195387,"lon":29.7567466,"elevationM":null},{"id":"node:746514743","kind":"peak","name":"Kyentare","lat":-0.9080658,"lon":29.7554156,"elevationM":null},{"id":"node:746514745","kind":"peak","name":"Kihanda","lat":-0.8481534,"lon":29.7543062,"elevationM":null},{"id":"node:746514747","kind":"peak","name":"Kirenzi","lat":-0.8488639,"lon":29.7224201,"elevationM":null},{"id":"node:746514748","kind":"peak","name":"Mabale","lat":-0.8658033,"lon":29.8099716,"elevationM":null},{"id":"node:4008738578","kind":"peak","name":"Bushabwanyama","lat":-0.3213111,"lon":29.8772268,"elevationM":null},{"id":"node:5512642031","kind":"peak","name":"Mont Tshiaberimu","lat":-0.1416836,"lon":29.4258962,"elevationM":3095},{"id":"node:6208906084","kind":"peak","name":"Pike's Peak","lat":-0.03474,"lon":29.1925085,"elevationM":15},{"id":"node:8021174973","kind":"peak","name":"Colline Vuleverwa","lat":-0.2784933,"lon":29.1925183,"elevationM":null},{"id":"node:8021174974","kind":"peak","name":"Colline Kyasivangi","lat":-0.2703182,"lon":29.1894836,"elevationM":null},{"id":"node:8021174976","kind":"peak","name":"Colline Kahuka","lat":-0.2704932,"lon":29.1854928,"elevationM":null},{"id":"node:13495882298","kind":"peak","name":"Mont Tshiaberimu","lat":-0.1416836,"lon":29.4258962,"elevationM":3095}]}