{"tileKey":"la_m34_lo_p119","version":"v1-1775891056926","entries":[{"id":"node:3020136867","kind":"peak","name":"Annie Peak","lat":-33.85502,"lon":119.9808,"elevationM":null},{"id":"node:3020136874","kind":"peak","name":"Baanga Hill","lat":-33.15154,"lon":119.84253,"elevationM":376},{"id":"node:3020136896","kind":"peak","name":"Barookee Hill","lat":-33.16853,"lon":119.87641,"elevationM":384},{"id":"node:3020141046","kind":"peak","name":"Mount Drummond","lat":-33.91035,"lon":119.61191,"elevationM":null},{"id":"node:3020141229","kind":"peak","name":"Mount Madden","lat":-33.239,"lon":119.84573,"elevationM":null},{"id":"node:3020141689","kind":"peak","name":"Mount Short","lat":-33.46505,"lon":119.99639,"elevationM":453},{"id":"node:4778124882","kind":"peak","name":"Sepulcralis Hill","lat":-33.898644,"lon":119.9498684,"elevationM":175}]}