{"tileKey":"la_m63_lo_m62","version":"v1-1775891056926","entries":[{"id":"node:8531349712","kind":"peak","name":"Chester Cone","lat":-62.6380184,"lon":-61.0842346,"elevationM":188},{"id":"node:8531354475","kind":"peak","name":"Negro Hill","lat":-62.655295,"lon":-61.0036861,"elevationM":143},{"id":"node:8532253701","kind":"peak","name":"Radko Knoll","lat":-62.6190136,"lon":-61.2924524,"elevationM":102},{"id":"node:8532253702","kind":"peak","name":"Mostich Hill","lat":-62.638759,"lon":-61.2805983,"elevationM":142},{"id":"node:8532253703","kind":"peak","name":"Vineh Peak","lat":-62.6323675,"lon":-61.1958714,"elevationM":186},{"id":"node:8532253704","kind":"peak","name":"Bakshev Ridge","lat":-62.6331214,"lon":-61.2027282,"elevationM":239},{"id":"node:8532253705","kind":"peak","name":"San Stefano Peak","lat":-62.6310336,"lon":-61.2176524,"elevationM":256},{"id":"node:8532253706","kind":"peak","name":"Cherven Peak","lat":-62.6234312,"lon":-61.2227568,"elevationM":224},{"id":"node:9252451767","kind":"peak","name":"Sealer Hill","lat":-62.6696907,"lon":-61.1130811,"elevationM":null},{"id":"node:9252477459","kind":"peak","name":"Wasp Hill","lat":-62.6638185,"lon":-61.1313631,"elevationM":null},{"id":"node:9252478276","kind":"peak","name":"Sàbat Hill","lat":-62.5839363,"lon":-61.1380579,"elevationM":null},{"id":"node:9252480328","kind":"peak","name":"Tsamblak Hill","lat":-62.6398449,"lon":-61.0039044,"elevationM":null},{"id":"node:9252487594","kind":"peak","name":"St. Sofroniy Knoll","lat":-62.7307472,"lon":-61.2189103,"elevationM":null},{"id":"node:9252500466","kind":"peak","name":"Battenberg Hill","lat":-62.5955137,"lon":-61.1411906,"elevationM":null},{"id":"node:9252500487","kind":"peak","name":"Dulo Hill","lat":-62.6021103,"lon":-61.1544515,"elevationM":null},{"id":"node:9252502715","kind":"peak","name":"Penca Hill","lat":-62.6013993,"lon":-61.1212351,"elevationM":null},{"id":"node:9252510662","kind":"peak","name":"Enrique Hill","lat":-62.5986739,"lon":-61.1278439,"elevationM":null},{"id":"node:9252527349","kind":"peak","name":"Drong Hill","lat":-62.5787982,"lon":-61.1732484,"elevationM":null},{"id":"node:9307989324","kind":"peak","name":"Usnea Plug","lat":-62.6420144,"lon":-61.0947133,"elevationM":117}]}