{"tileKey":"la_m29_lo_p144","version":"v1-1775891056926","entries":[{"id":"node:2844272193","kind":"peak","name":"Mount Bindegolly","lat":-28.0247222,"lon":144.1544444,"elevationM":158},{"id":"node:2844272194","kind":"peak","name":"Mount Bingara","lat":-28.2136329,"lon":144.610612,"elevationM":281},{"id":"node:2844274108","kind":"peak","name":"Mount Dewalla","lat":-28.1,"lon":144.6666667,"elevationM":246},{"id":"node:2844274112","kind":"peak","name":"Mount Francis","lat":-28.3166667,"lon":144.6238889,"elevationM":269},{"id":"node:2844274126","kind":"peak","name":"Mount Koldonera","lat":-28.3169444,"lon":144.3627778,"elevationM":210},{"id":"node:2844274150","kind":"peak","name":"Mount Roy","lat":-28.6871064,"lon":144.0996506,"elevationM":210},{"id":"node:2844274158","kind":"peak","name":"Mount Torrance","lat":-28.5147222,"lon":144.5194444,"elevationM":225},{"id":"node:2844274159","kind":"peak","name":"Mount Tunca","lat":-28.2288889,"lon":144.6161111,"elevationM":274},{"id":"node:2844274162","kind":"peak","name":"Mount West","lat":-28.0252778,"lon":144.8266667,"elevationM":247},{"id":"node:3019438102","kind":"peak","name":"Wantha Bluff","lat":-28.23511,"lon":144.44839,"elevationM":215}]}