{"tileKey":"la_m11_lo_m63","version":"v1-1775891056926","entries":[{"id":"node:10215790900","kind":"peak","name":"Pico Maior do Jamari","lat":-10.1045438,"lon":-62.7218137,"elevationM":385},{"id":"node:10215790901","kind":"peak","name":"Pico Menor do Jamari","lat":-10.1292339,"lon":-62.7268798,"elevationM":375},{"id":"node:10215790902","kind":"peak","name":"Pico do Machadinho","lat":-10.0337426,"lon":-62.6440192,"elevationM":378},{"id":"node:10222717762","kind":"peak","name":"Morro Índio Arikemê","lat":-10.0558416,"lon":-62.8889361,"elevationM":335},{"id":"node:11092579603","kind":"peak","name":"Serra Sete de Setembro","lat":-10.7452815,"lon":-62.3990083,"elevationM":null},{"id":"node:11092579604","kind":"peak","name":"Parque Chico Mendes","lat":-10.7333301,"lon":-62.2223358,"elevationM":null},{"id":"node:11544107964","kind":"peak","name":"Pedra Rosa Marques","lat":-10.2565889,"lon":-62.9357499,"elevationM":null},{"id":"node:11599367305","kind":"peak","name":"Monte Dalla Vecchia","lat":-10.4394217,"lon":-62.8734228,"elevationM":null}]}