{"tileKey":"la_m33_lo_m71","version":"v1-1775891056926","entries":[{"id":"node:96188143","kind":"peak","name":"Cerro Riscado","lat":-32.6575195,"lon":-70.1492771,"elevationM":4437},{"id":"node:96190049","kind":"peak","name":"Cerro Don Damasio","lat":-32.6447968,"lon":-70.1521329,"elevationM":4521},{"id":"node:303880300","kind":"peak","name":"Cerro Caracoles","lat":-32.8002976,"lon":-70.1080069,"elevationM":4465},{"id":"node:333853062","kind":"peak","name":"Cerro La Virgen","lat":-32.8382021,"lon":-70.5899279,"elevationM":null},{"id":"node:340310690","kind":"peak","name":"Cerro La Monja","lat":-32.8759798,"lon":-70.6700416,"elevationM":null},{"id":"node:365136321","kind":"peak","name":"Cerro La Ramada","lat":-32.0830869,"lon":-70.0180854,"elevationM":6370},{"id":"node:371370343","kind":"peak","name":"Cerro El Piojo","lat":-32.2679855,"lon":-70.8300464,"elevationM":1595},{"id":"node:373775650","kind":"peak","name":"El Alto de Jahuel","lat":-32.6559392,"lon":-70.6113305,"elevationM":null},{"id":"node:373776903","kind":"peak","name":"Orolonco","lat":-32.6200895,"lon":-70.6224885,"elevationM":2333},{"id":"node:373777019","kind":"peak","name":"Guanaquiadero","lat":-32.7077838,"lon":-70.5914572,"elevationM":null},{"id":"node:373777694","kind":"peak","name":"Punta Guanaco","lat":-32.6239839,"lon":-70.4519875,"elevationM":3742},{"id":"node:373777793","kind":"peak","name":"Morro La Laguna","lat":-32.6539703,"lon":-70.4496964,"elevationM":3780},{"id":"node:373778225","kind":"peak","name":"Cerro El Padre","lat":-32.6199449,"lon":-70.368773,"elevationM":4085},{"id":"node:373778608","kind":"peak","name":"Mocoen","lat":-32.7966198,"lon":-70.4622529,"elevationM":2692},{"id":"node:479664027","kind":"peak","name":"Cerro Chivato","lat":-32.9514712,"lon":-70.6142009,"elevationM":2262},{"id":"node:486801100","kind":"peak","name":"Cerro Mercachas (La Mesa)","lat":-32.8691889,"lon":-70.539367,"elevationM":1632},{"id":"node:486801110","kind":"peak","name":"Cerro Patagual","lat":-32.8627956,"lon":-70.6122478,"elevationM":950},{"id":"node:486801117","kind":"peak","name":"Cerro Pocuro","lat":-32.87755,"lon":-70.6158971,"elevationM":910},{"id":"node:486801150","kind":"peak","name":"Cerro Paidahuen","lat":-32.8199606,"lon":-70.5753406,"elevationM":970},{"id":"node:486833892","kind":"peak","name":"San Francisco de Curimón","lat":-32.7831426,"lon":-70.6813162,"elevationM":767},{"id":"node:486860518","kind":"peak","name":"Punta Barraquer","lat":-32.9391169,"lon":-70.1772805,"elevationM":4210},{"id":"node:486860548","kind":"peak","name":"Aguja Nacimiento","lat":-32.9915416,"lon":-70.0920935,"elevationM":4010},{"id":"node:486860576","kind":"peak","name":"Cerro Celsa","lat":-32.9357313,"lon":-70.1241941,"elevationM":3935},{"id":"node:486860589","kind":"peak","name":"Cerro CAChV","lat":-32.9452395,"lon":-70.1482267,"elevationM":4493},{"id":"node:486860592","kind":"peak","name":"Cerro Rabo de la Mona","lat":-32.9340438,"lon":-70.1555996,"elevationM":4493},{"id":"node:486860601","kind":"peak","name":"Cerro Rafael Saavedra","lat":-32.9266794,"lon":-70.1731949,"elevationM":4410},{"id":"node:486860641","kind":"peak","name":"Cerro Refugio","lat":-32.9143542,"lon":-70.2833556,"elevationM":2117},{"id":"node:486860662","kind":"peak","name":"Cerro Parva del Inca","lat":-32.7614922,"lon":-70.1682468,"elevationM":4831},{"id":"node:486860667","kind":"peak","name":"Punta Perdida","lat":-32.9676375,"lon":-70.1677103,"elevationM":4047},{"id":"node:486860672","kind":"peak","name":"Cerro Yeguas Heladas","lat":-32.9787155,"lon":-70.1427679,"elevationM":4771},{"id":"node:486860713","kind":"peak","name":"Cerro Bastión","lat":-32.7984322,"lon":-70.2153893,"elevationM":4658},{"id":"node:486860757","kind":"peak","name":"Cerro Hornitos","lat":-32.9108447,"lon":-70.0692518,"elevationM":3625},{"id":"node:486860763","kind":"peak","name":"Cerro Alto Mardones","lat":-32.8605918,"lon":-70.0848837,"elevationM":4098},{"id":"node:486860777","kind":"peak","name":"Cerro Cabeza del Inca","lat":-32.8601683,"lon":-70.1096394,"elevationM":4193},{"id":"node:486860782","kind":"peak","name":"Punta Desconocida","lat":-32.8977061,"lon":-70.1765937,"elevationM":4360},{"id":"node:486860855","kind":"peak","name":"Cerro Ojos de Agua","lat":-32.8287002,"lon":-70.1527651,"elevationM":4222},{"id":"node:486860867","kind":"peak","name":"Cerro Mesetas Sur","lat":-32.800777,"lon":-70.1580973,"elevationM":4095},{"id":"node:486860871","kind":"peak","name":"Cerro Mesetas Norte","lat":-32.7877537,"lon":-70.1581831,"elevationM":4048},{"id":"node:486876332","kind":"peak","name":"Alto del Buitre","lat":-32.9929612,"lon":-70.3918884,"elevationM":3719},{"id":"node:486876333","kind":"peak","name":"Cerro Del Diablo","lat":-32.9649731,"lon":-70.3610868,"elevationM":2982},{"id":"node:486876334","kind":"peak","name":"Cerro Los Azules de Vilcuya","lat":-32.9620205,"lon":-70.4325838,"elevationM":3446},{"id":"node:486876335","kind":"peak","name":"Cerro Alto El Mesón","lat":-32.9807423,"lon":-70.4183359,"elevationM":3485},{"id":"node:486876336","kind":"peak","name":"Cerro Tuquito","lat":-32.9908937,"lon":-70.3029795,"elevationM":4128},{"id":"node:487022665","kind":"peak","name":"Cerro Yevide","lat":-32.7401445,"lon":-70.6816128,"elevationM":null},{"id":"node:487022679","kind":"peak","name":"Las Herreras","lat":-32.760032,"lon":-70.6479672,"elevationM":858},{"id":"node:495211459","kind":"peak","name":"Cerro Corral de Piedra","lat":-32.6902982,"lon":-70.4496706,"elevationM":3493},{"id":"node:495211492","kind":"peak","name":"Cerro Llaretal Norte","lat":-32.5645023,"lon":-70.4810202,"elevationM":3428},{"id":"node:495211511","kind":"peak","name":"Cerro Llaretal Sur","lat":-32.5786793,"lon":-70.4810202,"elevationM":3370},{"id":"node:495232283","kind":"peak","name":"Cerro Piedras Negras","lat":-32.7193863,"lon":-70.3694296,"elevationM":3776},{"id":"node:495232286","kind":"peak","name":"Alto de las Minas","lat":-32.7454509,"lon":-70.3717578,"elevationM":3622},{"id":"node:1285103280","kind":"peak","name":"Tabaco","lat":-32.6454365,"lon":-70.8215065,"elevationM":2342},{"id":"node:1370356429","kind":"peak","name":"Cerro Las Bandurrias","lat":-32.8317452,"lon":-70.8968149,"elevationM":null},{"id":"node:1370366099","kind":"peak","name":"Puerta del Alto","lat":-32.6803924,"lon":-70.8368462,"elevationM":null},{"id":"node:1370366100","kind":"peak","name":"Cerro Colunquen","lat":-32.8169036,"lon":-70.7574528,"elevationM":null},{"id":"node:1370366102","kind":"peak","name":"Cerro La Explanada","lat":-32.9143914,"lon":-70.7067269,"elevationM":null},{"id":"node:1370366114","kind":"peak","name":"Cerro La Giganta","lat":-32.7699446,"lon":-70.7672777,"elevationM":1548},{"id":"node:1504741757","kind":"peak","name":"Cerro Aconcagua","lat":-32.6531487,"lon":-70.0119607,"elevationM":6961},{"id":"node:3557225424","kind":"peak","name":"Cerro León Negro","lat":-32.9721514,"lon":-70.0271826,"elevationM":5175},{"id":"node:3662404338","kind":"peak","name":"Cerro Gustavo","lat":-32.9239048,"lon":-70.0048549,"elevationM":4792},{"id":"node:4121803549","kind":"peak","name":"Punta Valeria","lat":-32.9836538,"lon":-70.0386518,"elevationM":4770},{"id":"node:4121803558","kind":"peak","name":"Cerro Mono Blanco","lat":-32.9691415,"lon":-70.0430722,"elevationM":4772},{"id":"node:4121803584","kind":"peak","name":"Cerro Parque Andino","lat":-32.9675573,"lon":-70.0642723,"elevationM":4548},{"id":"node:4121871628","kind":"peak","name":"Cerro Navarro Norte","lat":-32.8574556,"lon":-70.0566795,"elevationM":4640},{"id":"node:4121871638","kind":"peak","name":"Cerro Santa Elena","lat":-32.837735,"lon":-70.0530746,"elevationM":4595},{"id":"node:4121871645","kind":"peak","name":"Cerro Navarro Sur","lat":-32.8653109,"lon":-70.047605,"elevationM":4671},{"id":"node:4121871647","kind":"peak","name":"Cerro de la Iglesia","lat":-32.8010168,"lon":-70.0983084,"elevationM":4230},{"id":"node:4121871664","kind":"peak","name":"Cerro Ulrich Lorber","lat":-32.8471727,"lon":-70.0560733,"elevationM":4596},{"id":"node:4191973634","kind":"peak","name":"Cerro Cabeza del Inca Este","lat":-32.8626823,"lon":-70.0932306,"elevationM":4105},{"id":"node:4192265876","kind":"peak","name":"Cerro Vigía","lat":-32.9464529,"lon":-70.0658249,"elevationM":4205},{"id":"node:4192266153","kind":"peak","name":"Cerro Chorrillo","lat":-32.9132601,"lon":-70.144611,"elevationM":4082},{"id":"node:4192266154","kind":"peak","name":"Cerro Level","lat":-32.9204454,"lon":-70.180102,"elevationM":4432},{"id":"node:4192266157","kind":"peak","name":"Cerro EMA","lat":-32.9136006,"lon":-70.1799304,"elevationM":4328},{"id":"node:4192266181","kind":"peak","name":"Cerro Presenteseracae","lat":-32.8781807,"lon":-70.021017,"elevationM":4952},{"id":"node:4192266251","kind":"peak","name":"Cerro Yeso","lat":-32.9297752,"lon":-70.0216221,"elevationM":4192},{"id":"node:4192266262","kind":"peak","name":"Morro Los Tierrales","lat":-32.8828299,"lon":-70.0874113,"elevationM":3861},{"id":"node:4192266332","kind":"peak","name":"WIM","lat":-32.9196547,"lon":-70.1867968,"elevationM":4352},{"id":"node:4192266336","kind":"peak","name":"Cerro Yeguas Heladas Norte","lat":-32.9718731,"lon":-70.1450831,"elevationM":4712},{"id":"node:4192266337","kind":"peak","name":"Cerro Gemelos","lat":-32.8818587,"lon":-70.0049666,"elevationM":5240},{"id":"node:4192266347","kind":"peak","name":"Cerro Arriero Chico","lat":-32.9547699,"lon":-70.068314,"elevationM":4224},{"id":"node:4192289470","kind":"peak","name":"Cerro Bermejo","lat":-32.8360022,"lon":-70.0787853,"elevationM":3873},{"id":"node:4192289586","kind":"peak","name":"Punta de Cuchillo","lat":-32.9535474,"lon":-70.0392603,"elevationM":4349},{"id":"node:4192289619","kind":"peak","name":"Cerro León Blanco","lat":-32.9623351,"lon":-70.0201882,"elevationM":5186},{"id":"node:4192289700","kind":"peak","name":"Alto del Río Blanco","lat":-32.9539417,"lon":-70.0094073,"elevationM":5228},{"id":"node:4194234330","kind":"peak","name":"Cerro Puntón Amarillo","lat":-32.8964628,"lon":-70.0538779,"elevationM":4159},{"id":"node:4195614819","kind":"peak","name":"Cerro Marisco","lat":-32.9786536,"lon":-70.0491378,"elevationM":4480},{"id":"node:4207942151","kind":"peak","name":"Pico del Cristo Redentor","lat":-32.8235796,"lon":-70.0737695,"elevationM":3900},{"id":"node:4207942153","kind":"peak","name":"Pico de los Caracoles","lat":-32.8179354,"lon":-70.0822163,"elevationM":3955},{"id":"node:4207952992","kind":"peak","name":"Pico El Titán","lat":-32.7868735,"lon":-70.1079281,"elevationM":4254},{"id":"node:4207952996","kind":"peak","name":"Cerro Peñas Amarillas","lat":-32.7675371,"lon":-70.1153899,"elevationM":4252},{"id":"node:4207953003","kind":"peak","name":"Cerro Tres Hermanos Norte","lat":-32.7322746,"lon":-70.1374484,"elevationM":4751},{"id":"node:4207953008","kind":"peak","name":"Cerro Peñascoso","lat":-32.7636577,"lon":-70.1210118,"elevationM":4147},{"id":"node:4207953013","kind":"peak","name":"Cerro Tres Hermanos Central","lat":-32.7450344,"lon":-70.1322985,"elevationM":4595},{"id":"node:4207953049","kind":"peak","name":"Cerro Tres Hermanos Sur","lat":-32.7592224,"lon":-70.1283261,"elevationM":4274},{"id":"node:4207974871","kind":"peak","name":"Cerro Los Toldos","lat":-32.6881144,"lon":-70.1834493,"elevationM":3970},{"id":"node:4207974876","kind":"peak","name":"Cerro Mar","lat":-32.5928163,"lon":-70.1593781,"elevationM":4890},{"id":"node:4207974880","kind":"peak","name":"Cerro Juan Olmos","lat":-32.8185675,"lon":-70.2090054,"elevationM":4340},{"id":"node:4207974886","kind":"peak","name":"Cerro Capucha Blanca","lat":-32.6453741,"lon":-70.1809173,"elevationM":4413},{"id":"node:4207974993","kind":"peak","name":"Cerro Aguja","lat":-32.8048777,"lon":-70.2188588,"elevationM":4607},{"id":"node:4207974997","kind":"peak","name":"Cerro Molina","lat":-32.6648871,"lon":-70.1868825,"elevationM":4263},{"id":"node:4207975001","kind":"peak","name":"Cerro Piloto","lat":-32.5806324,"lon":-70.1493337,"elevationM":5064},{"id":"node:4207975005","kind":"peak","name":"Cerro Gloria","lat":-32.8180247,"lon":-70.2407991,"elevationM":4479},{"id":"node:4207975007","kind":"peak","name":"Loma Amarilla","lat":-32.6884394,"lon":-70.2048212,"elevationM":3805},{"id":"node:4207975008","kind":"peak","name":"Cerro Varela","lat":-32.7772109,"lon":-70.1830333,"elevationM":4093},{"id":"node:4207975009","kind":"peak","name":"Cerro Puntón de Mancilla","lat":-32.6327636,"lon":-70.1746088,"elevationM":4610},{"id":"node:4207975014","kind":"peak","name":"Cerro Gino Pertile","lat":-32.6042051,"lon":-70.1633048,"elevationM":4852},{"id":"node:4207975015","kind":"peak","name":"Cerro Barile","lat":-32.8013805,"lon":-70.2353383,"elevationM":4447},{"id":"node:4207975028","kind":"peak","name":"Cerro Albino","lat":-32.6562142,"lon":-70.1811748,"elevationM":4254},{"id":"node:4207975032","kind":"peak","name":"Cerro Glorieta","lat":-32.8068255,"lon":-70.2375269,"elevationM":4413},{"id":"node:4215375309","kind":"peak","name":"Cerro Parva del Inca Norte","lat":-32.758608,"lon":-70.1705117,"elevationM":4792},{"id":"node:4270237367","kind":"peak","name":"Cerro la Cruz","lat":-32.6957509,"lon":-70.9287341,"elevationM":null},{"id":"node:4532225512","kind":"peak","name":"Cerro Bonete","lat":-32.5044346,"lon":-70.0512269,"elevationM":5281},{"id":"node:4532225513","kind":"peak","name":"Cerro La Mano","lat":-32.5295363,"lon":-70.0037874,"elevationM":5426},{"id":"node:4532225514","kind":"peak","name":"Cerro Cúpula de Gussfeldt","lat":-32.5633248,"lon":-70.0242075,"elevationM":5486},{"id":"node:4532225520","kind":"peak","name":"Cerro Cuerno","lat":-32.6238213,"lon":-70.06244,"elevationM":5462},{"id":"node:4532225521","kind":"peak","name":"Cerro Catedral","lat":-32.6465689,"lon":-70.0837774,"elevationM":5265},{"id":"node:4532225522","kind":"peak","name":"Cerro Pan de Azúcar","lat":-32.6245522,"lon":-70.1157851,"elevationM":5249},{"id":"node:4532225523","kind":"peak","name":"Cerro Manso","lat":-32.6363593,"lon":-70.0350599,"elevationM":5487},{"id":"node:4532225524","kind":"peak","name":"Cerro México","lat":-32.7239328,"lon":-70.0662927,"elevationM":4988},{"id":"node:4532225525","kind":"peak","name":"Sin Nombre","lat":-32.7460476,"lon":-70.0469971,"elevationM":5154},{"id":"node:4532225526","kind":"peak","name":"Cerro Tolosa","lat":-32.7688679,"lon":-70.0329515,"elevationM":5379},{"id":"node:4532259061","kind":"peak","name":"Cerro Bayo del Cobre","lat":-32.0892966,"lon":-70.2630439,"elevationM":4274},{"id":"node:4706129489","kind":"peak","name":"Cerro Bonete","lat":-32.6589547,"lon":-70.0884739,"elevationM":5052},{"id":"node:4706788595","kind":"peak","name":"Cerro El Carmelo","lat":-32.9051014,"lon":-70.693681,"elevationM":1421},{"id":"node:4876189941","kind":"peak","name":"Cerro Guardián del Portillo","lat":-32.72903,"lon":-70.147219,"elevationM":4532},{"id":"node:4879116648","kind":"peak","name":"Alto del Cobre","lat":-32.6739686,"lon":-70.4655286,"elevationM":3632},{"id":"node:4879121806","kind":"peak","name":"Algarrobo","lat":-32.9337463,"lon":-70.6525178,"elevationM":1945},{"id":"node:5018874230","kind":"peak","name":"Cerro Nido de Cóndor","lat":-32.9251298,"lon":-70.3029644,"elevationM":2352},{"id":"node:5466047722","kind":"peak","name":"Cerro Espinazo del Diablo","lat":-32.9586796,"lon":-70.2168417,"elevationM":3964},{"id":"node:6600851002","kind":"peak","name":"Morro El Paico","lat":-32.7237532,"lon":-70.4445815,"elevationM":2330},{"id":"node:6797615850","kind":"peak","name":"Cerro Mirador","lat":-32.0195514,"lon":-70.0762643,"elevationM":4909},{"id":"node:6797615898","kind":"peak","name":"Cerro San Juan","lat":-32.076724,"lon":-70.0715987,"elevationM":5765},{"id":"node:6797615902","kind":"peak","name":"Cerro La Teta","lat":-32.0533241,"lon":-70.1133489,"elevationM":5749},{"id":"node:6797615967","kind":"peak","name":"Cerro Patria","lat":-32.0803503,"lon":-70.1489191,"elevationM":5312},{"id":"node:6797616032","kind":"peak","name":"Cerro del Portezuelo del Norte","lat":-32.5905298,"lon":-70.1092831,"elevationM":5009},{"id":"node:6797616561","kind":"peak","name":"Cerro de la Quebrada Fría","lat":-32.1035095,"lon":-70.3378755,"elevationM":3977},{"id":"node:6797616586","kind":"peak","name":"Punta Consuelo","lat":-32.602456,"lon":-70.0437719,"elevationM":5262},{"id":"node:6797616605","kind":"peak","name":"Cerro Reichert","lat":-32.5475687,"lon":-70.0167737,"elevationM":5251},{"id":"node:6797616661","kind":"peak","name":"Cerro La Mesa","lat":-32.0639452,"lon":-70.1142083,"elevationM":6157},{"id":"node:6797616663","kind":"peak","name":"Cerro Alma Negra","lat":-32.0959967,"lon":-70.078505,"elevationM":6089},{"id":"node:6797616672","kind":"peak","name":"Cerro Cúpula Nevada","lat":-32.5781527,"lon":-70.0257515,"elevationM":5405},{"id":"node:6797616677","kind":"peak","name":"Cerro de los Horcones","lat":-32.6217512,"lon":-70.0903022,"elevationM":5383},{"id":"node:6797616680","kind":"peak","name":"Punta Hartmut","lat":-32.6221233,"lon":-70.0795714,"elevationM":4508},{"id":"node:6797617771","kind":"peak","name":"Cerro Pico Polaco","lat":-32.0289032,"lon":-70.1091292,"elevationM":5923},{"id":"node:6797617786","kind":"peak","name":"Punta Brasil","lat":-32.5772937,"lon":-70.1205741,"elevationM":5100},{"id":"node:6797617789","kind":"peak","name":"Cerro Alma Blanca","lat":-32.5764796,"lon":-70.1261277,"elevationM":5175},{"id":"node:6797618184","kind":"peak","name":"Cerro Austria","lat":-32.0560258,"lon":-70.0916352,"elevationM":5670},{"id":"node:6797618300","kind":"peak","name":"Cordón del Medio","lat":-32.152411,"lon":-70.2164389,"elevationM":4352},{"id":"node:7883387381","kind":"peak","name":"Cerro Mono Negro","lat":-32.9664751,"lon":-70.0420475,"elevationM":4826},{"id":"node:7883387382","kind":"peak","name":"Cerro Santa Elena Noreste","lat":-32.8372561,"lon":-70.0521541,"elevationM":4571},{"id":"node:7883387383","kind":"peak","name":"Cerro Manantiales de Brito","lat":-32.7996846,"lon":-70.2365828,"elevationM":4456},{"id":"node:7883389785","kind":"peak","name":"Alto de la Posada","lat":-32.8917681,"lon":-70.1725102,"elevationM":4260},{"id":"node:7883389787","kind":"peak","name":"Cerro Becker","lat":-32.920268,"lon":-70.1949549,"elevationM":4448},{"id":"node:7883389791","kind":"peak","name":"Cerro Codo Flojo","lat":-32.9728298,"lon":-70.180707,"elevationM":3680},{"id":"node:7883389792","kind":"peak","name":"Cerro Yeguas Heladas Sur","lat":-32.984296,"lon":-70.1408816,"elevationM":4770},{"id":"node:7883389794","kind":"peak","name":"Cerro Cola de Mono","lat":-32.9714707,"lon":-70.0363076,"elevationM":4835},{"id":"node:7883389795","kind":"peak","name":"Cerro Infierno","lat":-32.975386,"lon":-70.0375414,"elevationM":4810},{"id":"node:7883389797","kind":"peak","name":"Cerro Puntudito","lat":-32.832343,"lon":-70.0325203,"elevationM":4157},{"id":"node:7883389800","kind":"peak","name":"Torre Virgen Oeste","lat":-32.8845517,"lon":-70.0012565,"elevationM":5215},{"id":"node:7883389803","kind":"peak","name":"Cerro Tolosa Oeste","lat":-32.7658594,"lon":-70.0415754,"elevationM":5317},{"id":"node:7883389804","kind":"peak","name":"Pico Peñas Coloradas","lat":-32.7853443,"lon":-70.1014209,"elevationM":4211},{"id":"node:7883389805","kind":"peak","name":"Pico Chorrillos","lat":-32.7721203,"lon":-70.1019573,"elevationM":4159},{"id":"node:7883389806","kind":"peak","name":"Cerro Brujita","lat":-32.8110831,"lon":-70.2433527,"elevationM":4379},{"id":"node:7902122833","kind":"peak","name":"Cerro Mirador","lat":-32.6976739,"lon":-70.0030053,"elevationM":5511},{"id":"node:7902122834","kind":"peak","name":"Cerro Piramidal","lat":-32.6819898,"lon":-70.025053,"elevationM":5700},{"id":"node:7902122835","kind":"peak","name":"Cerro Dedos","lat":-32.6899902,"lon":-70.0768948,"elevationM":5026},{"id":"node:7902122836","kind":"peak","name":"Cerro Tres Valles","lat":-32.6875161,"lon":-70.0952625,"elevationM":5006},{"id":"node:7902122837","kind":"peak","name":"Nevado Matienzo","lat":-32.7113694,"lon":-70.0908798,"elevationM":5044},{"id":"node:7902122838","kind":"peak","name":"Cerro Link","lat":-32.5798354,"lon":-70.008359,"elevationM":5100},{"id":"node:7902122839","kind":"peak","name":"Cerro Fitz Gerald","lat":-32.6147523,"lon":-70.0108052,"elevationM":5357},{"id":"node:7902122840","kind":"peak","name":"Punta Walter Schiller","lat":-32.6600977,"lon":-70.0803709,"elevationM":4930},{"id":"node:7902122841","kind":"peak","name":"Cerro Aconcagua Sur","lat":-32.6585622,"lon":-70.0176501,"elevationM":6930},{"id":"node:7902122842","kind":"peak","name":"Cerro del Avión","lat":-32.6322011,"lon":-70.1549578,"elevationM":4530},{"id":"node:7902122843","kind":"peak","name":"Nevado de Leiva","lat":-32.5178499,"lon":-70.1457095,"elevationM":4653},{"id":"node:7902122844","kind":"peak","name":"Cerro Techado","lat":-32.5311477,"lon":-70.1571894,"elevationM":4452},{"id":"node:7902122845","kind":"peak","name":"Cerro Monjas","lat":-32.5365568,"lon":-70.1909209,"elevationM":4506},{"id":"node:7902122846","kind":"peak","name":"Cerro Tordillo","lat":-32.5930698,"lon":-70.2171207,"elevationM":4670},{"id":"node:7902122847","kind":"peak","name":"Cerro Falso Tordillo","lat":-32.5992705,"lon":-70.2403379,"elevationM":4583},{"id":"node:7902122849","kind":"peak","name":"Cerro Potrero Escondido","lat":-32.6366825,"lon":-70.2014566,"elevationM":3955},{"id":"node:7902122850","kind":"peak","name":"Morro Trigo","lat":-32.7144296,"lon":-70.1914787,"elevationM":3427},{"id":"node:7902224224","kind":"peak","name":"Cerro La Torre","lat":-32.7383569,"lon":-70.2867079,"elevationM":2831},{"id":"node:7902224225","kind":"peak","name":"Cerro El Azufre","lat":-32.7131928,"lon":-70.2750778,"elevationM":3344},{"id":"node:7902224228","kind":"peak","name":"Cerro Llaretas","lat":-32.6564666,"lon":-70.2564955,"elevationM":4015},{"id":"node:7902224229","kind":"peak","name":"Cerro Bocón","lat":-32.6244485,"lon":-70.2597142,"elevationM":4071},{"id":"node:7902224230","kind":"peak","name":"Cerro Mancilla","lat":-32.5614631,"lon":-70.2593708,"elevationM":4057},{"id":"node:7902224231","kind":"peak","name":"Cerro La Gringa","lat":-32.5594737,"lon":-70.2746916,"elevationM":3970},{"id":"node:7902224232","kind":"peak","name":"Cerro Molina","lat":-32.5761648,"lon":-70.4223418,"elevationM":3067},{"id":"node:7902224235","kind":"peak","name":"Cerro Cruz del Padre Norte","lat":-32.5564715,"lon":-70.341661,"elevationM":3805},{"id":"node:7902224236","kind":"peak","name":"Cerro Cruz del Padre Centro","lat":-32.568986,"lon":-70.3479052,"elevationM":3807},{"id":"node:7902224237","kind":"peak","name":"Cerro Cruz del Padre Sur","lat":-32.5875918,"lon":-70.3648568,"elevationM":3754},{"id":"node:7906855674","kind":"peak","name":"Morro del Chivato","lat":-32.256327,"lon":-70.8188163,"elevationM":1454},{"id":"node:8692057709","kind":"peak","name":"Cerro Pedro Zanni","lat":-32.7393587,"lon":-70.0904122,"elevationM":4175},{"id":"node:8960691169","kind":"peak","name":"Cerro La Virgen","lat":-32.7302705,"lon":-70.7254958,"elevationM":null},{"id":"node:9244456500","kind":"peak","name":"Morro Quilos","lat":-32.1018807,"lon":-70.7847069,"elevationM":1210},{"id":"node:9937938438","kind":"peak","name":"Cerro Arriero Chico","lat":-32.9450374,"lon":-70.0655527,"elevationM":4250},{"id":"node:11040050946","kind":"peak","name":"Torre de los Columpios del Diablo","lat":-32.5004898,"lon":-70.2446479,"elevationM":4323},{"id":"node:11040090252","kind":"peak","name":"Aguja de los Columpios del Diablo","lat":-32.4913322,"lon":-70.2642388,"elevationM":4330},{"id":"node:12209859609","kind":"peak","name":"Cerro Alto de Huechún","lat":-32.9964659,"lon":-70.8055267,"elevationM":1474},{"id":"node:12236060901","kind":"peak","name":"Portezuelo de Caleu","lat":-32.9763774,"lon":-70.9783856,"elevationM":null},{"id":"node:12777494713","kind":"peak","name":"Muela del Diablo","lat":-32.8957214,"lon":-70.3007986,"elevationM":2465},{"id":"node:12777494715","kind":"peak","name":"Cerro Matancilla","lat":-32.8721854,"lon":-70.3109146,"elevationM":3412},{"id":"node:12777494716","kind":"peak","name":"Cerro Alto de la Puente","lat":-32.896336,"lon":-70.3392884,"elevationM":2434},{"id":"node:12777494719","kind":"peak","name":"Cerro La Bandera","lat":-32.8807219,"lon":-70.3484956,"elevationM":2636},{"id":"node:12777494720","kind":"peak","name":"Cerro Potrero Alto","lat":-32.9797991,"lon":-70.3055872,"elevationM":3827},{"id":"node:13050497891","kind":"peak","name":"Cerro Guanaco","lat":-32.9503521,"lon":-70.6595903,"elevationM":1802},{"id":"node:13140255201","kind":"peak","name":"Navarro Norte","lat":-32.8562988,"lon":-70.056859,"elevationM":null},{"id":"node:13254982824","kind":"peak","name":"Cerro El Pelado","lat":-32.9443118,"lon":-70.4108728,"elevationM":3361}]}