{"tileKey":"la_m20_lo_p128","version":"v1-1775891056926","entries":[{"id":"node:3020052903","kind":"peak","name":"Killi Killi Hills","lat":-19.7673,"lon":128.98094,"elevationM":null},{"id":"node:3020054463","kind":"peak","name":"Watts Rise","lat":-19.71972,"lon":128.88527,"elevationM":null},{"id":"node:3020150024","kind":"peak","name":"Bald Hill","lat":-19.59022,"lon":128.8621,"elevationM":null},{"id":"node:3020151060","kind":"peak","name":"Mount Brophy","lat":-19.22997,"lon":128.8248,"elevationM":null},{"id":"node:3020151348","kind":"peak","name":"Mount Junction","lat":-19.23012,"lon":128.95551,"elevationM":null},{"id":"node:3020151365","kind":"peak","name":"Mount Lane","lat":-19.17693,"lon":128.84685,"elevationM":null},{"id":"node:3020151387","kind":"peak","name":"Mount Mansbridge","lat":-19.076071,"lon":128.5405273,"elevationM":482},{"id":"node:3020151492","kind":"peak","name":"Mount Stubbins","lat":-19.22799,"lon":128.91765,"elevationM":647},{"id":"node:3020151524","kind":"peak","name":"Mount Weekes","lat":-19.12636,"lon":128.29817,"elevationM":388},{"id":"node:3020151622","kind":"peak","name":"Pyramid Hill","lat":-19.28054,"lon":128.3654,"elevationM":null},{"id":"node:3020152023","kind":"peak","name":"Tent Hill","lat":-19.49193,"lon":128.76068,"elevationM":null},{"id":"node:11635045710","kind":"peak","name":"Local H.P. (687)","lat":-19.1902641,"lon":128.8338881,"elevationM":687}]}