{"tileKey":"la_m29_lo_p123","version":"v1-1775891056926","entries":[{"id":"node:3020140133","kind":"peak","name":"Crane Point","lat":-28.33284,"lon":123.19445,"elevationM":548},{"id":"node:3020140138","kind":"peak","name":"Crow Cave Hill","lat":-28.70734,"lon":123.7449,"elevationM":478},{"id":"node:3020140177","kind":"peak","name":"Dingo Point","lat":-28.53099,"lon":123.10421,"elevationM":null},{"id":"node:3020140201","kind":"peak","name":"Dungey Table Hill","lat":-28.18493,"lon":123.83977,"elevationM":466},{"id":"node:3020140569","kind":"peak","name":"Isolated Hills","lat":-28.75108,"lon":123.76001,"elevationM":451},{"id":"node:3020140570","kind":"peak","name":"Isolated Hills","lat":-28.75352,"lon":123.75668,"elevationM":444},{"id":"node:3020140585","kind":"peak","name":"Joe Hill","lat":-28.25964,"lon":123.91987,"elevationM":453},{"id":"node:3020140692","kind":"peak","name":"Mallee Hen Point","lat":-28.15632,"lon":123.98801,"elevationM":null},{"id":"node:3020140713","kind":"peak","name":"Mason Hill","lat":-28.09059,"lon":123.14519,"elevationM":541},{"id":"node:3020140714","kind":"peak","name":"Mason Knob","lat":-28.08976,"lon":123.16202,"elevationM":532},{"id":"node:3020140761","kind":"peak","name":"Mohr Hill","lat":-28.30042,"lon":123.36045,"elevationM":496},{"id":"node:3020140845","kind":"peak","name":"Mount Black","lat":-28.12215,"lon":123.19074,"elevationM":511},{"id":"node:3020140872","kind":"peak","name":"Mount Carlon","lat":-28.71738,"lon":123.72568,"elevationM":489},{"id":"node:3020141043","kind":"peak","name":"Mount Douglas","lat":-28.65728,"lon":123.80148,"elevationM":478},{"id":"node:3020141087","kind":"peak","name":"Mount Fleming","lat":-28.36931,"lon":123.79107,"elevationM":487},{"id":"node:3020141121","kind":"peak","name":"Mount Grant","lat":-28.12234,"lon":123.4622,"elevationM":452},{"id":"node:3020141147","kind":"peak","name":"Mount Hickox","lat":-28.74165,"lon":123.59626,"elevationM":485},{"id":"node:3020141222","kind":"peak","name":"Mount Luck","lat":-28.84337,"lon":123.50137,"elevationM":476},{"id":"node:3020141677","kind":"peak","name":"Mount Scott","lat":-28.04219,"lon":123.38597,"elevationM":502},{"id":"node:3020141680","kind":"peak","name":"Mount Sefton","lat":-28.4121,"lon":123.23699,"elevationM":528},{"id":"node:3020141730","kind":"peak","name":"Mount Venn","lat":-28.08204,"lon":123.50964,"elevationM":500},{"id":"node:3020142012","kind":"peak","name":"Point Banks","lat":-28.52497,"lon":123.12828,"elevationM":530},{"id":"node:3020142013","kind":"peak","name":"Point Bott","lat":-28.83346,"lon":123.49855,"elevationM":472},{"id":"node:3020142014","kind":"peak","name":"Point Charlie","lat":-28.22725,"lon":123.22279,"elevationM":531},{"id":"node:3020142015","kind":"peak","name":"Point Freeman","lat":-28.37582,"lon":123.27816,"elevationM":503},{"id":"node:3020142023","kind":"peak","name":"Point Salvation","lat":-28.20891,"lon":123.6568,"elevationM":null},{"id":"node:3020142044","kind":"peak","name":"Punjadda Hill","lat":-28.27005,"lon":123.30933,"elevationM":516},{"id":"node:3020142091","kind":"peak","name":"Red Hill","lat":-28.30881,"lon":123.189,"elevationM":549},{"id":"node:3020142102","kind":"peak","name":"Reef Hill","lat":-28.67063,"lon":123.75152,"elevationM":470},{"id":"node:3020142154","kind":"peak","name":"Signal Point","lat":-28.72585,"lon":123.71864,"elevationM":465},{"id":"node:3020142181","kind":"peak","name":"Squeakers Hill","lat":-28.56189,"lon":123.15834,"elevationM":null},{"id":"node:3020142224","kind":"peak","name":"Talbot Hill","lat":-28.54375,"lon":123.0704,"elevationM":505},{"id":"node:3020142272","kind":"peak","name":"Tobin Hill","lat":-28.18042,"lon":123.74902,"elevationM":481},{"id":"node:3020142284","kind":"peak","name":"Toppin Hill","lat":-28.70256,"lon":123.94179,"elevationM":445},{"id":"node:3020142528","kind":"peak","name":"Wild Night Hill","lat":-28.35419,"lon":123.60564,"elevationM":482}]}