{"tileKey":"la_m20_lo_p46","version":"v1-1775891056926","entries":[{"id":"node:2461534294","kind":"peak","name":"Ambohipoloalina","lat":-19.3920927,"lon":46.8960907,"elevationM":null},{"id":"node:2461869860","kind":"peak","name":"Vodivohitra","lat":-19.0641983,"lon":46.9923986,"elevationM":null},{"id":"node:2462576798","kind":"peak","name":"Imanga","lat":-19.3174878,"lon":46.9569925,"elevationM":null},{"id":"node:2464360196","kind":"peak","name":"Bongòlava","lat":-19.9297724,"lon":46.0715271,"elevationM":null},{"id":"node:2465710564","kind":"peak","name":"Massif des Vavavato","lat":-19.5765813,"lon":46.8406806,"elevationM":2254},{"id":"node:3294254168","kind":"peak","name":"Mont du Père","lat":-19.2287496,"lon":46.167908,"elevationM":860},{"id":"node:12178308713","kind":"peak","name":"1345","lat":-19.7804546,"lon":46.6318345,"elevationM":null},{"id":"node:12509372983","kind":"peak","name":"Ambohiniazy","lat":-19.0875762,"lon":46.7917049,"elevationM":null}]}