{"tileKey":"la_m23_lo_p138","version":"v1-1775891056926","entries":[{"id":"node:2844263533","kind":"peak","name":"Blue Mountain","lat":-22.5,"lon":138.6658333,"elevationM":211},{"id":"node:2844263956","kind":"peak","name":"Oodatra Point","lat":-22.8861111,"lon":138.245,"elevationM":249},{"id":"node:2844263967","kind":"peak","name":"Poodyea Point","lat":-22.8686111,"lon":138.2130556,"elevationM":256},{"id":"node:3020052932","kind":"peak","name":"Linda Hill","lat":-22.62039,"lon":138.11373,"elevationM":203},{"id":"node:3020052974","kind":"peak","name":"McCabe Knob","lat":-22.31296,"lon":138.94583,"elevationM":null},{"id":"node:3020053002","kind":"peak","name":"Minnaritchie Hill","lat":-22.79499,"lon":138.32151,"elevationM":null},{"id":"node:3020053949","kind":"peak","name":"Neeyamba Hill","lat":-22.95141,"lon":138.3063,"elevationM":209}]}