{"tileKey":"la_m23_lo_p15","version":"v1-1775891056926","entries":[{"id":"node:697405239","kind":"peak","name":"Bloedkoppie","lat":-22.8438924,"lon":15.3817203,"elevationM":857},{"id":"node:3914828535","kind":"peak","name":"Sargdeckel","lat":-22.0213032,"lon":15.9321211,"elevationM":1706},{"id":"node:4937055598","kind":"peak","name":"Sentry Hill","lat":-22.8188327,"lon":15.4247213,"elevationM":788},{"id":"node:6169087177","kind":"peak","name":"Jungfrau","lat":-22.0330172,"lon":15.9614246,"elevationM":1741},{"id":"node:9135515567","kind":"peak","name":"Mount Abbabis","lat":-22.1767631,"lon":15.7016968,"elevationM":1989},{"id":"node:10304377889","kind":"peak","name":"Barbarossa","lat":-22.7351334,"lon":15.7606938,"elevationM":1648},{"id":"node:10304377890","kind":"peak","name":"Lion's Head","lat":-22.7184015,"lon":15.7294453,"elevationM":null},{"id":"node:12165780530","kind":"peak","name":"Geisebberge","lat":-22.4972713,"lon":15.2281446,"elevationM":1057},{"id":"node:12168278221","kind":"peak","name":"Schwarzer Rücken","lat":-22.065285,"lon":15.1556213,"elevationM":1124},{"id":"node:12168278222","kind":"peak","name":"Ebonyberg","lat":-22.099281,"lon":15.2567063,"elevationM":1105},{"id":"node:12168278223","kind":"peak","name":"Khanberge","lat":-22.2610278,"lon":15.3479118,"elevationM":1111},{"id":"node:12168278224","kind":"peak","name":"Arandisberg","lat":-22.4043047,"lon":15.0081162,"elevationM":730},{"id":"node:12168278225","kind":"peak","name":"Trekkopje","lat":-22.2332141,"lon":15.0876634,"elevationM":878},{"id":"node:12168278226","kind":"peak","name":"Chuosberge","lat":-22.3291273,"lon":15.4591399,"elevationM":1642},{"id":"node:12168278229","kind":"peak","name":"Sphinxkoppe","lat":-22.3960092,"lon":15.4734736,"elevationM":1285},{"id":"node:12168278230","kind":"peak","name":"Sebraberg","lat":-22.4389058,"lon":15.428155,"elevationM":1279},{"id":"node:12168278231","kind":"peak","name":"Pforteberg","lat":-22.5795847,"lon":15.2257628,"elevationM":809},{"id":"node:12168278232","kind":"peak","name":"Konjora","lat":-22.5929602,"lon":15.3828898,"elevationM":888},{"id":"node:12168278233","kind":"peak","name":"Husabberg","lat":-22.6805611,"lon":15.1108692,"elevationM":857},{"id":"node:12168278234","kind":"peak","name":"Witpoortberge","lat":-22.7980041,"lon":15.1055213,"elevationM":533},{"id":"node:12168278235","kind":"peak","name":"Langer Heinrichberge","lat":-22.7864433,"lon":15.3321255,"elevationM":1152},{"id":"node:12168278236","kind":"peak","name":"Tinkas","lat":-22.8640593,"lon":15.4008289,"elevationM":869},{"id":"node:12168278237","kind":"peak","name":"Schieferberge","lat":-22.8584106,"lon":15.3136047,"elevationM":883},{"id":"node:12168278238","kind":"peak","name":"Witkopberg","lat":-22.0432707,"lon":15.7268908,"elevationM":1451},{"id":"node:12168278239","kind":"peak","name":"Nubeb","lat":-22.0390831,"lon":15.62169,"elevationM":1618},{"id":"node:12168278240","kind":"peak","name":"Gamisberg","lat":-22.0166065,"lon":15.7736338,"elevationM":1385},{"id":"node:12168278241","kind":"peak","name":"Marmorberg","lat":-22.1024517,"lon":15.8038203,"elevationM":1556},{"id":"node:12168278242","kind":"peak","name":"Habibberg","lat":-22.0578122,"lon":15.7950388,"elevationM":1642},{"id":"node:12168278243","kind":"peak","name":"Ababobosep","lat":-22.0633006,"lon":15.7083918,"elevationM":1624},{"id":"node:12168278244","kind":"peak","name":"Gamgamichabberg","lat":-22.094885,"lon":15.6266727,"elevationM":1720},{"id":"node:12168278245","kind":"peak","name":"Kuduberg","lat":-22.2052858,"lon":15.9047585,"elevationM":1574},{"id":"node:12168278246","kind":"peak","name":"Taghubberg","lat":-22.2376554,"lon":15.6197876,"elevationM":1608},{"id":"node:12168278247","kind":"peak","name":"Kubasberg","lat":-22.2686032,"lon":15.648672,"elevationM":1191},{"id":"node:12168278248","kind":"peak","name":"Kobosberg","lat":-22.2672368,"lon":15.7509625,"elevationM":1175},{"id":"node:12168278249","kind":"peak","name":"Naibberg","lat":-22.3486823,"lon":15.6473447,"elevationM":1324},{"id":"node:12168278250","kind":"peak","name":"Potberg","lat":-22.4267858,"lon":15.7712033,"elevationM":1445},{"id":"node:12168278251","kind":"peak","name":"Spioenkop","lat":-22.5224636,"lon":15.7846588,"elevationM":1068},{"id":"node:12168278252","kind":"peak","name":"Wehberg","lat":-22.5422445,"lon":15.8435314,"elevationM":1127},{"id":"node:12168278253","kind":"peak","name":"Tigerkop","lat":-22.5830868,"lon":15.9269436,"elevationM":1216},{"id":"node:12169770925","kind":"peak","name":"Jagdberg","lat":-22.6214264,"lon":15.9427381,"elevationM":1725},{"id":"node:12169770926","kind":"peak","name":"Stefansberg","lat":-22.6325327,"lon":15.7076089,"elevationM":1486},{"id":"node:12169770927","kind":"peak","name":"Stahlhelmberg","lat":-22.6716521,"lon":15.7248879,"elevationM":1486},{"id":"node:12169770928","kind":"peak","name":"Giselaberg","lat":-22.694323,"lon":15.7954155,"elevationM":1767},{"id":"node:12169770961","kind":"peak","name":"Onanis","lat":-22.7577513,"lon":15.6500439,"elevationM":1639},{"id":"node:12169770962","kind":"peak","name":"Leopard's Drink","lat":-22.8870279,"lon":15.7530172,"elevationM":1474},{"id":"node:12169770963","kind":"peak","name":"Witvrouberg","lat":-22.8416942,"lon":15.9660216,"elevationM":1752},{"id":"node:12169770964","kind":"peak","name":"Grootberg Quabis","lat":-22.8686386,"lon":15.9006501,"elevationM":1846},{"id":"node:12169770965","kind":"peak","name":"Skilderkop","lat":-22.9278722,"lon":15.6472847,"elevationM":1330},{"id":"node:12169770966","kind":"peak","name":"Heisseb","lat":-22.9781471,"lon":15.9288446,"elevationM":1268},{"id":"node:12169770967","kind":"peak","name":"Hoasib","lat":-22.9786042,"lon":15.884133,"elevationM":1556},{"id":"node:12169770968","kind":"peak","name":"Karikas","lat":-22.9828889,"lon":15.7091019,"elevationM":1380},{"id":"node:12702979333","kind":"peak","name":"Rooikop","lat":-22.4220316,"lon":15.3799066,"elevationM":1288},{"id":"node:12702979335","kind":"peak","name":"Valencia","lat":-22.3691651,"lon":15.2637284,"elevationM":1121},{"id":"node:12704467905","kind":"peak","name":"Rooikop","lat":-22.1480173,"lon":15.4765731,"elevationM":1021}]}