{"tileKey":"la_m38_lo_p143","version":"v1-1775891056926","entries":[{"id":"node:557981850","kind":"peak","name":"Ben Nevis","lat":-37.2283769,"lon":143.200724,"elevationM":960},{"id":"node:951238915","kind":"volcano","name":"Mount Moolort","lat":-37.0474793,"lon":143.8604948,"elevationM":314},{"id":"node:1273037086","kind":"peak","name":"Snowgums lookout","lat":-37.3055618,"lon":143.2505386,"elevationM":null},{"id":"node:1273037088","kind":"peak","name":"Sugarloaf","lat":-37.3042926,"lon":143.2535568,"elevationM":null},{"id":"node:1287717452","kind":"peak","name":"Mount Avoca","lat":-37.1064105,"lon":143.3495019,"elevationM":747},{"id":"node:1420032485","kind":"volcano","name":"Mount Blowhard","lat":-37.4526885,"lon":143.8011844,"elevationM":515},{"id":"node:1420032487","kind":"volcano","name":"Mount Pisgah","lat":-37.4636179,"lon":143.8175582,"elevationM":559},{"id":"node:1420032926","kind":"volcano","name":"Mount Hollowback","lat":-37.4399805,"lon":143.8156433,"elevationM":582},{"id":"node:1420042947","kind":"volcano","name":"Coghills Hill","lat":-37.4067706,"lon":143.7697938,"elevationM":null},{"id":"node:1420042955","kind":"volcano","name":"Mount Cavern","lat":-37.4101333,"lon":143.7852814,"elevationM":489},{"id":"node:1420042958","kind":"volcano","name":"Brown Hill","lat":-37.4166641,"lon":143.7034868,"elevationM":486},{"id":"node:1420042961","kind":"volcano","name":"Selwood Hill","lat":-37.4166796,"lon":143.7214757,"elevationM":460},{"id":"node:1420042962","kind":"volcano","name":"Morton Hill","lat":-37.4241163,"lon":143.7523362,"elevationM":null},{"id":"node:1420042963","kind":"volcano","name":"Mclean Hill","lat":-37.4342792,"lon":143.7503829,"elevationM":null},{"id":"node:1420043341","kind":"volcano","name":"Baird Hill","lat":-37.3908697,"lon":143.7336218,"elevationM":null},{"id":"node:1420043342","kind":"volcano","name":"Fraser Hill","lat":-37.391944,"lon":143.6977742,"elevationM":500},{"id":"node:1420044245","kind":"volcano","name":"Saddleback Hill","lat":-37.4506448,"lon":143.6978982,"elevationM":481},{"id":"node:1420044566","kind":"volcano","name":"Weatherboard Hill","lat":-37.439419,"lon":143.6711694,"elevationM":566},{"id":"node:1420044589","kind":"volcano","name":"Mount Callender","lat":-37.4707047,"lon":143.6167986,"elevationM":482},{"id":"node:1420044986","kind":"volcano","name":"Mount Rowan","lat":-37.5016216,"lon":143.8393518,"elevationM":518},{"id":"node:1420047122","kind":"volcano","name":"Mount Buninyong","lat":-37.655075,"lon":143.9245675,"elevationM":754},{"id":"node:1420047123","kind":"volcano","name":"Mount Warrenheip","lat":-37.5765814,"lon":143.9582352,"elevationM":746},{"id":"node:1420049029","kind":"peak","name":"Mount Beckworth","lat":-37.3171701,"lon":143.7107717,"elevationM":629},{"id":"node:1420049030","kind":"peak","name":"Mount Bolton","lat":-37.3681042,"lon":143.6979904,"elevationM":641},{"id":"node:1420051478","kind":"volcano","name":"Mount Gap","lat":-37.3348047,"lon":143.6934875,"elevationM":576},{"id":"node:1420052807","kind":"volcano","name":"Cloverbank Hill","lat":-37.3720014,"lon":143.7388911,"elevationM":null},{"id":"node:1420053222","kind":"volcano","name":"Cattle Station Hill","lat":-37.3612004,"lon":143.8476185,"elevationM":null},{"id":"node:1420053223","kind":"volcano","name":"Vaughn Hill","lat":-37.3794233,"lon":143.7170506,"elevationM":null},{"id":"node:1420059377","kind":"peak","name":"Foran Hill","lat":-37.3878116,"lon":143.6237908,"elevationM":612},{"id":"node:1420059378","kind":"peak","name":"Mount Misery","lat":-37.3944387,"lon":143.5956849,"elevationM":686},{"id":"node:1420059379","kind":"peak","name":"Staff Hill","lat":-37.4023483,"lon":143.6163687,"elevationM":null},{"id":"node:1420059381","kind":"peak","name":"Mount Ercildoun","lat":-37.406849,"lon":143.6063257,"elevationM":614},{"id":"node:1420060320","kind":"volcano","name":"St Marys Hill","lat":-37.3686665,"lon":143.5928832,"elevationM":577},{"id":"node:1420061194","kind":"peak","name":"Big Hill","lat":-37.3298396,"lon":143.6081348,"elevationM":564},{"id":"node:1420061195","kind":"peak","name":"Quoin Hill","lat":-37.3469725,"lon":143.6030384,"elevationM":624},{"id":"node:1420074314","kind":"peak","name":"Two Mile Hill","lat":-37.3267256,"lon":143.7892014,"elevationM":410},{"id":"node:1420076260","kind":"volcano","name":"Cardinal Hill","lat":-37.4026121,"lon":143.6340911,"elevationM":612},{"id":"node:1420076261","kind":"peak","name":"Lady Mount","lat":-37.4227203,"lon":143.6474805,"elevationM":551},{"id":"node:1420077009","kind":"volcano","name":"Ryan Hill","lat":-37.3718566,"lon":143.617434,"elevationM":575},{"id":"node:1420079331","kind":"peak","name":"Black Hill","lat":-37.5522114,"lon":143.7108489,"elevationM":439},{"id":"node:1420079332","kind":"peak","name":"Green Hill","lat":-37.559163,"lon":143.7538689,"elevationM":445},{"id":"node:1420090495","kind":"peak","name":"Green Hill","lat":-37.6277839,"lon":143.9012844,"elevationM":609},{"id":"node:1420090498","kind":"peak","name":"Mount Helen","lat":-37.627862,"lon":143.8750207,"elevationM":501},{"id":"node:1420094213","kind":"volcano","name":"Spring Hill","lat":-37.4020135,"lon":143.9325112,"elevationM":550},{"id":"node:1420100011","kind":"volcano","name":"Gordon Hill","lat":-37.2793137,"lon":143.6382179,"elevationM":492},{"id":"node:1420100012","kind":"volcano","name":"Maiden Hill","lat":-37.288942,"lon":143.6161119,"elevationM":499},{"id":"node:1420100013","kind":"volcano","name":"Mount Mitchell","lat":-37.2804728,"lon":143.5801472,"elevationM":521},{"id":"node:1420103107","kind":"volcano","name":"Fenton Hill","lat":-37.3470181,"lon":143.7369983,"elevationM":null},{"id":"node:1420119500","kind":"volcano","name":"Long Hill","lat":-37.2883258,"lon":143.5906189,"elevationM":null},{"id":"node:1420173964","kind":"peak","name":"Jolly Hill","lat":-37.6099214,"lon":143.7460964,"elevationM":438},{"id":"node:1420186170","kind":"volcano","name":"Wombat Hill","lat":-37.4874466,"lon":143.9630143,"elevationM":null},{"id":"node:1420186171","kind":"volcano","name":"Clarkes Hill","lat":-37.4910576,"lon":143.9797661,"elevationM":718},{"id":"node:1420188731","kind":"volcano","name":"Scrub Hill","lat":-37.42865,"lon":143.9753029,"elevationM":null},{"id":"node:1420189111","kind":"volcano","name":"Forest Hill","lat":-37.3925482,"lon":143.9630277,"elevationM":676},{"id":"node:1420201556","kind":"volcano","name":"Mount Kooroocheang","lat":-37.2967143,"lon":143.9845469,"elevationM":669},{"id":"node:1420203543","kind":"volcano","name":"Mount Moorookyle","lat":-37.2933152,"lon":143.9399262,"elevationM":609},{"id":"node:1420205869","kind":"volcano","name":"Powlett Hill","lat":-37.25833,"lon":143.930391,"elevationM":460},{"id":"node:1420206355","kind":"volcano","name":"Kelly Hill","lat":-37.2605382,"lon":143.8820908,"elevationM":410},{"id":"node:1420206853","kind":"volcano","name":"McIvor Hill","lat":-37.2403152,"lon":143.8656113,"elevationM":378},{"id":"node:1420206854","kind":"volcano","name":"Leishman Hill","lat":-37.2657024,"lon":143.8473895,"elevationM":442},{"id":"node:1420207080","kind":"volcano","name":"Stewart Hill","lat":-37.2681947,"lon":143.8990704,"elevationM":null},{"id":"node:1420208060","kind":"volcano","name":"Williams Hill","lat":-37.2729848,"lon":143.8383172,"elevationM":416},{"id":"node:1420209537","kind":"volcano","name":"Mount Duntulm","lat":-37.2075498,"lon":143.8582015,"elevationM":374},{"id":"node:1420210223","kind":"volcano","name":"Mount Cameron","lat":-37.1996186,"lon":143.8143436,"elevationM":414},{"id":"node:1420210225","kind":"volcano","name":"Fawcett Hill","lat":-37.1920608,"lon":143.8358284,"elevationM":344},{"id":"node:1420211843","kind":"volcano","name":"Mount Greenock","lat":-37.2028469,"lon":143.7274873,"elevationM":385},{"id":"node:1420212506","kind":"volcano","name":"Mount Glasgow","lat":-37.2100114,"lon":143.7520945,"elevationM":409},{"id":"node:1420256167","kind":"volcano","name":"Stoney Rises","lat":-37.2531656,"lon":143.9624221,"elevationM":null},{"id":"node:1420256168","kind":"volcano","name":"Rocky Hill","lat":-37.2565649,"lon":143.9823329,"elevationM":null},{"id":"node:1420257398","kind":"volcano","name":"Woodhouse Hill","lat":-37.3225821,"lon":143.9165993,"elevationM":469},{"id":"node:1420257399","kind":"volcano","name":"Birch Hill","lat":-37.3475071,"lon":143.9199325,"elevationM":560},{"id":"node:1420261918","kind":"volcano","name":"Green Hill","lat":-37.363099,"lon":143.8877792,"elevationM":null},{"id":"node:1420268073","kind":"volcano","name":"Merin (Middle) Hill","lat":-37.210689,"lon":143.8110136,"elevationM":null},{"id":"node:1420268080","kind":"volcano","name":"McKinnon Hill","lat":-37.2606318,"lon":143.8231973,"elevationM":null},{"id":"node:1420269246","kind":"volcano","name":"Clover Hill","lat":-37.3095284,"lon":143.8890195,"elevationM":425},{"id":"node:1608722371","kind":"peak","name":"Mt Holled-Smith","lat":-37.565681,"lon":143.8220144,"elevationM":null},{"id":"node:1706927538","kind":"peak","name":"Mount Langi Ghiran","lat":-37.2991878,"lon":143.1105199,"elevationM":980},{"id":"node:1951971227","kind":"peak","name":"Granite Hill","lat":-37.3049163,"lon":143.4606435,"elevationM":506},{"id":"node:2004116934","kind":"volcano","name":"Mount Elephant","lat":-37.9605729,"lon":143.1984574,"elevationM":380},{"id":"node:2440970352","kind":"peak","name":"Mount Gorrin","lat":-37.3211909,"lon":143.1136954,"elevationM":738},{"id":"node:2947854693","kind":"peak","name":"Ben Major","lat":-37.269909,"lon":143.4385604,"elevationM":634},{"id":"node:2988177435","kind":"peak","name":"Mullock Heap","lat":-37.5767285,"lon":143.8669395,"elevationM":null},{"id":"node:2988177436","kind":"peak","name":"Mullock Heap","lat":-37.5771143,"lon":143.8668125,"elevationM":null},{"id":"node:3008901760","kind":"peak","name":"Bald Hill","lat":-37.73823,"lon":143.75467,"elevationM":477},{"id":"node:3008901776","kind":"peak","name":"Ben More","lat":-37.22809,"lon":143.43561,"elevationM":637},{"id":"node:3008901798","kind":"peak","name":"Black Hill","lat":-37.66578,"lon":143.63994,"elevationM":391},{"id":"node:3008902058","kind":"peak","name":"Cherry Tree Hill","lat":-37.67312,"lon":143.59908,"elevationM":490},{"id":"node:3008902125","kind":"peak","name":"Emu Hill","lat":-37.76957,"lon":143.54679,"elevationM":319},{"id":"node:3008902239","kind":"peak","name":"Flagstaff Hill","lat":-37.6903,"lon":143.52412,"elevationM":472},{"id":"node:3008902277","kind":"peak","name":"Green Hill","lat":-37.35069,"lon":143.97088,"elevationM":null},{"id":"node:3008902278","kind":"peak","name":"Grenville Hill","lat":-37.67761,"lon":143.87694,"elevationM":null},{"id":"node:3008902289","kind":"peak","name":"Hardie Hill","lat":-37.74895,"lon":143.88605,"elevationM":443},{"id":"node:3008902485","kind":"peak","name":"Lookout Hill","lat":-37.28209,"lon":143.2471,"elevationM":null},{"id":"node:3008902520","kind":"peak","name":"Monmot Hill","lat":-37.6376641,"lon":143.3514354,"elevationM":408},{"id":"node:3008902555","kind":"peak","name":"Mount Buangor","lat":-37.2953853,"lon":143.2211462,"elevationM":987},{"id":"node:3008902558","kind":"peak","name":"Mount Bute","lat":-37.72434,"lon":143.50333,"elevationM":365},{"id":"node:3008902568","kind":"peak","name":"Mount Challicum","lat":-37.41155,"lon":143.0407,"elevationM":null},{"id":"node:3008902575","kind":"peak","name":"Mount Cole","lat":-37.3371174,"lon":143.2752679,"elevationM":886},{"id":"node:3008902589","kind":"peak","name":"Mount Direction","lat":-37.18681,"lon":143.33393,"elevationM":524},{"id":"node:3008902605","kind":"peak","name":"Mount Emu","lat":-37.5876,"lon":143.44886,"elevationM":514},{"id":"node:3008902652","kind":"peak","name":"Mount Kinross","lat":-37.85796,"lon":143.47886,"elevationM":279},{"id":"node:3008902660","kind":"peak","name":"Mount Lonarch","lat":-37.2582684,"lon":143.33903,"elevationM":788},{"id":"node:3008902674","kind":"peak","name":"Mount Mercer","lat":-37.81967,"lon":143.86387,"elevationM":428},{"id":"node:3008902855","kind":"peak","name":"Mount Vite Vite","lat":-37.82571,"lon":143.19414,"elevationM":287},{"id":"node:3008902858","kind":"peak","name":"Mount Warrenmang","lat":-37.04312,"lon":143.37224,"elevationM":537},{"id":"node:3008902862","kind":"peak","name":"Mount Weejort","lat":-37.54978,"lon":143.08448,"elevationM":371},{"id":"node:3008902866","kind":"peak","name":"Mount Widderin","lat":-37.7431,"lon":143.35776,"elevationM":361},{"id":"node:3008902887","kind":"peak","name":"Nanimia Hill","lat":-37.62453,"lon":143.39276,"elevationM":443},{"id":"node:3008903062","kind":"peak","name":"Plantation Hill","lat":-37.6494551,"lon":143.6148495,"elevationM":null},{"id":"node:3008903084","kind":"peak","name":"Quiney Hill","lat":-37.9191,"lon":143.92465,"elevationM":217},{"id":"node:3008903100","kind":"peak","name":"Ritchie Hill","lat":-37.62434,"lon":143.12392,"elevationM":270},{"id":"node:3008903102","kind":"peak","name":"Rock Hill","lat":-37.1653,"lon":143.17152,"elevationM":null},{"id":"node:3008903114","kind":"peak","name":"Sago Hill","lat":-37.58139,"lon":143.73863,"elevationM":null},{"id":"node:3008903560","kind":"peak","name":"Sovereign Hill","lat":-37.57834,"lon":143.86457,"elevationM":null},{"id":"node:3008903575","kind":"peak","name":"Stockyard Hill","lat":-37.5541926,"lon":143.320317,"elevationM":null},{"id":"node:3008903590","kind":"peak","name":"Sugarloaf Hill","lat":-37.23229,"lon":143.38215,"elevationM":null},{"id":"node:3008903602","kind":"peak","name":"Telegraph Hill","lat":-37.2446,"lon":143.07025,"elevationM":null},{"id":"node:3008903665","kind":"peak","name":"Victoria Hill","lat":-37.26262,"lon":143.24633,"elevationM":null},{"id":"node:3008903675","kind":"peak","name":"Wallinduc Hill","lat":-37.84022,"lon":143.55505,"elevationM":259},{"id":"node:5423767270","kind":"peak","name":"Brakenbury Hill","lat":-37.4277128,"lon":143.9141763,"elevationM":531},{"id":"node:6612589600","kind":"peak","name":"Dawson Rock","lat":-37.2909895,"lon":143.2369909,"elevationM":null},{"id":"node:7099403203","kind":"peak","name":"Surface Hill","lat":-37.6477061,"lon":143.6973692,"elevationM":405},{"id":"node:7694461578","kind":"peak","name":"Humbug Hill","lat":-37.4477267,"lon":143.906711,"elevationM":495},{"id":"node:7706154815","kind":"peak","name":"Mount Erip","lat":-37.7371077,"lon":143.6025176,"elevationM":405},{"id":"node:7776608433","kind":"peak","name":"Hard Hills","lat":-37.6519258,"lon":143.5717859,"elevationM":455},{"id":"node:7834473285","kind":"volcano","name":"Bankin Hil","lat":-37.4216355,"lon":143.7224923,"elevationM":460},{"id":"node:7874237948","kind":"peak","name":"Mount Misery","lat":-37.766975,"lon":143.7442456,"elevationM":385},{"id":"node:7874243439","kind":"peak","name":"Mount Cockatoo","lat":-37.77521,"lon":143.749151,"elevationM":405},{"id":"node:8382622432","kind":"peak","name":"Mt Xavier","lat":-37.5641516,"lon":143.8969578,"elevationM":490},{"id":"node:8382628511","kind":"peak","name":"Conglomerate Hill","lat":-37.6031003,"lon":143.8953842,"elevationM":null},{"id":"node:8382638620","kind":"peak","name":"Pennyweight Hill","lat":-37.5693802,"lon":143.8779105,"elevationM":null},{"id":"node:8382638884","kind":"peak","name":"Clayton Hill","lat":-37.5769015,"lon":143.8758828,"elevationM":null},{"id":"node:8382654906","kind":"peak","name":"Billy Cart Hill","lat":-37.5984875,"lon":143.8978804,"elevationM":null},{"id":"node:8653778275","kind":"peak","name":"Red Hill","lat":-37.5798108,"lon":143.9075936,"elevationM":535},{"id":"node:8653792060","kind":"peak","name":"Sinclair Hill","lat":-37.5846753,"lon":143.887986,"elevationM":495},{"id":"node:8720695606","kind":"peak","name":"Sledging Point","lat":-37.2314057,"lon":143.2202045,"elevationM":680},{"id":"node:8720696009","kind":"peak","name":"Sibbrett Point","lat":-37.2038454,"lon":143.2147659,"elevationM":610},{"id":"node:8720696107","kind":"peak","name":"The Pinnacles","lat":-37.2144752,"lon":143.212579,"elevationM":774},{"id":"node:9063460956","kind":"peak","name":"Mullock heap","lat":-37.5755353,"lon":143.8671869,"elevationM":null},{"id":"node:9870352326","kind":"peak","name":"Post Office Hill","lat":-37.573981,"lon":143.8648299,"elevationM":null},{"id":"node:9870352327","kind":"peak","name":"Poverty Point","lat":-37.5720631,"lon":143.868417,"elevationM":null},{"id":"node:9870352328","kind":"peak","name":"Golden Point","lat":-37.5696151,"lon":143.8639522,"elevationM":null},{"id":"node:9870352329","kind":"peak","name":"Specimen Hill","lat":-37.5655063,"lon":143.8767178,"elevationM":null},{"id":"node:9870352330","kind":"peak","name":"Bakery Hill","lat":-37.5623415,"lon":143.8717589,"elevationM":null},{"id":"node:9870352331","kind":"peak","name":"Soldiers Hill","lat":-37.5535485,"lon":143.8598325,"elevationM":null},{"id":"node:9870352332","kind":"peak","name":"Black Hill","lat":-37.5516111,"lon":143.8741856,"elevationM":null},{"id":"node:9870352333","kind":"peak","name":"Cherry Hill","lat":-37.5469642,"lon":143.8632977,"elevationM":null},{"id":"node:9870352334","kind":"peak","name":"Rich Hill","lat":-37.5162063,"lon":143.9291509,"elevationM":null},{"id":"node:9870352335","kind":"peak","name":"Moores Hill","lat":-37.4770014,"lon":143.872871,"elevationM":null},{"id":"node:9870352336","kind":"peak","name":"Slaughterhouse Hill","lat":-37.6568292,"lon":143.8706063,"elevationM":null},{"id":"node:9870352337","kind":"peak","name":"Brown Hill","lat":-37.5501354,"lon":143.8976161,"elevationM":null},{"id":"node:9870352338","kind":"peak","name":"Tower Hill","lat":-37.6188704,"lon":143.8542885,"elevationM":null},{"id":"node:10122945936","kind":"peak","name":"Davies Hill","lat":-37.6681646,"lon":143.8317617,"elevationM":null},{"id":"node:10595330257","kind":"peak","name":"Bells Hill","lat":-37.923065,"lon":143.8576775,"elevationM":227},{"id":"node:10727045573","kind":"peak","name":"Big Rock","lat":-37.290211,"lon":143.2492986,"elevationM":773},{"id":"node:10741171382","kind":"peak","name":"Bald Hill","lat":-37.8408978,"lon":143.5752336,"elevationM":null},{"id":"node:10741171383","kind":"peak","name":"Bulldog Hill","lat":-37.8311879,"lon":143.6492901,"elevationM":null},{"id":"node:10741171384","kind":"peak","name":"Golden Hill","lat":-37.8357556,"lon":143.6450006,"elevationM":null},{"id":"node:10741193180","kind":"peak","name":"Kirks Hill","lat":-37.8419255,"lon":143.6725541,"elevationM":null},{"id":"node:10741193181","kind":"peak","name":"Paddys Hill","lat":-37.8516412,"lon":143.6762597,"elevationM":null},{"id":"node:10741193182","kind":"peak","name":"Sow & Pigs Hill","lat":-37.8520794,"lon":143.6972672,"elevationM":null},{"id":"node:10741193183","kind":"peak","name":"Nil Desperandum Hill","lat":-37.8298234,"lon":143.6728685,"elevationM":null},{"id":"node:10741193184","kind":"peak","name":"Skeltons Hill","lat":-37.826205,"lon":143.6519578,"elevationM":null},{"id":"node:10741193185","kind":"peak","name":"Wheelers Hill","lat":-37.8236595,"lon":143.657551,"elevationM":null},{"id":"node:10741193186","kind":"peak","name":"Doctors Hill","lat":-37.8124571,"lon":143.6619197,"elevationM":null},{"id":"node:10741193187","kind":"peak","name":"Mia Mia Hill","lat":-37.8058635,"lon":143.6633254,"elevationM":null},{"id":"node:10741193188","kind":"peak","name":"Scotchmans Hill","lat":-37.8184905,"lon":143.7067792,"elevationM":322},{"id":"node:10741193189","kind":"peak","name":"Boundary Hill","lat":-37.839987,"lon":143.7413419,"elevationM":null},{"id":"node:10741193190","kind":"peak","name":"Harmonium Hill","lat":-37.7813778,"lon":143.7021512,"elevationM":null},{"id":"node:10741193191","kind":"peak","name":"Moltkes Hill","lat":-37.7872492,"lon":143.7055527,"elevationM":327},{"id":"node:10741193192","kind":"peak","name":"Parkers Hill","lat":-37.7802194,"lon":143.7337039,"elevationM":null},{"id":"node:10741193193","kind":"peak","name":"Surface Point","lat":-37.7709901,"lon":143.7418353,"elevationM":null},{"id":"node:10958620002","kind":"peak","name":"Turkey Hill","lat":-37.2282888,"lon":143.9406076,"elevationM":null},{"id":"node:10965132026","kind":"peak","name":"Mount Lawaluk","lat":-37.834306,"lon":143.8860444,"elevationM":null},{"id":"node:11178125306","kind":"peak","name":"Bottle Hill","lat":-37.6004365,"lon":143.5805589,"elevationM":null},{"id":"node:11178125307","kind":"peak","name":"Preston Hill","lat":-37.6013885,"lon":143.594957,"elevationM":null},{"id":"node:11178125308","kind":"peak","name":"Green Hill","lat":-37.6037515,"lon":143.6031539,"elevationM":null},{"id":"node:11178125310","kind":"peak","name":"Cambrian Hill","lat":-37.6451663,"lon":143.8194624,"elevationM":null},{"id":"node:11178125311","kind":"peak","name":"Forest Hill","lat":-37.6258427,"lon":143.869638,"elevationM":null},{"id":"node:11178152432","kind":"peak","name":"Halls Hill","lat":-37.8530191,"lon":143.7247558,"elevationM":null},{"id":"node:11178152531","kind":"peak","name":"Savage Hill","lat":-37.835347,"lon":143.7468664,"elevationM":null},{"id":"node:11178173418","kind":"peak","name":"Fraser Hill","lat":-37.6455813,"lon":143.6768178,"elevationM":null},{"id":"node:11178173419","kind":"peak","name":"Taylor Hill","lat":-37.7294107,"lon":143.7801001,"elevationM":null},{"id":"node:11178190642","kind":"peak","name":"Argus Hill","lat":-37.6402732,"lon":143.6988427,"elevationM":null},{"id":"node:11178190643","kind":"peak","name":"Watsons Hill","lat":-37.6603114,"lon":143.6901958,"elevationM":null},{"id":"node:11178190644","kind":"peak","name":"Sugar Loaf Hill","lat":-37.6550059,"lon":143.6522741,"elevationM":null},{"id":"node:11178445295","kind":"peak","name":"Mount Ross","lat":-37.4426451,"lon":143.4817039,"elevationM":null},{"id":"node:11178445296","kind":"peak","name":"Spring Hill","lat":-37.464499,"lon":143.5029259,"elevationM":404},{"id":"node:11178445297","kind":"peak","name":"Waterloo Hill","lat":-37.3407946,"lon":143.4413098,"elevationM":null},{"id":"node:11178445298","kind":"peak","name":"Donkey Hill","lat":-37.0373579,"lon":143.366878,"elevationM":null},{"id":"node:11178481617","kind":"peak","name":"Tolbar Hill","lat":-37.4169445,"lon":143.6349649,"elevationM":null},{"id":"node:11180447784","kind":"peak","name":"Bristol Hill","lat":-37.0482883,"lon":143.7288253,"elevationM":null},{"id":"node:11226017906","kind":"peak","name":"Hard Hill","lat":-37.1275962,"lon":143.6556456,"elevationM":null},{"id":"node:11226017907","kind":"peak","name":"Primrose Hill","lat":-37.0481808,"lon":143.7570138,"elevationM":null},{"id":"node:11226017908","kind":"peak","name":"Pekin Hill","lat":-37.0398763,"lon":143.727727,"elevationM":null},{"id":"node:11226017909","kind":"peak","name":"Soldiers Hill","lat":-37.0641518,"lon":143.7349125,"elevationM":null},{"id":"node:11226017910","kind":"peak","name":"Keilors Hill","lat":-37.0081144,"lon":143.7514395,"elevationM":null},{"id":"node:11226022550","kind":"peak","name":"Tunnel Hill","lat":-37.1771917,"lon":143.6817275,"elevationM":null},{"id":"node:11226022551","kind":"peak","name":"Goodwomans Hill","lat":-37.1814324,"lon":143.6993225,"elevationM":null},{"id":"node:11226022552","kind":"peak","name":"Bakery Hill","lat":-37.185296,"lon":143.6945732,"elevationM":null},{"id":"node:11226022553","kind":"peak","name":"Ballarat Hill","lat":-37.1899209,"lon":143.6878155,"elevationM":null},{"id":"node:11226022554","kind":"peak","name":"Granite Hill","lat":-37.2128091,"lon":143.6612921,"elevationM":null},{"id":"node:11226022555","kind":"peak","name":"Lane (Little Green) Hill","lat":-37.2232859,"lon":143.8153161,"elevationM":null},{"id":"node:11228350541","kind":"peak","name":"Edwards Hill","lat":-37.0119032,"lon":143.9836528,"elevationM":null},{"id":"node:11228708562","kind":"peak","name":"Larundel Hill","lat":-37.7953856,"lon":143.945092,"elevationM":413},{"id":"node:11228708563","kind":"peak","name":"Horse Hill","lat":-37.7677418,"lon":143.982348,"elevationM":412},{"id":"node:11263817611","kind":"peak","name":"Green Hill","lat":-37.514831,"lon":143.9684803,"elevationM":null},{"id":"node:11263817612","kind":"peak","name":"Smarts Hill","lat":-37.5346613,"lon":143.6811041,"elevationM":null},{"id":"node:11263817613","kind":"peak","name":"Hill View","lat":-37.5177049,"lon":143.707182,"elevationM":null},{"id":"node:11263817614","kind":"peak","name":"Bunkers Hill","lat":-37.573292,"lon":143.7405726,"elevationM":464},{"id":"node:11263839151","kind":"peak","name":"Dreamers Hill","lat":-37.7292451,"lon":143.5717862,"elevationM":null},{"id":"node:11263839152","kind":"peak","name":"Weston Hill","lat":-37.7461633,"lon":143.583781,"elevationM":null},{"id":"node:11263843239","kind":"peak","name":"Cemetery Hill","lat":-37.5764367,"lon":143.5709567,"elevationM":null},{"id":"node:11263843240","kind":"peak","name":"Moreton Hill","lat":-37.693797,"lon":143.4319456,"elevationM":null},{"id":"node:11263843241","kind":"peak","name":"Spring Hill","lat":-37.7044762,"lon":143.4332545,"elevationM":null},{"id":"node:11263924924","kind":"peak","name":"Peters Hill","lat":-37.1787213,"lon":143.6298923,"elevationM":null},{"id":"node:11264015575","kind":"peak","name":"Maiden Hill","lat":-37.1365271,"lon":143.7256287,"elevationM":null},{"id":"node:11264015582","kind":"peak","name":"Snake Hill","lat":-37.0718377,"lon":143.6522778,"elevationM":null},{"id":"node:11264015584","kind":"peak","name":"White Hill","lat":-37.0535222,"lon":143.7478622,"elevationM":null},{"id":"node:11445824613","kind":"peak","name":"Reef Hill","lat":-37.0506334,"lon":143.7226976,"elevationM":null},{"id":"node:11505108061","kind":"peak","name":"Fishers Hill","lat":-37.4551518,"lon":143.259445,"elevationM":395},{"id":"node:11505108062","kind":"peak","name":"Troys Hill","lat":-37.3614245,"lon":143.6205237,"elevationM":null},{"id":"node:11505108063","kind":"peak","name":"Little Hill","lat":-37.3212818,"lon":143.5895849,"elevationM":null},{"id":"node:11505171962","kind":"peak","name":"Baulch Hill","lat":-37.2791027,"lon":143.5366731,"elevationM":null},{"id":"node:11505171963","kind":"peak","name":"Tollbar Hill","lat":-37.2932689,"lon":143.5410418,"elevationM":null},{"id":"node:11505171964","kind":"peak","name":"Ross Hill","lat":-37.345142,"lon":143.7091791,"elevationM":null},{"id":"node:11505171965","kind":"peak","name":"Bald Hill","lat":-37.3592682,"lon":143.6955804,"elevationM":null},{"id":"node:11505171966","kind":"peak","name":"Eastern Peake","lat":-37.3674764,"lon":143.7132056,"elevationM":null},{"id":"node:11505171967","kind":"peak","name":"Wrights Hill","lat":-37.354808,"lon":143.6654647,"elevationM":null},{"id":"node:11505199464","kind":"peak","name":"Madden Hill","lat":-37.4891725,"lon":143.9978315,"elevationM":null},{"id":"node:11505334414","kind":"peak","name":"Dutchman Hill","lat":-37.435109,"lon":143.8950862,"elevationM":null},{"id":"node:11505334415","kind":"peak","name":"White Hill","lat":-37.4345956,"lon":143.8990014,"elevationM":null},{"id":"node:11505334416","kind":"peak","name":"Church Hill","lat":-37.4290814,"lon":143.8948431,"elevationM":null},{"id":"node:11505334417","kind":"peak","name":"Schicer Hill","lat":-37.4156084,"lon":143.9088431,"elevationM":null},{"id":"node:11505334418","kind":"peak","name":"Turkey Hill","lat":-37.4178684,"lon":143.9057954,"elevationM":null},{"id":"node:11505334420","kind":"peak","name":"Hard Hill","lat":-37.4241324,"lon":143.8873185,"elevationM":null},{"id":"node:11505334421","kind":"peak","name":"Snake Hill","lat":-37.4300919,"lon":143.874227,"elevationM":null},{"id":"node:11505334422","kind":"peak","name":"Red Hill","lat":-37.4293726,"lon":143.8498493,"elevationM":null},{"id":"node:11505334423","kind":"peak","name":"Dasin Hill","lat":-37.4212812,"lon":143.8537437,"elevationM":null},{"id":"node:11505334425","kind":"peak","name":"Schicer Hill","lat":-37.4171771,"lon":143.8640872,"elevationM":null},{"id":"node:11505334426","kind":"peak","name":"Union Hill","lat":-37.4105606,"lon":143.8712754,"elevationM":null},{"id":"node:11505334427","kind":"peak","name":"Slaughteryard Hill","lat":-37.4107293,"lon":143.8860551,"elevationM":null},{"id":"node:11505334428","kind":"peak","name":"Quartz Hill","lat":-37.4037769,"lon":143.9143026,"elevationM":null},{"id":"node:11505334429","kind":"peak","name":"Tavistock Hill","lat":-37.4612195,"lon":143.8944377,"elevationM":null},{"id":"node:11505334430","kind":"peak","name":"One Tree Hill","lat":-37.4516347,"lon":143.9013329,"elevationM":null},{"id":"node:11505334431","kind":"peak","name":"Kulhoid Hill","lat":-37.4699464,"lon":143.8672028,"elevationM":null},{"id":"node:11505334432","kind":"peak","name":"Lincoln Hill","lat":-37.4604904,"lon":143.9347417,"elevationM":null},{"id":"node:11505373406","kind":"peak","name":"Pound Hill","lat":-37.4760141,"lon":143.7621107,"elevationM":null},{"id":"node:11506982736","kind":"peak","name":"Point Patrick","lat":-37.1524059,"lon":143.3375212,"elevationM":null},{"id":"node:11507014093","kind":"peak","name":"Surface Hill","lat":-37.3726964,"lon":143.3646753,"elevationM":null},{"id":"node:11507014094","kind":"peak","name":"Brooks Hill","lat":-37.3384214,"lon":143.3705292,"elevationM":null},{"id":"node:11507014095","kind":"peak","name":"Graveyard Hill","lat":-37.3295016,"lon":143.3601691,"elevationM":null},{"id":"node:11507014096","kind":"peak","name":"Red Hill","lat":-37.3257077,"lon":143.3379793,"elevationM":null},{"id":"node:11507016648","kind":"peak","name":"Frees Point","lat":-37.3399833,"lon":143.2825615,"elevationM":null},{"id":"node:11507016649","kind":"peak","name":"Archie Lookout","lat":-37.3273601,"lon":143.2838107,"elevationM":null},{"id":"node:11507016650","kind":"peak","name":"Manly Point","lat":-37.3253102,"lon":143.2815878,"elevationM":null},{"id":"node:11507016651","kind":"peak","name":"Cave Hill","lat":-37.3222524,"lon":143.261467,"elevationM":null},{"id":"node:11507016652","kind":"peak","name":"Pumpkin Point","lat":-37.2396926,"lon":143.2610702,"elevationM":null},{"id":"node:11507016653","kind":"peak","name":"Sibbrett Hill","lat":-37.2135869,"lon":143.2219991,"elevationM":747},{"id":"node:11507016654","kind":"peak","name":"Red Rock","lat":-37.22999,"lon":143.1951775,"elevationM":null},{"id":"node:11507016655","kind":"peak","name":"Eversley Sugarloaf","lat":-37.2369483,"lon":143.1839467,"elevationM":null},{"id":"node:11507029130","kind":"peak","name":"Yam Holes Hill","lat":-37.4334592,"lon":143.3877749,"elevationM":null},{"id":"node:11507898825","kind":"peak","name":"Camp Hill","lat":-37.4240677,"lon":143.3827047,"elevationM":null},{"id":"node:11665063751","kind":"peak","name":"Reserve Hill","lat":-37.1774976,"lon":143.1830344,"elevationM":443},{"id":"node:11786577415","kind":"peak","name":"Mullock Point","lat":-37.8463695,"lon":143.6433448,"elevationM":null},{"id":"node:11786577416","kind":"peak","name":"Montrose Hill","lat":-37.8357278,"lon":143.6561979,"elevationM":null},{"id":"node:11854194079","kind":"peak","name":"Stony Rises","lat":-37.073588,"lon":143.9485162,"elevationM":null},{"id":"node:12076730930","kind":"peak","name":"Sugarloaf Hill","lat":-37.6852949,"lon":143.5172223,"elevationM":null},{"id":"node:12076730931","kind":"peak","name":"Dillons Hill","lat":-37.7058568,"lon":143.5368585,"elevationM":null},{"id":"node:12076731621","kind":"peak","name":"Pound Hill","lat":-37.6360371,"lon":143.6813168,"elevationM":379},{"id":"node:12093461979","kind":"peak","name":"Clarks Hill","lat":-37.417297,"lon":143.8849785,"elevationM":null},{"id":"node:12093461980","kind":"peak","name":"Quarry Hill","lat":-37.4103143,"lon":143.8788203,"elevationM":null},{"id":"node:12093470305","kind":"peak","name":"Eastern Hill","lat":-37.4192434,"lon":143.9016729,"elevationM":null},{"id":"node:12116084580","kind":"peak","name":"Blacksmiths Hill","lat":-37.7339137,"lon":143.5716963,"elevationM":null},{"id":"node:12909361479","kind":"peak","name":"Church Hill","lat":-37.1426718,"lon":143.6665192,"elevationM":null},{"id":"node:13244774701","kind":"peak","name":"Maiden Hill","lat":-37.1250258,"lon":143.7775297,"elevationM":null},{"id":"node:13244774703","kind":"peak","name":"Old England Hill","lat":-37.1301753,"lon":143.7484974,"elevationM":232}]}