{"tileKey":"la_m31_lo_m54","version":"v1-1775891056926","entries":[{"id":"node:2601167457","kind":"peak","name":"Morro da Cruz","lat":-30.8960262,"lon":-53.422374,"elevationM":200},{"id":"node:2607790475","kind":"peak","name":"Ninho das Águias","lat":-30.9643672,"lon":-53.5919245,"elevationM":null},{"id":"node:2607790529","kind":"peak","name":"Pedra do Segredo","lat":-30.5358822,"lon":-53.5491481,"elevationM":325},{"id":"node:3610029232","kind":"peak","name":"Cerro do Diogo","lat":-30.8612907,"lon":-53.268477,"elevationM":312},{"id":"node:3610029234","kind":"peak","name":"Cerro do Quilombo","lat":-30.8371157,"lon":-53.3024158,"elevationM":350},{"id":"node:3610029235","kind":"peak","name":"Cerro dos Melos","lat":-30.7435918,"lon":-53.0631018,"elevationM":454},{"id":"node:3610029252","kind":"peak","name":"Pedra do Bagual","lat":-30.8885876,"lon":-53.412471,"elevationM":280},{"id":"node:3610029263","kind":"peak","name":"Serra do Apertado","lat":-30.86211,"lon":-53.3407491,"elevationM":330},{"id":"node:3657089305","kind":"peak","name":"Cerro do Castelhano","lat":-30.424944,"lon":-53.5683752,"elevationM":259},{"id":"node:3657089313","kind":"peak","name":"Cerro dos Martins","lat":-30.7165592,"lon":-53.4823744,"elevationM":344},{"id":"node:3657089850","kind":"peak","name":"Morro do Andrade","lat":-30.5252715,"lon":-53.5134194,"elevationM":400},{"id":"node:3657089884","kind":"peak","name":"Serra do Espinilho","lat":-30.4035084,"lon":-53.5596782,"elevationM":336},{"id":"node:3657089886","kind":"peak","name":"Serra dos Lanceiros","lat":-30.5692245,"lon":-53.5831922,"elevationM":339},{"id":"node:6443082256","kind":"peak","name":"Cerro do Colorado","lat":-30.8057728,"lon":-53.644352,"elevationM":298},{"id":"node:6443090028","kind":"peak","name":"Cerro dos Nascimentos","lat":-30.4209962,"lon":-53.6363698,"elevationM":309},{"id":"node:6443090700","kind":"peak","name":"Serra de Santa Bárbara","lat":-30.5678037,"lon":-53.6829759,"elevationM":443},{"id":"node:6443090701","kind":"peak","name":"Coxilha da Árvore","lat":-30.6118397,"lon":-53.7308694,"elevationM":394},{"id":"node:6443090703","kind":"peak","name":"Cerro do Bugio","lat":-30.4632492,"lon":-53.5882188,"elevationM":409},{"id":"node:6443090704","kind":"peak","name":"Cerro do Perau","lat":-30.5102905,"lon":-53.6104489,"elevationM":406},{"id":"node:12142201102","kind":"peak","name":"Cerro Mato Feio","lat":-30.8601448,"lon":-53.9275718,"elevationM":null},{"id":"node:12345029838","kind":"peak","name":"Cerro da Mantiqueira","lat":-30.890864,"lon":-53.939985,"elevationM":null},{"id":"node:12408164168","kind":"peak","name":"Cerro Branco","lat":-30.9155722,"lon":-53.9156842,"elevationM":null},{"id":"node:12492480820","kind":"peak","name":"Cerro da Pedreira","lat":-30.9363538,"lon":-53.7349892,"elevationM":null},{"id":"node:12494009149","kind":"peak","name":"Cerro Grande","lat":-30.9062015,"lon":-53.7032319,"elevationM":null}]}