{"tileKey":"la_m20_lo_p129","version":"v1-1775891056926","entries":[{"id":"node:3020053228","kind":"peak","name":"Mount Charles","lat":-19.83023,"lon":129.84674,"elevationM":470},{"id":"node:3020053846","kind":"peak","name":"Mount Tanami","lat":-19.96366,"lon":129.66025,"elevationM":489},{"id":"node:3020053874","kind":"peak","name":"Mount Twigg","lat":-19.84032,"lon":129.80137,"elevationM":460},{"id":"node:3020150880","kind":"peak","name":"Mallee Hill","lat":-19.37335,"lon":129.10192,"elevationM":null},{"id":"node:3020151172","kind":"peak","name":"Mount Frederick","lat":-19.6276,"lon":129.24213,"elevationM":529}]}