{"tileKey":"la_m36_lo_m70","version":"v1-1775891056926","entries":[{"id":"node:1243427972","kind":"volcano","name":"Carapacho","lat":-35.8302078,"lon":-69.148071,"elevationM":null},{"id":"node:1243428450","kind":"volcano","name":"Cerro Trapal","lat":-35.612727,"lon":-69.2010558,"elevationM":1508},{"id":"node:1243428853","kind":"volcano","name":"Cerro Malacara","lat":-35.7742832,"lon":-69.4776206,"elevationM":1914},{"id":"node:4458336854","kind":"peak","name":"Cerro Arroyo Hondo","lat":-35.7053199,"lon":-69.9609842,"elevationM":3606},{"id":"node:4458336855","kind":"peak","name":"Cerro Bayo de Chacay-co","lat":-35.7686435,"lon":-69.9040709,"elevationM":3320},{"id":"node:4458336856","kind":"peak","name":"Cerro Bayo de La Batra","lat":-35.8492865,"lon":-69.5285938,"elevationM":2449},{"id":"node:4458336857","kind":"peak","name":"Cerro Bella Vista","lat":-35.7567449,"lon":-69.9856443,"elevationM":3320},{"id":"node:4458336858","kind":"peak","name":"Cerro Butalo","lat":-35.8468917,"lon":-69.695446,"elevationM":2214},{"id":"node:4458336859","kind":"peak","name":"Cerro Butamallín","lat":-35.6877821,"lon":-69.8315678,"elevationM":2823},{"id":"node:4458336860","kind":"peak","name":"Cerro Cabeceras del Colorado","lat":-35.6401901,"lon":-69.9533737,"elevationM":3262},{"id":"node:4458336861","kind":"peak","name":"Cerro Cajón de Agua","lat":-35.8624387,"lon":-69.462781,"elevationM":2424},{"id":"node:4458336862","kind":"peak","name":"Cerro Carrizalito","lat":-35.9490814,"lon":-69.7017159,"elevationM":1717},{"id":"node:4458336863","kind":"peak","name":"Cerro Cerrito Colorado","lat":-35.5772092,"lon":-69.7388387,"elevationM":1796},{"id":"node:4458336864","kind":"peak","name":"Cerro Cerritos Colorados","lat":-35.8647213,"lon":-69.175,"elevationM":1410},{"id":"node:4458336865","kind":"peak","name":"Cerro Chachao","lat":-35.6913158,"lon":-69.4936996,"elevationM":1662},{"id":"node:4458336866","kind":"peak","name":"Cerro Chihuido O Chiguiu","lat":-35.6478116,"lon":-69.5580707,"elevationM":1824},{"id":"node:4458336868","kind":"peak","name":"Cerro Cortado","lat":-35.9000081,"lon":-69.6888437,"elevationM":1395},{"id":"node:4458336869","kind":"peak","name":"Cerro Cortado","lat":-35.9879107,"lon":-69.3482556,"elevationM":2119},{"id":"node:4458336870","kind":"peak","name":"Cerro El Gorro","lat":-35.6619807,"lon":-69.7308207,"elevationM":2468},{"id":"node:4458336871","kind":"peak","name":"Cerro Fiero","lat":-35.6118121,"lon":-69.8118539,"elevationM":2339},{"id":"node:4458336873","kind":"peak","name":"Cerro Huemul","lat":-35.7629869,"lon":-69.6567469,"elevationM":1987},{"id":"node:4458336874","kind":"peak","name":"Cerro Huenul","lat":-35.728351,"lon":-69.3566597,"elevationM":1699},{"id":"node:4458336875","kind":"peak","name":"Cerro Jarilloso","lat":-35.6497281,"lon":-69.4577799,"elevationM":1567},{"id":"node:4458336876","kind":"peak","name":"Cerro La Batra","lat":-35.7966771,"lon":-69.4916987,"elevationM":2043},{"id":"node:4458336877","kind":"peak","name":"Cerro La Buitrera","lat":-35.9271355,"lon":-69.2030869,"elevationM":1552},{"id":"node:4458336878","kind":"peak","name":"Cerro La Cabra","lat":-35.9385917,"lon":-69.3769484,"elevationM":1896},{"id":"node:4458336879","kind":"peak","name":"Cerro La Horqueta","lat":-35.957063,"lon":-69.5017636,"elevationM":3074},{"id":"node:4458336880","kind":"peak","name":"Cerro La Mocha","lat":-35.9166304,"lon":-69.5305071,"elevationM":3114},{"id":"node:4458336881","kind":"peak","name":"Cerro La Piedra Sentada","lat":-35.5609325,"lon":-69.8103204,"elevationM":2310},{"id":"node:4458336882","kind":"peak","name":"Cerro Lagunitas","lat":-35.9741501,"lon":-69.8236489,"elevationM":2539},{"id":"node:4458336883","kind":"peak","name":"Cerro Los Pozos O Llancanelo","lat":-35.7484833,"lon":-69.1920722,"elevationM":1500},{"id":"node:4458336884","kind":"peak","name":"Cerro Lululén","lat":-35.9330637,"lon":-69.81443,"elevationM":2099},{"id":"node:4458336887","kind":"peak","name":"Cerro Mesón","lat":-35.6248434,"lon":-69.9030428,"elevationM":2815},{"id":"node:4458336888","kind":"peak","name":"Cerro Mirano","lat":-35.8042599,"lon":-69.5461068,"elevationM":2325},{"id":"node:4458337989","kind":"peak","name":"Cerro Negro de Chacay-co","lat":-35.7132111,"lon":-69.8524551,"elevationM":3006},{"id":"node:4458337991","kind":"peak","name":"Cerro Negro","lat":-35.6492351,"lon":-69.7951968,"elevationM":2180},{"id":"node:4458337992","kind":"peak","name":"Cerro Patahuilloso","lat":-35.8256889,"lon":-69.3237443,"elevationM":1996},{"id":"node:4458337993","kind":"peak","name":"Cerro Pirquitas","lat":-35.9633938,"lon":-69.4248481,"elevationM":2082},{"id":"node:4458337995","kind":"peak","name":"Cerro Puntudo Alto","lat":-35.9067721,"lon":-69.857429,"elevationM":2528},{"id":"node:4458337996","kind":"peak","name":"Cerro Puntudo","lat":-35.812176,"lon":-69.2259903,"elevationM":1571},{"id":"node:4458337997","kind":"peak","name":"Cerro Puntudo","lat":-35.9267676,"lon":-69.5839739,"elevationM":2685},{"id":"node:4458337998","kind":"peak","name":"Cerro Rezago","lat":-35.6786816,"lon":-69.9475181,"elevationM":3602},{"id":"node:4458338000","kind":"peak","name":"Cerro Toscal","lat":-35.7293277,"lon":-69.563241,"elevationM":2142},{"id":"node:4458338002","kind":"peak","name":"Cerro Tronquimalal","lat":-35.7015556,"lon":-69.6273088,"elevationM":2686},{"id":"node:4458338003","kind":"peak","name":"Cerro de Agua","lat":-35.6169606,"lon":-69.683032,"elevationM":1833},{"id":"node:4458338004","kind":"peak","name":"Cerro de La Gotera","lat":-35.8375961,"lon":-69.8690805,"elevationM":2477},{"id":"node:4458338006","kind":"peak","name":"Cerro de La Ventana","lat":-35.6755224,"lon":-69.7123919,"elevationM":2784},{"id":"node:4458338007","kind":"peak","name":"Cerro de Las Hormigas","lat":-35.6034739,"lon":-69.9902492,"elevationM":3276},{"id":"node:4458338010","kind":"peak","name":"Loma del Ranquíl","lat":-35.795506,"lon":-69.185029,"elevationM":1476},{"id":"node:4458347216","kind":"peak","name":"Cerro Andradino","lat":-35.9403882,"lon":-69.0106258,"elevationM":1762},{"id":"node:4458347217","kind":"peak","name":"Cerro Cerrito El Divisadero","lat":-35.806672,"lon":-69.0601664,"elevationM":1343},{"id":"node:4458347220","kind":"peak","name":"Cerro Coral","lat":-35.6447398,"lon":-69.0992322,"elevationM":1404},{"id":"node:4458347223","kind":"peak","name":"Cerro La Porteña","lat":-35.8652243,"lon":-69.0289288,"elevationM":1588},{"id":"node:4458347224","kind":"peak","name":"Cerro Las Ovejas","lat":-35.9785517,"lon":-69.0913882,"elevationM":1613},{"id":"node:4463478461","kind":"peak","name":"Cerro Serrucho","lat":-35.4180497,"lon":-69.9562018,"elevationM":3561},{"id":"node:4463478462","kind":"peak","name":"Cerro Torrecillas","lat":-35.5011945,"lon":-69.9772215,"elevationM":3738},{"id":"node:4463478463","kind":"peak","name":"Cerro de Las Minas","lat":-35.3592126,"lon":-69.9628789,"elevationM":3876},{"id":"node:4463749615","kind":"peak","name":"Cerro Aguada Escondida","lat":-35.3669939,"lon":-69.7703438,"elevationM":2934},{"id":"node:4463749616","kind":"peak","name":"Cerro Alto","lat":-35.4659647,"lon":-69.8712854,"elevationM":2777},{"id":"node:4463749617","kind":"peak","name":"Cerro Choiques","lat":-35.2325697,"lon":-69.7251053,"elevationM":1888},{"id":"node:4463749618","kind":"peak","name":"Cerro Colorado de La Quebrada Montosa","lat":-35.2294088,"lon":-69.8731849,"elevationM":3053},{"id":"node:4463749619","kind":"peak","name":"Cerro Horqueta","lat":-35.3863018,"lon":-69.7964118,"elevationM":2339},{"id":"node:4463749620","kind":"peak","name":"Cerro La Hoyada","lat":-35.3172339,"lon":-69.9385633,"elevationM":3889},{"id":"node:4463749621","kind":"peak","name":"Cerro Los Blancos","lat":-35.190821,"lon":-69.8664813,"elevationM":2829},{"id":"node:4463749622","kind":"peak","name":"Cerro Los Leones","lat":-35.4967727,"lon":-69.4496658,"elevationM":1390},{"id":"node:4463749623","kind":"peak","name":"Cerro Mallín Largo","lat":-35.2482778,"lon":-69.756134,"elevationM":2150},{"id":"node:4463749624","kind":"peak","name":"Cerro Mesa","lat":-35.3823232,"lon":-69.7223744,"elevationM":2076},{"id":"node:4463749625","kind":"peak","name":"Cerro Mollares","lat":-35.3357048,"lon":-69.7306471,"elevationM":2096},{"id":"node:4463749626","kind":"peak","name":"Cerro Morro Corrales","lat":-35.2891762,"lon":-69.8826246,"elevationM":3377},{"id":"node:4463749627","kind":"peak","name":"Cerro Morro","lat":-35.4253637,"lon":-69.8298879,"elevationM":2597},{"id":"node:4463749628","kind":"peak","name":"Cerro de Los Nucos","lat":-35.2720858,"lon":-69.9161718,"elevationM":3937},{"id":"node:4463749629","kind":"peak","name":"Cerro del Medio","lat":-35.3196663,"lon":-69.7999611,"elevationM":2206},{"id":"node:4463760523","kind":"peak","name":"Cerro Agua Caliente","lat":-35.0526716,"lon":-69.5945492,"elevationM":1797},{"id":"node:4463760528","kind":"peak","name":"Cerro El Boleadero","lat":-35.1599471,"lon":-69.733062,"elevationM":2003},{"id":"node:4463760532","kind":"peak","name":"Cerro Las Cabras","lat":-35.1368374,"lon":-69.7658024,"elevationM":2505},{"id":"node:4463760534","kind":"peak","name":"Cerro Las Hoyadas","lat":-35.1114894,"lon":-69.8971159,"elevationM":3029},{"id":"node:4463760540","kind":"peak","name":"Cerro Paraguay","lat":-35.0089205,"lon":-69.9615331,"elevationM":4589},{"id":"node:4463760550","kind":"peak","name":"Cerro de Las Vacas","lat":-35.0438599,"lon":-69.8789668,"elevationM":3035},{"id":"node:4463760552","kind":"peak","name":"Cerro de Los Pocitos","lat":-35.0275933,"lon":-69.3676071,"elevationM":1420},{"id":"node:4463760553","kind":"peak","name":"Cerro del Panul","lat":-35.0847844,"lon":-69.7776937,"elevationM":2388},{"id":"node:5723825754","kind":"peak","name":"Cerro Carapacho","lat":-35.8266734,"lon":-69.1459711,"elevationM":1485},{"id":"node:7679081195","kind":"peak","name":"Cerro Alforjas","lat":-35.7940939,"lon":-69.459343,"elevationM":1722},{"id":"node:7679081968","kind":"peak","name":"Cerro de las Piedras Blancas","lat":-35.7325178,"lon":-69.370696,"elevationM":1732},{"id":"node:7679133861","kind":"peak","name":"Cerro del Real","lat":-35.8523526,"lon":-69.3089355,"elevationM":1863},{"id":"node:7679156523","kind":"peak","name":"Cerrito Casa de Piedra","lat":-35.7963129,"lon":-69.6245993,"elevationM":1970},{"id":"node:7679214896","kind":"peak","name":"Cerro Risco Negro","lat":-35.8298354,"lon":-69.8656869,"elevationM":2453},{"id":"node:7679591823","kind":"peak","name":"Cerro de las Bardas Blancas","lat":-35.8498916,"lon":-69.821055,"elevationM":1979},{"id":"node:10112299050","kind":"peak","name":"Loma de la Vega","lat":-35.1568982,"lon":-69.9894334,"elevationM":2750},{"id":"node:10112386046","kind":"peak","name":"Cerro Corrales","lat":-35.2808349,"lon":-69.8965432,"elevationM":3515}]}