{"tileKey":"la_m49_lo_m74","version":"v1-1775891056926","entries":[{"id":"node:3284696646","kind":"peak","name":"Cerro Esperanza","lat":-48.3848715,"lon":-73.0946311,"elevationM":1320},{"id":"node:3284696656","kind":"peak","name":"Cerro Mayo","lat":-48.4155396,"lon":-73.1070649,"elevationM":1930},{"id":"node:3284698090","kind":"peak","name":"Cerro Mellizo Norte","lat":-48.5465961,"lon":-73.0646575,"elevationM":2000},{"id":"node:3284698112","kind":"peak","name":"Cerro Peine","lat":-48.6084233,"lon":-73.0701856,"elevationM":2070},{"id":"node:3284698266","kind":"peak","name":"Cerro Alesna","lat":-48.7489018,"lon":-73.0862245,"elevationM":2400},{"id":"node:3284698311","kind":"peak","name":"Cerro O'Higgins","lat":-48.8029361,"lon":-73.1586761,"elevationM":2911},{"id":"node:3308490027","kind":"peak","name":"Cerro Horacio","lat":-48.2893045,"lon":-73.0893629,"elevationM":1325},{"id":"node:3308490325","kind":"peak","name":"Cerro Menor","lat":-48.3161733,"lon":-73.0951342,"elevationM":1160},{"id":"node:3308492400","kind":"peak","name":"Cerro Mocho","lat":-48.6773591,"lon":-73.1640052,"elevationM":1810},{"id":"node:7869198612","kind":"peak","name":"Cerro Nublado","lat":-48.4107375,"lon":-73.2364404,"elevationM":1430},{"id":"node:7869198613","kind":"peak","name":"Cerro Azul","lat":-48.5150124,"lon":-73.1678725,"elevationM":3018},{"id":"node:7890710335","kind":"peak","name":"Cerro Ilse von Rentzell","lat":-48.7243438,"lon":-73.4229304,"elevationM":2408},{"id":"node:7890710336","kind":"peak","name":"Cerro Plüschow","lat":-48.7284114,"lon":-73.2518654,"elevationM":2469},{"id":"node:10616951949","kind":"peak","name":"Cerro el Celador","lat":-48.5281161,"lon":-73.2296276,"elevationM":null},{"id":"node:11320389547","kind":"peak","name":"Cerro Mellizo Sur","lat":-48.5548646,"lon":-73.1410644,"elevationM":3300},{"id":"node:11603558461","kind":"peak","name":"Cerro Pangrec","lat":-48.9878283,"lon":-73.4756184,"elevationM":2685}]}