{"tileKey":"la_m26_lo_m50","version":"v1-1775891056926","entries":[{"id":"node:833467992","kind":"peak","name":"Pedra Grande","lat":-25.1423256,"lon":-49.8967491,"elevationM":1055},{"id":"node:839652173","kind":"peak","name":"Pão de Loth","lat":-25.4130199,"lon":-49.0001085,"elevationM":1285},{"id":"node:839652207","kind":"peak","name":"Anhangava","lat":-25.3881793,"lon":-49.0019184,"elevationM":1430},{"id":"node:899525921","kind":"peak","name":"Morro Redondo","lat":-25.7516654,"lon":-49.0906835,"elevationM":1288},{"id":"node:1100351104","kind":"peak","name":"Morro da Palha","lat":-25.2996272,"lon":-49.4776992,"elevationM":1080},{"id":"node:2540368918","kind":"peak","name":"Morro da Rocinha","lat":-25.848511,"lon":-49.2713627,"elevationM":1136},{"id":"node:2965197455","kind":"peak","name":"Morro da Lagoinha","lat":-25.9524078,"lon":-49.2533958,"elevationM":1184},{"id":"node:3739762092","kind":"peak","name":"Morro da Cruz","lat":-25.2684428,"lon":-49.2233365,"elevationM":1200},{"id":"node:3739764494","kind":"peak","name":"Morro do Cal","lat":-25.3868239,"lon":-49.5526153,"elevationM":1120},{"id":"node:3741580185","kind":"peak","name":"Morro Felpudo","lat":-25.2267403,"lon":-49.8140036,"elevationM":1137},{"id":"node:3742562528","kind":"peak","name":"Morro do Bugio","lat":-25.2129648,"lon":-49.8719504,"elevationM":1146},{"id":"node:3742562540","kind":"peak","name":"Morro do Sapé","lat":-25.190115,"lon":-49.8951159,"elevationM":1117},{"id":"node:3742562543","kind":"peak","name":"Morro da Coroa","lat":-25.0796464,"lon":-49.9771057,"elevationM":1172},{"id":"node:3742899128","kind":"peak","name":"Morro Campina","lat":-25.1386593,"lon":-49.9132389,"elevationM":1099},{"id":"node:3742899172","kind":"peak","name":"Morro Grande","lat":-25.003978,"lon":-49.8793609,"elevationM":1058},{"id":"node:3743037037","kind":"peak","name":"Morro das Pombas","lat":-25.2301562,"lon":-49.3881328,"elevationM":1257},{"id":"node:3743037038","kind":"peak","name":"Morro Betara","lat":-25.2222861,"lon":-49.4197577,"elevationM":1190},{"id":"node:3743037104","kind":"peak","name":"Capão das Almas","lat":-25.2560234,"lon":-49.8298747,"elevationM":1107},{"id":"node:4732432361","kind":"peak","name":"Morro da Glória","lat":-25.2302824,"lon":-49.3890169,"elevationM":1230},{"id":"node:5489196473","kind":"peak","name":"Cordilheira do Santana","lat":-25.1115827,"lon":-49.1632404,"elevationM":1225},{"id":"node:5598724821","kind":"peak","name":"Morro da Gruta","lat":-25.2988975,"lon":-49.2812148,"elevationM":null},{"id":"node:6258984723","kind":"peak","name":"Morro Cerrinho","lat":-25.9268728,"lon":-49.0231419,"elevationM":1258},{"id":"node:10242331301","kind":"peak","name":"Samamabaia","lat":-25.3849408,"lon":-49.0013293,"elevationM":1345},{"id":"node:10576758739","kind":"peak","name":"Morro do Mossunguê","lat":-25.1981269,"lon":-49.3378606,"elevationM":1184},{"id":"node:10706798969","kind":"peak","name":"Serra da Bocaína","lat":-25.0624219,"lon":-49.0127032,"elevationM":1426},{"id":"node:11273362436","kind":"peak","name":"Morro do Sumidouro","lat":-25.2974859,"lon":-49.2750326,"elevationM":null},{"id":"node:11346398691","kind":"peak","name":"Morro da Cruz","lat":-25.9431411,"lon":-49.2659789,"elevationM":null},{"id":"node:11449351630","kind":"peak","name":"Pedra do Favo","lat":-25.1737546,"lon":-49.9681774,"elevationM":null},{"id":"node:12207935886","kind":"peak","name":"Morro Campininha","lat":-25.6903379,"lon":-49.0430217,"elevationM":null},{"id":"node:12394039006","kind":"peak","name":"Morro Endoença","lat":-25.3275088,"lon":-49.5088229,"elevationM":1156}]}