{"tileKey":"la_m15_lo_m44","version":"v1-1775891056926","entries":[{"id":"node:3422098808","kind":"peak","name":"Morro Itaúna","lat":-14.0653334,"lon":-43.0976,"elevationM":null},{"id":"node:4358110271","kind":"peak","name":"Morro do Aurélio","lat":-14.512011,"lon":-43.5488873,"elevationM":null},{"id":"node:4617532575","kind":"peak","name":"Serrote dos Três Irmãos","lat":-14.1763491,"lon":-43.0836893,"elevationM":null},{"id":"node:11159422564","kind":"peak","name":"Morro do Lagedinho","lat":-14.9134152,"lon":-43.6620712,"elevationM":null},{"id":"node:11159422599","kind":"peak","name":"Morro do Catarino","lat":-14.87864,"lon":-43.7313796,"elevationM":598},{"id":"node:11161419973","kind":"peak","name":"606","lat":-14.8155036,"lon":-43.3424807,"elevationM":null},{"id":"node:12999763688","kind":"peak","name":"Morro da Passagem","lat":-14.1444408,"lon":-43.0781222,"elevationM":626},{"id":"node:12999763691","kind":"peak","name":"Morro das Canas","lat":-14.000993,"lon":-43.0114532,"elevationM":610}]}