{"tileKey":"la_m24_lo_p117","version":"v1-1775891056926","entries":[{"id":"node:3020136906","kind":"peak","name":"Beasley Pinnacles","lat":-23.50481,"lon":117.10717,"elevationM":null},{"id":"node:3020140847","kind":"peak","name":"Mount Blair","lat":-23.44284,"lon":117.13742,"elevationM":380},{"id":"node:3020140850","kind":"peak","name":"Mount Boggola","lat":-23.79813,"lon":117.66213,"elevationM":680},{"id":"node:3020140856","kind":"peak","name":"Mount Bresnahan","lat":-23.82718,"lon":117.91177,"elevationM":680},{"id":"node:3020141058","kind":"peak","name":"Mount Elephant","lat":-23.54957,"lon":117.61275,"elevationM":480},{"id":"node:3020141336","kind":"peak","name":"Mount Maguire","lat":-23.33719,"lon":117.74922,"elevationM":null},{"id":"node:3020142038","kind":"peak","name":"Prismoid Hill","lat":-23.5369382,"lon":117.2726855,"elevationM":260},{"id":"node:3020142213","kind":"peak","name":"Table Hill","lat":-23.64563,"lon":117.46361,"elevationM":280}]}