{"tileKey":"la_m12_lo_m41","version":"v1-1775891056926","entries":[{"id":"node:8754522552","kind":"peak","name":"Morro do Horizonte","lat":-11.1918769,"lon":-40.4914664,"elevationM":781},{"id":"node:10212329256","kind":"peak","name":"Alto do Cruzeiro","lat":-11.1896033,"lon":-40.5095561,"elevationM":625},{"id":"node:10222313501","kind":"peak","name":"Morro da Santa Cruz","lat":-11.5012797,"lon":-40.0164297,"elevationM":377},{"id":"node:10238231079","kind":"peak","name":"Pico dos Payayas","lat":-11.3138142,"lon":-40.5047642,"elevationM":null},{"id":"node:10238244434","kind":"peak","name":"Rampa de Vôo Livre","lat":-11.194817,"lon":-40.4705431,"elevationM":null},{"id":"node:10982692737","kind":"peak","name":"Serra do Caqui","lat":-11.0036724,"lon":-40.4395538,"elevationM":null},{"id":"node:11585114789","kind":"peak","name":"Morro Santa Cruz do Monte","lat":-11.7337329,"lon":-40.124131,"elevationM":570},{"id":"node:12278917776","kind":"peak","name":"Pedras Altas","lat":-11.1528453,"lon":-40.0793052,"elevationM":517},{"id":"node:12282870295","kind":"peak","name":"Morro Pedra do Mocó","lat":-11.2658748,"lon":-40.8363533,"elevationM":845},{"id":"node:12282897915","kind":"peak","name":"Morro do Sobrado","lat":-11.2447878,"lon":-40.645938,"elevationM":716},{"id":"node:12282897916","kind":"peak","name":"Morro da Jurema","lat":-11.1926317,"lon":-40.6348658,"elevationM":677},{"id":"node:12282897929","kind":"peak","name":"Morro do Cruzeiro","lat":-11.0810687,"lon":-40.6419468,"elevationM":932},{"id":"node:12282897930","kind":"peak","name":"Serra do Tombador","lat":-11.0435206,"lon":-40.6223345,"elevationM":875},{"id":"node:12282897931","kind":"peak","name":"Morro de São Paulo","lat":-11.0380027,"lon":-40.6100607,"elevationM":769},{"id":"node:12282897975","kind":"peak","name":"Serra da Praça","lat":-11.0076737,"lon":-40.5943752,"elevationM":944},{"id":"node:12288274490","kind":"peak","name":"Morro do Albino","lat":-11.3201217,"lon":-40.8131791,"elevationM":883},{"id":"node:12290486682","kind":"peak","name":"Barra do Riacho","lat":-11.4058267,"lon":-40.2663947,"elevationM":null},{"id":"node:12290486714","kind":"peak","name":"Morro Alto","lat":-11.6611047,"lon":-40.4450083,"elevationM":650},{"id":"node:12851687912","kind":"peak","name":"Morro Redondo","lat":-11.7898114,"lon":-40.1522184,"elevationM":634}]}