{"tileKey":"la_m2_lo_m81","version":"v1-1775891056926","entries":[{"id":"node:249411665","kind":"peak","name":"Cerro de Paco","lat":-2,"lon":-80.1,"elevationM":null},{"id":"node:249416641","kind":"peak","name":"Cerro La Esperanza","lat":-1.5629904,"lon":-80.7579746,"elevationM":null},{"id":"node:249416644","kind":"peak","name":"Cerro Las Cañitas","lat":-1.575,"lon":-80.708333,"elevationM":null},{"id":"node:249416649","kind":"peak","name":"Cerro La Gotera","lat":-1.541667,"lon":-80.773611,"elevationM":null},{"id":"node:249416651","kind":"peak","name":"Cerro La Naranjita","lat":-1.516667,"lon":-80.722222,"elevationM":null},{"id":"node:249416654","kind":"peak","name":"Cerro El Chuchón","lat":-1.525,"lon":-80.808333,"elevationM":238},{"id":"node:249416656","kind":"peak","name":"Cerro La Naranja","lat":-1.6,"lon":-80.7,"elevationM":null},{"id":"node:249416658","kind":"peak","name":"Cerro La Laguna","lat":-1.6,"lon":-80.733333,"elevationM":440},{"id":"node:249416712","kind":"peak","name":"Cerro Corralitos","lat":-1.316667,"lon":-80.616667,"elevationM":null},{"id":"node:249416756","kind":"peak","name":"Cerro El Teniblero","lat":-1.291667,"lon":-80.675,"elevationM":null},{"id":"node:249416758","kind":"peak","name":"Cerro Rodaderos","lat":-1.266667,"lon":-80.666667,"elevationM":null},{"id":"node:249416761","kind":"peak","name":"Cerro de La Silla","lat":-1.2333971,"lon":-80.6666437,"elevationM":null},{"id":"node:249416763","kind":"peak","name":"Cerro Agua Nueva","lat":-1.175,"lon":-80.6,"elevationM":null},{"id":"node:249416771","kind":"peak","name":"Cerro El Cabuya","lat":-1.066667,"lon":-80.9,"elevationM":null},{"id":"node:249416781","kind":"peak","name":"Cerro Montecristi","lat":-1.0532398,"lon":-80.6703973,"elevationM":443},{"id":"node:249418299","kind":"peak","name":"Loma Alfaro","lat":-1.85,"lon":-80.716667,"elevationM":null},{"id":"node:249418300","kind":"peak","name":"Cerro El Gallo","lat":-1.805556,"lon":-80.683333,"elevationM":null},{"id":"node:4436334135","kind":"peak","name":"El Achiote","lat":-1.3939754,"lon":-80.2830434,"elevationM":325},{"id":"node:4436334139","kind":"peak","name":"La Palanca","lat":-1.3723953,"lon":-80.3004241,"elevationM":392},{"id":"node:8007785673","kind":"peak","name":"Cerro San Lorenzo","lat":-1.0593208,"lon":-80.9096209,"elevationM":70},{"id":"node:8575550279","kind":"peak","name":"Cerro El Gallinazo","lat":-1.2978206,"lon":-80.1858617,"elevationM":null},{"id":"node:8575550280","kind":"peak","name":"Cerro Los Escalones","lat":-1.3163552,"lon":-80.2089501,"elevationM":null},{"id":"node:8575550281","kind":"peak","name":"Cerro Tronador","lat":-1.3305993,"lon":-80.2163316,"elevationM":null},{"id":"node:8575550282","kind":"peak","name":"Cerro Piedra Blanca","lat":-1.3085467,"lon":-80.2419091,"elevationM":null},{"id":"node:8575550283","kind":"peak","name":"Cerro Buenavista","lat":-1.3095764,"lon":-80.2596761,"elevationM":null},{"id":"node:8575550284","kind":"peak","name":"Cerro Pancora","lat":-1.3283683,"lon":-80.263281,"elevationM":316},{"id":"node:8575550285","kind":"peak","name":"Cerro Los Guayacanes","lat":-1.3567276,"lon":-80.2208376,"elevationM":null},{"id":"node:8575550286","kind":"peak","name":"Cerro Punta Alta","lat":-1.3654369,"lon":-80.2142287,"elevationM":null},{"id":"node:8575550287","kind":"peak","name":"Loma Carne Asada","lat":-1.3647934,"lon":-80.201397,"elevationM":null},{"id":"node:8575550288","kind":"peak","name":"Cerro La Lopez","lat":-1.3628628,"lon":-80.1857758,"elevationM":null},{"id":"node:8575550289","kind":"peak","name":"Cerro Montenegro","lat":-1.3828127,"lon":-80.1595116,"elevationM":null},{"id":"node:8575550290","kind":"peak","name":"Loma La Piedra","lat":-1.4120722,"lon":-80.2032853,"elevationM":null},{"id":"node:11086035008","kind":"peak","name":"Cerro Paragüita","lat":-1.5498475,"lon":-80.7697263,"elevationM":null}]}