{"tileKey":"la_m9_lo_p121","version":"v1-1775891056926","entries":[{"id":"node:547907212","kind":"volcano","name":"Ebulobo","lat":-8.8154836,"lon":121.1913726,"elevationM":2124},{"id":"node:548146394","kind":"volcano","name":"Iya","lat":-8.8945945,"lon":121.6366073,"elevationM":637},{"id":"node:548151997","kind":"volcano","name":"Gunung Kelimutu","lat":-8.7651702,"lon":121.8133427,"elevationM":1639},{"id":"node:548217566","kind":"volcano","name":"Gunung Rokatenda","lat":-8.3338621,"lon":121.7103708,"elevationM":875},{"id":"node:1070155174","kind":"peak","name":"Wewo Riwu","lat":-8.4642,"lon":121.0426,"elevationM":null},{"id":"node:1070155181","kind":"peak","name":"Wolo Purumboro","lat":-8.6252655,"lon":121.5636759,"elevationM":null},{"id":"node:1070155295","kind":"peak","name":"Mbotu Woropeti","lat":-8.7824,"lon":121.4608,"elevationM":null},{"id":"node:1070155409","kind":"peak","name":"Wewo Ulungros","lat":-8.453,"lon":121.0777,"elevationM":null},{"id":"node:1070155531","kind":"peak","name":"Tolong Kolo","lat":-8.5439,"lon":121.0796,"elevationM":null},{"id":"node:1070155560","kind":"peak","name":"Wolo Neo","lat":-8.616968,"lon":121.733651,"elevationM":null},{"id":"node:1070155881","kind":"peak","name":"Wolo Leza","lat":-8.9329,"lon":121.014,"elevationM":null},{"id":"node:1070155970","kind":"peak","name":"Wewo Toring","lat":-8.4936,"lon":121.1101,"elevationM":null},{"id":"node:1070156191","kind":"peak","name":"Wolo Ba","lat":-8.5408,"lon":121.2675,"elevationM":null},{"id":"node:1070156426","kind":"peak","name":"Wolo Beo","lat":-8.8062,"lon":121.2972,"elevationM":null},{"id":"node:1070156447","kind":"peak","name":"Wewo Watucange","lat":-8.4955,"lon":121.227,"elevationM":null},{"id":"node:1070156539","kind":"peak","name":"Wolo Keli","lat":-8.8521,"lon":121.1143,"elevationM":null},{"id":"node:1070156640","kind":"peak","name":"Wolo Keikakodo","lat":-8.8994,"lon":121.3245,"elevationM":null},{"id":"node:1070156686","kind":"peak","name":"Wolo Ngusu","lat":-8.6385,"lon":121.0031,"elevationM":null},{"id":"node:1070156793","kind":"peak","name":"Keli Wuse","lat":-8.6875,"lon":121.4134,"elevationM":null},{"id":"node:1070156797","kind":"peak","name":"Wewo Tanabakok","lat":-8.4944,"lon":121.1676,"elevationM":null},{"id":"node:1070156815","kind":"peak","name":"Keli Rando","lat":-8.5481055,"lon":121.5819069,"elevationM":null},{"id":"node:1070156866","kind":"peak","name":"Wolo Wawe","lat":-8.6392,"lon":121.1016,"elevationM":null},{"id":"node:1070157021","kind":"peak","name":"Wolo Sudu","lat":-8.6084,"lon":121.441,"elevationM":null},{"id":"node:1070157197","kind":"peak","name":"Wolo Mere","lat":-8.6041,"lon":121.4988,"elevationM":null},{"id":"node:1070157322","kind":"peak","name":"Wewo Pandok","lat":-8.5353,"lon":121.2324,"elevationM":null},{"id":"node:1070157402","kind":"peak","name":"Keli Hangalande","lat":-8.6704,"lon":121.9586,"elevationM":null},{"id":"node:1070157472","kind":"peak","name":"Wolo Dodo","lat":-8.7655,"lon":121.3792,"elevationM":null},{"id":"node:1070157575","kind":"peak","name":"Mbotu Watuama","lat":-8.7146,"lon":121.6955,"elevationM":null},{"id":"node:1070157978","kind":"peak","name":"Wewo Tendo","lat":-8.4324,"lon":121.0238,"elevationM":null},{"id":"node:1070158027","kind":"peak","name":"Mbotu Melo","lat":-8.7116,"lon":121.7362,"elevationM":null},{"id":"node:1070158612","kind":"peak","name":"Keri Kasa","lat":-8.7250655,"lon":121.5163759,"elevationM":null},{"id":"node:1070158863","kind":"peak","name":"Tolong Namut","lat":-8.4969,"lon":121.0763,"elevationM":null},{"id":"node:1070158982","kind":"peak","name":"Keli Torha","lat":-8.8193,"lon":121.6324,"elevationM":null},{"id":"node:1070159021","kind":"peak","name":"Wolo Meda","lat":-8.5175,"lon":121.7632,"elevationM":null},{"id":"node:1070159043","kind":"peak","name":"Wolo Reremere","lat":-8.7185655,"lon":121.5091759,"elevationM":null},{"id":"node:1070159046","kind":"peak","name":"Wolo Rane","lat":-8.5771,"lon":121.3176,"elevationM":null},{"id":"node:1070159155","kind":"peak","name":"Keli Wongge","lat":-8.8154,"lon":121.66,"elevationM":null},{"id":"node:1070159159","kind":"peak","name":"Wolo Redu","lat":-8.6356,"lon":121.158,"elevationM":null},{"id":"node:1070159173","kind":"peak","name":"Wolo Pipibina","lat":-8.8488,"lon":121.0442,"elevationM":null},{"id":"node:1070159197","kind":"peak","name":"Keli Benu","lat":-8.8473,"lon":121.2532,"elevationM":null},{"id":"node:1070159220","kind":"peak","name":"Wolo Wumaugu","lat":-8.5644,"lon":121.3543,"elevationM":null},{"id":"node:1070159358","kind":"peak","name":"Keli Mutu","lat":-8.764313,"lon":121.8123266,"elevationM":1648},{"id":"node:1070159426","kind":"peak","name":"Keli Mbutuembundoko","lat":-8.663,"lon":121.6665,"elevationM":null},{"id":"node:1070159486","kind":"peak","name":"Mboto Nuamanu","lat":-8.5933,"lon":121.853,"elevationM":null},{"id":"node:1070159555","kind":"peak","name":"Wewo Tara","lat":-8.5744,"lon":121.1013,"elevationM":null},{"id":"node:1070159985","kind":"peak","name":"Woro Rendo","lat":-8.7849,"lon":121.6064,"elevationM":null},{"id":"node:1070160103","kind":"peak","name":"Wolo Olasoi","lat":-8.6796,"lon":121.4909,"elevationM":null},{"id":"node:1070160122","kind":"peak","name":"Keli Mele","lat":-8.7174,"lon":121.2412,"elevationM":null},{"id":"node:1070160178","kind":"peak","name":"Wolo Malakoli","lat":-8.6031,"lon":121.3992,"elevationM":null},{"id":"node:1070160217","kind":"peak","name":"Wewo Nggola","lat":-8.4221,"lon":121.0812,"elevationM":null},{"id":"node:1070160264","kind":"peak","name":"Woro Sambi","lat":-8.788,"lon":121.5957,"elevationM":null},{"id":"node:1070160347","kind":"peak","name":"Keli Ndati","lat":-8.6657,"lon":121.7971,"elevationM":null},{"id":"node:1070160439","kind":"peak","name":"Wolo Roka","lat":-8.8979,"lon":121.0592,"elevationM":null},{"id":"node:1070160465","kind":"peak","name":"Wolo Sanggajata","lat":-8.7271655,"lon":121.686792,"elevationM":null},{"id":"node:1070160519","kind":"peak","name":"Keli Watuapi","lat":-8.5613,"lon":121.8746,"elevationM":null},{"id":"node:1070160543","kind":"peak","name":"Wewo Golowura","lat":-8.4426,"lon":121.0752,"elevationM":null},{"id":"node:1070160702","kind":"peak","name":"Keli Duja","lat":-8.7153,"lon":121.3904,"elevationM":null},{"id":"node:1070160848","kind":"peak","name":"Wolo Pore","lat":-8.8211,"lon":121.0494,"elevationM":null},{"id":"node:1070160950","kind":"peak","name":"Wolo Taka","lat":-8.8403,"lon":121.3176,"elevationM":null},{"id":"node:1070160974","kind":"peak","name":"Wolo Nualela","lat":-8.6211805,"lon":121.5377429,"elevationM":null},{"id":"node:1070161111","kind":"peak","name":"Wolo Laka","lat":-8.6899,"lon":121.7859,"elevationM":null},{"id":"node:1070161163","kind":"peak","name":"Keli Onggajawa","lat":-8.6973,"lon":121.6532,"elevationM":null},{"id":"node:1070161231","kind":"peak","name":"Wolo Tandajata","lat":-8.5858405,"lon":121.5577119,"elevationM":null},{"id":"node:1070161283","kind":"peak","name":"Mbotu Puurea","lat":-8.8053,"lon":121.6243,"elevationM":null},{"id":"node:1070161306","kind":"peak","name":"Wewo Poso","lat":-8.4553,"lon":121.0693,"elevationM":null},{"id":"node:1070161454","kind":"peak","name":"Keli Nuja","lat":-8.7179,"lon":121.3799,"elevationM":null},{"id":"node:1070161460","kind":"peak","name":"Keli Watunesu","lat":-8.768,"lon":121.959,"elevationM":null},{"id":"node:1070161605","kind":"peak","name":"Tolong Mambang","lat":-8.5546,"lon":121.0897,"elevationM":null},{"id":"node:1070161652","kind":"peak","name":"Keli Kiku","lat":-8.7957,"lon":121.744,"elevationM":null},{"id":"node:1070161810","kind":"peak","name":"Wolo Turenelu","lat":-8.646,"lon":121.0096,"elevationM":null},{"id":"node:1070162062","kind":"peak","name":"Wolo Meze","lat":-8.6116,"lon":121.291,"elevationM":null},{"id":"node:1070162150","kind":"peak","name":"Keli Kima","lat":-8.5404,"lon":121.8905,"elevationM":null},{"id":"node:1070162217","kind":"peak","name":"Keli Jombepa","lat":-8.6907,"lon":121.4649,"elevationM":null},{"id":"node:1070162220","kind":"peak","name":"Wewo Kobodhadhi","lat":-8.4763,"lon":121.1616,"elevationM":null},{"id":"node:1070162354","kind":"peak","name":"Keli Ua","lat":-8.8584,"lon":121.2331,"elevationM":null},{"id":"node:1070162469","kind":"peak","name":"Keli Sao","lat":-8.7513,"lon":121.3858,"elevationM":null},{"id":"node:1070162541","kind":"peak","name":"Wolo Puaaya","lat":-8.5754,"lon":121.4671,"elevationM":null},{"id":"node:1070162651","kind":"peak","name":"Wolo Oladawe","lat":-8.608,"lon":121.2063,"elevationM":null},{"id":"node:1070162795","kind":"peak","name":"Wolo Bojogo","lat":-8.5988,"lon":121.4871,"elevationM":null},{"id":"node:1070162796","kind":"peak","name":"Woto Waturipe","lat":-8.785,"lon":121.4906,"elevationM":null},{"id":"node:1070162829","kind":"peak","name":"Wewo Waelobhak","lat":-8.5155,"lon":121.3159,"elevationM":null},{"id":"node:1070162959","kind":"peak","name":"Wewo Dhealatung","lat":-8.5123,"lon":121.2137,"elevationM":null},{"id":"node:1070163037","kind":"peak","name":"Wewo Teotawu","lat":-8.5593,"lon":121.2285,"elevationM":null},{"id":"node:1070163102","kind":"peak","name":"Keli Sora","lat":-8.6779,"lon":121.9469,"elevationM":null},{"id":"node:1070163123","kind":"peak","name":"Mbotu Roga","lat":-8.7556,"lon":121.4921,"elevationM":null},{"id":"node:1070163190","kind":"peak","name":"Mbotu Ljapolo","lat":-8.528038,"lon":121.612275,"elevationM":null},{"id":"node:1070163402","kind":"peak","name":"Mbotu Bari","lat":-8.7467,"lon":121.5055,"elevationM":null},{"id":"node:1070163523","kind":"peak","name":"Wolo Lele","lat":-8.8109,"lon":121.0132,"elevationM":null},{"id":"node:1070163567","kind":"peak","name":"Wewo Pongget","lat":-8.4715,"lon":121.2074,"elevationM":null},{"id":"node:1070163628","kind":"peak","name":"Wodo Manukima","lat":-8.6709,"lon":121.4961,"elevationM":null},{"id":"node:1070163663","kind":"peak","name":"Wolo Lemamole","lat":-8.5746,"lon":121.3326,"elevationM":null},{"id":"node:1070163809","kind":"peak","name":"Wolo Nangina","lat":-8.8142,"lon":121.3106,"elevationM":null},{"id":"node:1070163822","kind":"peak","name":"Wolo Tanatoro","lat":-8.6313,"lon":121.1936,"elevationM":null},{"id":"node:1070163902","kind":"peak","name":"Wolo Pau","lat":-8.6001,"lon":121.3636,"elevationM":null},{"id":"node:1070163984","kind":"peak","name":"Wolo Legeriwu","lat":-8.9222,"lon":121.0131,"elevationM":null},{"id":"node:1070164007","kind":"peak","name":"Wolo Tolawaja","lat":-8.8869,"lon":121.1648,"elevationM":null},{"id":"node:1070164044","kind":"peak","name":"Keli Bara","lat":-8.7928,"lon":121.8206,"elevationM":null},{"id":"node:1070164060","kind":"peak","name":"Wolo Begu","lat":-8.7478,"lon":121.236,"elevationM":null},{"id":"node:1070164215","kind":"peak","name":"Wewo Paakembo","lat":-8.5297,"lon":121.2528,"elevationM":null},{"id":"node:1070164261","kind":"peak","name":"Keli Titapanda","lat":-8.542507,"lon":121.74906,"elevationM":null},{"id":"node:1070164323","kind":"peak","name":"Wolo Bela","lat":-8.8616745,"lon":121.0466764,"elevationM":null},{"id":"node:1070164406","kind":"peak","name":"Keli Ngonde","lat":-8.7294,"lon":121.9132,"elevationM":null},{"id":"node:1070164427","kind":"peak","name":"Keli Koto","lat":-8.8734,"lon":121.3241,"elevationM":null},{"id":"node:1070164494","kind":"peak","name":"Wolo Nizuleza","lat":-8.7588,"lon":121.2307,"elevationM":null},{"id":"node:1070164607","kind":"peak","name":"Wolo Wea","lat":-8.6948,"lon":121.3871,"elevationM":null},{"id":"node:1070164610","kind":"peak","name":"Wewo Dhereng","lat":-8.4943,"lon":121.1289,"elevationM":null},{"id":"node:1070164620","kind":"peak","name":"Wolo Lebidhi","lat":-8.7303,"lon":121.2363,"elevationM":null},{"id":"node:1070164673","kind":"peak","name":"Wolo Anagara","lat":-8.6119,"lon":121.3998,"elevationM":null},{"id":"node:1070164709","kind":"peak","name":"Wewo Perebhela","lat":-8.5161,"lon":121.2351,"elevationM":null},{"id":"node:1070164922","kind":"peak","name":"Wolo Sojayenga","lat":-8.6014,"lon":121.4232,"elevationM":null},{"id":"node:1070164925","kind":"peak","name":"Keli Reo","lat":-8.8612,"lon":121.3254,"elevationM":null},{"id":"node:1070165028","kind":"peak","name":"Wewo Sepa","lat":-8.4368,"lon":121.0506,"elevationM":null},{"id":"node:1070165116","kind":"peak","name":"Keli Wai","lat":-8.7777655,"lon":121.693792,"elevationM":null},{"id":"node:1070165184","kind":"peak","name":"Wodo Karo","lat":-8.7142,"lon":121.4073,"elevationM":null},{"id":"node:1070165278","kind":"peak","name":"Keli Kiro","lat":-8.7088,"lon":121.6626,"elevationM":null},{"id":"node:1070166163","kind":"peak","name":"Keli Kodari","lat":-8.514596,"lon":121.737622,"elevationM":null},{"id":"node:1070166247","kind":"peak","name":"Keli Teojiri","lat":-8.7087,"lon":121.4626,"elevationM":null},{"id":"node:1070166323","kind":"peak","name":"Wolo Aepanda","lat":-8.5898875,"lon":121.5544059,"elevationM":null},{"id":"node:1070166709","kind":"peak","name":"Keli Aomasi","lat":-8.6989,"lon":121.8331,"elevationM":null},{"id":"node:1070166821","kind":"peak","name":"Keli Kengo","lat":-8.8277,"lon":121.6491,"elevationM":null},{"id":"node:1070167088","kind":"peak","name":"Keli Putuboro","lat":-8.5903435,"lon":121.5633739,"elevationM":null},{"id":"node:1070167338","kind":"peak","name":"Wewo Tea","lat":-8.4517,"lon":121.0265,"elevationM":null},{"id":"node:1070167728","kind":"peak","name":"Wolo Mbetudowa","lat":-8.826,"lon":121.6722,"elevationM":null},{"id":"node:1070167939","kind":"peak","name":"Woro Ngajo","lat":-8.7812,"lon":121.4878,"elevationM":null},{"id":"node:1070168470","kind":"peak","name":"Wolo Paiae","lat":-8.6246,"lon":121.178,"elevationM":null},{"id":"node:1070168698","kind":"peak","name":"Wolo Nanggembae","lat":-8.649,"lon":121.0163,"elevationM":null},{"id":"node:1070168770","kind":"peak","name":"Keli Samba","lat":-8.8142,"lon":121.9015,"elevationM":null},{"id":"node:1070168813","kind":"peak","name":"Wolo Fele","lat":-8.7973,"lon":121.2629,"elevationM":null},{"id":"node:1070168820","kind":"peak","name":"Wewo Dhacatung","lat":-8.4791,"lon":121.2363,"elevationM":null},{"id":"node:1070169215","kind":"peak","name":"Keli Mbuni","lat":-8.5176,"lon":121.8958,"elevationM":null},{"id":"node:1070169280","kind":"peak","name":"Keli Ngendu","lat":-8.6908,"lon":121.4458,"elevationM":null},{"id":"node:1070169286","kind":"peak","name":"Wewo Mbuang","lat":-8.4883,"lon":121.1723,"elevationM":null},{"id":"node:1070169351","kind":"peak","name":"Wolo Lele","lat":-8.8157,"lon":121.1521,"elevationM":null},{"id":"node:1070169366","kind":"peak","name":"Keli Ndota","lat":-8.5956,"lon":121.837,"elevationM":null},{"id":"node:1070169456","kind":"peak","name":"Wolo Batu","lat":-8.5874,"lon":121.2014,"elevationM":null},{"id":"node:1070169560","kind":"peak","name":"Keri Bonduwondo","lat":-8.7479,"lon":121.4466,"elevationM":null},{"id":"node:1070169629","kind":"peak","name":"Wolo Beli","lat":-8.6038,"lon":121.4553,"elevationM":null},{"id":"node:1070169736","kind":"peak","name":"Wolo Reni","lat":-8.6087,"lon":121.1892,"elevationM":null},{"id":"node:1070169814","kind":"peak","name":"Wodo Watubha","lat":-8.8315,"lon":121.3127,"elevationM":null},{"id":"node:1070169820","kind":"peak","name":"Wolo Watunira","lat":-8.6098,"lon":121.9454,"elevationM":null},{"id":"node:1070170045","kind":"peak","name":"Wolo Ngali","lat":-8.9117,"lon":121.0357,"elevationM":null},{"id":"node:1070170049","kind":"peak","name":"Keli Wuwu","lat":-8.7249,"lon":121.7177,"elevationM":null},{"id":"node:1070170108","kind":"peak","name":"Wolo Logojaro","lat":-8.5579,"lon":121.2344,"elevationM":null},{"id":"node:1070170129","kind":"peak","name":"Keli Pokongere","lat":-8.7663655,"lon":121.684792,"elevationM":null},{"id":"node:1070170163","kind":"peak","name":"Mbotu Nita","lat":-8.516617,"lon":121.630147,"elevationM":null},{"id":"node:1070170192","kind":"peak","name":"Mbotu Ndorurea","lat":-8.7655,"lon":121.4707,"elevationM":null},{"id":"node:1070170265","kind":"peak","name":"Mbotu Mbisu","lat":-8.5402395,"lon":121.6057529,"elevationM":null},{"id":"node:1070170349","kind":"peak","name":"Wolo Belu","lat":-8.8311,"lon":121.0623,"elevationM":null},{"id":"node:1070170390","kind":"peak","name":"Wolo Gone","lat":-8.6096,"lon":121.9723,"elevationM":null},{"id":"node:1070170436","kind":"peak","name":"Mbotu Nuamita","lat":-8.529587,"lon":121.70327,"elevationM":null},{"id":"node:1070170571","kind":"peak","name":"Wewo Lumpung","lat":-8.4825,"lon":121.106,"elevationM":null},{"id":"node:1070170613","kind":"peak","name":"Wolo Sasa","lat":-8.815,"lon":121.0554,"elevationM":null},{"id":"node:1070170679","kind":"peak","name":"Keli Mara","lat":-8.8288,"lon":121.6312,"elevationM":null},{"id":"node:1070170734","kind":"peak","name":"Keli Wumbu","lat":-8.5377,"lon":121.7574,"elevationM":null},{"id":"node:1070170813","kind":"peak","name":"Wolo Sehgomu","lat":-8.6982,"lon":121.3482,"elevationM":null},{"id":"node:1070170944","kind":"peak","name":"Wolo Sela","lat":-8.7072,"lon":121.1784,"elevationM":null},{"id":"node:1070170996","kind":"peak","name":"Wodo Ndoa","lat":-8.6509,"lon":121.4786,"elevationM":null},{"id":"node:1070170999","kind":"peak","name":"Wodo Papa","lat":-8.8459,"lon":121.3248,"elevationM":null},{"id":"node:1070171033","kind":"peak","name":"Wolo Wiju","lat":-8.5736,"lon":121.3549,"elevationM":null},{"id":"node:1070171146","kind":"peak","name":"Wolo Nuda","lat":-8.5805,"lon":121.052,"elevationM":null},{"id":"node:1070171160","kind":"peak","name":"Mbotu Detubalu","lat":-8.579576,"lon":121.732112,"elevationM":null},{"id":"node:1070171278","kind":"peak","name":"Keli Sake","lat":-8.7574301,"lon":121.7904901,"elevationM":1692},{"id":"node:1070171341","kind":"peak","name":"Wolo Poma","lat":-8.6619,"lon":121.1672,"elevationM":null},{"id":"node:1070171635","kind":"peak","name":"Keli Berindori","lat":-8.5474,"lon":121.8574,"elevationM":null},{"id":"node:1070171656","kind":"peak","name":"Wewo Koroksipi","lat":-8.5189,"lon":121.2553,"elevationM":null},{"id":"node:1070171752","kind":"peak","name":"Wolo Batundoa","lat":-8.466667,"lon":121.25,"elevationM":null},{"id":"node:1070171866","kind":"peak","name":"Wolu Amagelu","lat":-8.6826,"lon":121.2751,"elevationM":null},{"id":"node:1070171899","kind":"peak","name":"Wolo Pamo","lat":-8.5671,"lon":121.2824,"elevationM":null},{"id":"node:1070172145","kind":"peak","name":"Wodo Tena","lat":-8.6982,"lon":121.4036,"elevationM":null},{"id":"node:1070172158","kind":"peak","name":"Keli Kisa","lat":-8.6561,"lon":121.2437,"elevationM":null},{"id":"node:1070172211","kind":"peak","name":"Wolo Watubaya","lat":-8.575,"lon":121.4081,"elevationM":null},{"id":"node:1070172249","kind":"peak","name":"Wewo Nggolotendeng","lat":-8.5112,"lon":121.2198,"elevationM":null},{"id":"node:1070172466","kind":"peak","name":"Wolo Kotajogo","lat":-8.5842,"lon":121.4145,"elevationM":null},{"id":"node:1070172471","kind":"peak","name":"Wolo Lewa","lat":-8.8675,"lon":121.2694,"elevationM":null},{"id":"node:1070172714","kind":"peak","name":"Wewo Seru","lat":-8.4385,"lon":121.0052,"elevationM":null},{"id":"node:1070172939","kind":"peak","name":"Keli Mbumbu","lat":-8.7063,"lon":121.4261,"elevationM":null},{"id":"node:1070173045","kind":"peak","name":"Wewo Koka","lat":-8.5205,"lon":121.1366,"elevationM":null},{"id":"node:1070173151","kind":"peak","name":"Mbotu Pesirapa","lat":-8.6637,"lon":121.6371,"elevationM":null},{"id":"node:1070173164","kind":"peak","name":"Keli Wumbu","lat":-8.53086,"lon":121.746761,"elevationM":null},{"id":"node:1070173191","kind":"peak","name":"Keli Tenguronggo","lat":-8.7043,"lon":121.4288,"elevationM":null},{"id":"node:1070173223","kind":"peak","name":"Wolo Belenggo","lat":-8.6008315,"lon":121.5683709,"elevationM":null},{"id":"node:1070173264","kind":"peak","name":"Keli Ebulobo","lat":-8.8172,"lon":121.1904,"elevationM":2137},{"id":"node:1070173436","kind":"peak","name":"Wolo Waru","lat":-8.8852,"lon":121.1923,"elevationM":null},{"id":"node:1070173439","kind":"peak","name":"Keli Ndora","lat":-8.759,"lon":121.321,"elevationM":null},{"id":"node:1070173504","kind":"peak","name":"Woro Toinange","lat":-8.6510655,"lon":121.5413759,"elevationM":null},{"id":"node:1070173542","kind":"peak","name":"Wolo Loka","lat":-8.7839,"lon":121.2349,"elevationM":null},{"id":"node:1070173716","kind":"peak","name":"Mbotu Nitu","lat":-8.7802,"lon":121.4641,"elevationM":null},{"id":"node:1070173749","kind":"peak","name":"Wolo Seasoghi","lat":-8.6189,"lon":121.2966,"elevationM":null},{"id":"node:1070173788","kind":"peak","name":"Wewo Wulang","lat":-8.5376,"lon":121.1136,"elevationM":null},{"id":"node:1070173873","kind":"peak","name":"Mbotu Watungesu","lat":-8.539658,"lon":121.685353,"elevationM":null},{"id":"node:1070173917","kind":"peak","name":"Wolo Nana","lat":-8.7274,"lon":121.1943,"elevationM":null},{"id":"node:1070173989","kind":"peak","name":"Kezi Pui","lat":-8.8611385,"lon":121.6556048,"elevationM":null},{"id":"node:1070174162","kind":"peak","name":"Wewo Tongor","lat":-8.4788,"lon":121.2477,"elevationM":null},{"id":"node:1070174872","kind":"peak","name":"Wolo Ra","lat":-8.9084,"lon":121.0498,"elevationM":null},{"id":"node:1070175321","kind":"peak","name":"Keli Tuka","lat":-8.8134,"lon":121.2516,"elevationM":null},{"id":"node:1070175335","kind":"peak","name":"Wewo Mbaling","lat":-8.4877,"lon":121.156,"elevationM":null},{"id":"node:1070175488","kind":"peak","name":"Wolo Rateguru","lat":-8.5869,"lon":121.423,"elevationM":null},{"id":"node:1070175682","kind":"peak","name":"Keli Jawapogo","lat":-8.8518,"lon":121.1716,"elevationM":null},{"id":"node:1070175775","kind":"peak","name":"Wolo Bhudinage","lat":-8.5815,"lon":121.1877,"elevationM":null},{"id":"node:1070175904","kind":"peak","name":"Keri Ndoru","lat":-8.7473,"lon":121.4586,"elevationM":null},{"id":"node:1070175910","kind":"peak","name":"Wewo Goainazau","lat":-8.4601,"lon":121.1459,"elevationM":null},{"id":"node:1070175972","kind":"peak","name":"Wolo Watusua","lat":-8.6063,"lon":121.3843,"elevationM":null},{"id":"node:1070176264","kind":"peak","name":"Wolo Hangahera","lat":-8.6214,"lon":121.9571,"elevationM":null},{"id":"node:1070176328","kind":"peak","name":"Woro Tenggaropi","lat":-8.7916,"lon":121.4899,"elevationM":null},{"id":"node:1070176365","kind":"peak","name":"Wewo Lambacah","lat":-8.3849,"lon":121.013,"elevationM":null},{"id":"node:1070176450","kind":"peak","name":"Keli Aemota","lat":-8.7038,"lon":121.7183,"elevationM":null},{"id":"node:1070176516","kind":"peak","name":"Wolo Alattolo","lat":-8.5733,"lon":121.2188,"elevationM":null},{"id":"node:1070176525","kind":"peak","name":"Wolo Nuanaga","lat":-8.5422,"lon":121.9823,"elevationM":null},{"id":"node:1070176532","kind":"peak","name":"Keli Mboturabu","lat":-8.7666655,"lon":121.656992,"elevationM":null},{"id":"node:1070176596","kind":"peak","name":"Keli Fataleke","lat":-8.7135,"lon":121.4473,"elevationM":null},{"id":"node:1070176663","kind":"peak","name":"Keli Moda","lat":-8.8024,"lon":121.9566,"elevationM":null},{"id":"node:1070176758","kind":"peak","name":"Wolo Boba","lat":-8.8323,"lon":121.0901,"elevationM":null},{"id":"node:1070176800","kind":"peak","name":"Wolo Persili","lat":-8.528,"lon":121.9851,"elevationM":null},{"id":"node:1070176839","kind":"peak","name":"Wolo Waga","lat":-8.528637,"lon":121.722555,"elevationM":null},{"id":"node:1070176982","kind":"peak","name":"Wewo Sewu","lat":-8.492,"lon":121.119,"elevationM":null},{"id":"node:1070177016","kind":"peak","name":"Wolo Nggoleria","lat":-8.6112425,"lon":121.5774899,"elevationM":null},{"id":"node:1070177024","kind":"peak","name":"Wolo Roge","lat":-8.8005,"lon":121.065,"elevationM":null},{"id":"node:1070177066","kind":"peak","name":"Wewo Watubakok","lat":-8.4451,"lon":121.1769,"elevationM":null},{"id":"node:1070177069","kind":"peak","name":"Wolo Watusipi","lat":-8.8418,"lon":121.7181,"elevationM":null},{"id":"node:1070177225","kind":"peak","name":"Keli Puupode","lat":-8.6634,"lon":121.3934,"elevationM":null},{"id":"node:1070177305","kind":"peak","name":"Wolo Reduwawo","lat":-8.7325,"lon":121.2515,"elevationM":null},{"id":"node:1070177336","kind":"peak","name":"Wewo Loleng","lat":-8.4652,"lon":121.1156,"elevationM":null},{"id":"node:1070177349","kind":"peak","name":"Mbotu Tika","lat":-8.6915655,"lon":121.5887759,"elevationM":null},{"id":"node:1070177417","kind":"peak","name":"Wolo Sangi","lat":-8.8044,"lon":121.3685,"elevationM":null},{"id":"node:1070177430","kind":"peak","name":"Wolo Mbotuwe","lat":-8.7962655,"lon":121.645192,"elevationM":null},{"id":"node:1070177431","kind":"peak","name":"Wolo Gokapa","lat":-8.7012,"lon":121.1719,"elevationM":null},{"id":"node:1070177485","kind":"peak","name":"Keli Sika","lat":-8.6575,"lon":121.384,"elevationM":null},{"id":"node:1070177488","kind":"peak","name":"Wolo Nunutule","lat":-8.8452,"lon":121.2803,"elevationM":null},{"id":"node:1070177670","kind":"peak","name":"Keli Noito","lat":-8.7866,"lon":121.7839,"elevationM":null},{"id":"node:1070177687","kind":"peak","name":"Wolo Wea","lat":-8.7381,"lon":121.2419,"elevationM":null},{"id":"node:1070177838","kind":"peak","name":"Keli Mbota","lat":-8.5714,"lon":121.8592,"elevationM":null},{"id":"node:1070177866","kind":"peak","name":"Wewo Olang","lat":-8.5431,"lon":121.2591,"elevationM":null},{"id":"node:1070177969","kind":"peak","name":"Wolo Degha","lat":-8.8039,"lon":121.3025,"elevationM":null},{"id":"node:1070178007","kind":"peak","name":"Wolo Dagha","lat":-8.8507,"lon":121.1226,"elevationM":null},{"id":"node:1070178166","kind":"peak","name":"Wolo Kajolaki","lat":-8.5478,"lon":121.2615,"elevationM":null},{"id":"node:1070178322","kind":"peak","name":"Wodo Paka","lat":-8.688,"lon":121.4024,"elevationM":null},{"id":"node:1070178336","kind":"peak","name":"Wolo Watuzulu","lat":-8.7087,"lon":121.2338,"elevationM":null},{"id":"node:1070178353","kind":"peak","name":"Wolo Reakes","lat":-8.5392715,"lon":121.5680859,"elevationM":null},{"id":"node:1070178377","kind":"peak","name":"Keli Soke","lat":-8.718,"lon":121.8939,"elevationM":null},{"id":"node:1070178393","kind":"peak","name":"Wolo Anaiki","lat":-8.6035,"lon":121.4048,"elevationM":null},{"id":"node:1070178432","kind":"peak","name":"Wewo Golonaga","lat":-8.5215,"lon":121.2447,"elevationM":null},{"id":"node:1070178655","kind":"peak","name":"Wolo Togowea","lat":-8.6191,"lon":121.4287,"elevationM":null},{"id":"node:1070178764","kind":"peak","name":"Wewo Tenajawa","lat":-8.4387,"lon":121.0976,"elevationM":null},{"id":"node:1070178874","kind":"peak","name":"Wolo Duka","lat":-8.6831,"lon":121.3976,"elevationM":null},{"id":"node:1070178904","kind":"peak","name":"Keli Liakute","lat":-8.7071,"lon":121.6389,"elevationM":null},{"id":"node:1070178946","kind":"peak","name":"Keli Sawobeto","lat":-8.7042,"lon":121.3762,"elevationM":null},{"id":"node:1070179057","kind":"peak","name":"Wewo Mandung","lat":-8.4304,"lon":121.0459,"elevationM":null},{"id":"node:1070179130","kind":"peak","name":"Wolo Loa","lat":-8.5588,"lon":121.1668,"elevationM":null},{"id":"node:1070179178","kind":"peak","name":"Mbotu Ndomba","lat":-8.6673,"lon":121.63,"elevationM":null},{"id":"node:1070179220","kind":"peak","name":"Keli Tanambumbu","lat":-8.6999,"lon":121.4469,"elevationM":null},{"id":"node:1070179250","kind":"peak","name":"Keli Watublapi","lat":-8.7231,"lon":121.6953,"elevationM":null},{"id":"node:1070179508","kind":"peak","name":"Woro Watubarha","lat":-8.6742655,"lon":121.5439759,"elevationM":null},{"id":"node:1070179642","kind":"peak","name":"Keli Lepembusu","lat":-8.6728,"lon":121.8111,"elevationM":1754},{"id":"node:1070179812","kind":"peak","name":"Wewo Loa","lat":-8.5433,"lon":121.1095,"elevationM":null},{"id":"node:1070179941","kind":"peak","name":"Wolo Boalako","lat":-8.7336,"lon":121.1939,"elevationM":null},{"id":"node:1070180148","kind":"peak","name":"Keli Sopa","lat":-8.8085,"lon":121.9576,"elevationM":null},{"id":"node:1070180211","kind":"peak","name":"Wewo Wainipa","lat":-8.4789,"lon":121.1945,"elevationM":null},{"id":"node:1070180249","kind":"peak","name":"Keli Wolowatu","lat":-8.517923,"lon":121.646963,"elevationM":null},{"id":"node:1070180305","kind":"peak","name":"Keli Mbotuoja","lat":-8.6738,"lon":121.6628,"elevationM":null},{"id":"node:1070180547","kind":"peak","name":"Wewo Kinggiloe","lat":-8.4764,"lon":121.1499,"elevationM":null},{"id":"node:1070180608","kind":"peak","name":"Wolo Nila","lat":-8.799,"lon":121.2134,"elevationM":null},{"id":"node:1070180750","kind":"peak","name":"Keli Pondo","lat":-8.8638,"lon":121.1791,"elevationM":null},{"id":"node:1070180919","kind":"peak","name":"Wewo Ulujarang","lat":-8.4659,"lon":121.15,"elevationM":null},{"id":"node:1070180990","kind":"peak","name":"Wolo Yago","lat":-8.6229,"lon":121.3877,"elevationM":null},{"id":"node:1070181105","kind":"peak","name":"Wolo Ratuapi","lat":-8.6102,"lon":121.1795,"elevationM":null},{"id":"node:1070181191","kind":"peak","name":"Wolo Ratekepa","lat":-8.535,"lon":121.95,"elevationM":null},{"id":"node:1070181237","kind":"peak","name":"Keli Fatambewa","lat":-8.6922,"lon":121.9419,"elevationM":null},{"id":"node:1070181263","kind":"peak","name":"Wolo Siutoro","lat":-8.8985,"lon":121.0705,"elevationM":null},{"id":"node:1070181364","kind":"peak","name":"Wewo Wiu","lat":-8.4442,"lon":121.1162,"elevationM":null},{"id":"node:1070181432","kind":"peak","name":"Wolo Bhudilelo","lat":-8.5707,"lon":121.1671,"elevationM":null},{"id":"node:1070181441","kind":"peak","name":"Wolo Deturia","lat":-8.6099,"lon":121.9845,"elevationM":null},{"id":"node:1070181578","kind":"peak","name":"Mbotu Tendaregi","lat":-8.523763,"lon":121.623314,"elevationM":null},{"id":"node:1070181662","kind":"peak","name":"Wolo Nawa","lat":-8.8279393,"lon":121.0271004,"elevationM":null},{"id":"node:1070181832","kind":"peak","name":"Wolo Kolitubu","lat":-8.6088875,"lon":121.5462169,"elevationM":null},{"id":"node:1070181910","kind":"peak","name":"Wewo Cepawuk","lat":-8.4689,"lon":121.109,"elevationM":null},{"id":"node:1070181923","kind":"peak","name":"Keli Watumanu","lat":-8.7062655,"lon":121.5086759,"elevationM":null},{"id":"node:1070181945","kind":"peak","name":"Wolo Sogejawa","lat":-8.5661745,"lon":121.5925089,"elevationM":null},{"id":"node:1070181953","kind":"peak","name":"Wolo Pena","lat":-8.8061,"lon":121.0744,"elevationM":null},{"id":"node:1070181994","kind":"peak","name":"Wewo Tireng","lat":-8.4588,"lon":121.1797,"elevationM":null},{"id":"node:1070181996","kind":"peak","name":"Wolo Pale","lat":-8.9095,"lon":121.0417,"elevationM":null},{"id":"node:1070182060","kind":"peak","name":"Keli Toto","lat":-8.6611,"lon":121.4067,"elevationM":null},{"id":"node:1070182116","kind":"peak","name":"Keli Manuria","lat":-8.7085,"lon":121.9281,"elevationM":null},{"id":"node:1070182195","kind":"peak","name":"Wolo Watu","lat":-8.5846,"lon":121.8092,"elevationM":null},{"id":"node:1070182248","kind":"peak","name":"Wewo Cucumolas","lat":-8.4739,"lon":121.1155,"elevationM":null},{"id":"node:1070182274","kind":"peak","name":"Mbotu Tenda","lat":-8.7299,"lon":121.6196,"elevationM":null},{"id":"node:1070182436","kind":"peak","name":"Wolo Dalumutu","lat":-8.8172,"lon":121.3285,"elevationM":null},{"id":"node:1070182461","kind":"peak","name":"Keli Mbotupuutuga","lat":-8.8074,"lon":121.7043,"elevationM":null},{"id":"node:1070182599","kind":"peak","name":"Mbotu Ranu","lat":-8.7355,"lon":121.4802,"elevationM":null},{"id":"node:1070182656","kind":"peak","name":"Wolo Ayiku","lat":-8.6139,"lon":121.3641,"elevationM":null},{"id":"node:1070182692","kind":"peak","name":"Wolo Aemusu","lat":-8.506682,"lon":121.611522,"elevationM":null},{"id":"node:1070182792","kind":"peak","name":"Wolo Meza","lat":-8.574402,"lon":121.073261,"elevationM":null},{"id":"node:1070182845","kind":"peak","name":"Keli Rando","lat":-8.7997,"lon":121.7037,"elevationM":null},{"id":"node:1070182846","kind":"peak","name":"Wolo Padugoa","lat":-8.6579,"lon":121.2396,"elevationM":null},{"id":"node:1070183025","kind":"peak","name":"Keli Wolomota","lat":-8.789,"lon":121.9907,"elevationM":null},{"id":"node:1070183066","kind":"peak","name":"Wewo Rasek","lat":-8.5429,"lon":121.2506,"elevationM":null},{"id":"node:1070183205","kind":"peak","name":"Wolo Tolorojo","lat":-8.8588959,"lon":121.0318881,"elevationM":null},{"id":"node:1070183303","kind":"peak","name":"Wolo Umuare","lat":-8.5497595,"lon":121.5689029,"elevationM":null},{"id":"node:1070183401","kind":"peak","name":"Wolo Lada","lat":-8.5962,"lon":121.2874,"elevationM":null},{"id":"node:1070183478","kind":"peak","name":"Wolo Werea","lat":-8.5696,"lon":121.2243,"elevationM":null},{"id":"node:1070183563","kind":"peak","name":"Keli Ledabaga","lat":-8.6549,"lon":121.9742,"elevationM":null},{"id":"node:1070183581","kind":"peak","name":"Keli Sawomulu","lat":-8.6863,"lon":121.3773,"elevationM":null},{"id":"node:1070183593","kind":"peak","name":"Wewo Nasijarang","lat":-8.4683,"lon":121.1599,"elevationM":null},{"id":"node:1070183626","kind":"peak","name":"Wolo Analoo","lat":-8.5429195,"lon":121.5710119,"elevationM":null},{"id":"node:1070183806","kind":"peak","name":"Wewo Lamdoanging","lat":-8.5038,"lon":121.1838,"elevationM":null},{"id":"node:1070184145","kind":"peak","name":"Keli Kotajawa","lat":-8.6836,"lon":121.4312,"elevationM":null},{"id":"node:1070184240","kind":"peak","name":"Wolo Wawa","lat":-8.6154,"lon":121.4207,"elevationM":null},{"id":"node:1070184242","kind":"peak","name":"Mbotu Serararo","lat":-8.7214,"lon":121.4939,"elevationM":null},{"id":"node:1070184596","kind":"peak","name":"Tolong Ndwu","lat":-8.5024,"lon":121.0504,"elevationM":null},{"id":"node:1070184717","kind":"peak","name":"Wewo Imbung","lat":-8.442,"lon":121.097,"elevationM":null},{"id":"node:1070184994","kind":"peak","name":"Wolo Tadhomari","lat":-8.556,"lon":121.1704,"elevationM":null},{"id":"node:1070185010","kind":"peak","name":"Keli Watuwawi","lat":-8.6779,"lon":121.4282,"elevationM":null},{"id":"node:1070185133","kind":"peak","name":"Liawawi","lat":-8.7094,"lon":121.6438,"elevationM":null},{"id":"node:1070185321","kind":"peak","name":"Wolo Suna","lat":-8.7152,"lon":121.4553,"elevationM":null},{"id":"node:1070185733","kind":"peak","name":"Wewo Teoka","lat":-8.5115,"lon":121.208,"elevationM":null},{"id":"node:1070186011","kind":"peak","name":"Wolo Mudebeze","lat":-8.5525,"lon":121.1692,"elevationM":null},{"id":"node:1070186136","kind":"peak","name":"Mbotu Wombo","lat":-8.582538,"lon":121.650612,"elevationM":null},{"id":"node:1070186155","kind":"peak","name":"Wolo Seghosera","lat":-8.7016,"lon":121.4906,"elevationM":null},{"id":"node:1070186191","kind":"peak","name":"Keli Watuwisa","lat":-8.7235,"lon":121.7064,"elevationM":null},{"id":"node:1070186333","kind":"peak","name":"Wolo Wiyo","lat":-8.8839,"lon":121.2043,"elevationM":null},{"id":"node:1070186336","kind":"peak","name":"Wolo Rado","lat":-8.7546,"lon":121.3133,"elevationM":null},{"id":"node:1070186390","kind":"peak","name":"Keri Watumeko","lat":-8.7279,"lon":121.524,"elevationM":null},{"id":"node:1070186690","kind":"peak","name":"Wolo Malakupe","lat":-8.5902,"lon":121.3212,"elevationM":null},{"id":"node:1070186925","kind":"peak","name":"Wolo Witupie","lat":-8.6505,"lon":121.185,"elevationM":null},{"id":"node:1070187069","kind":"peak","name":"Keli Aesele","lat":-8.8126,"lon":121.9056,"elevationM":null},{"id":"node:1070187070","kind":"peak","name":"Keli Kera","lat":-8.89,"lon":121.1607,"elevationM":null},{"id":"node:1070187078","kind":"peak","name":"Mbotu Susumola","lat":-8.547672,"lon":121.657768,"elevationM":null},{"id":"node:1070187099","kind":"peak","name":"Keli Nabe","lat":-8.8344,"lon":121.7722,"elevationM":null},{"id":"node:1070187101","kind":"peak","name":"Wewo Rowet","lat":-8.4763,"lon":121.233,"elevationM":null},{"id":"node:1070187325","kind":"peak","name":"Wewo Golibasa","lat":-8.4841,"lon":121.1649,"elevationM":null},{"id":"node:1070187359","kind":"peak","name":"Keli Mbotudura","lat":-8.7288,"lon":121.9414,"elevationM":null},{"id":"node:1070187371","kind":"peak","name":"Wolo Kela","lat":-8.8147,"lon":121.2341,"elevationM":null},{"id":"node:1070187380","kind":"peak","name":"Mboto Krupake","lat":-8.6214,"lon":121.8453,"elevationM":null},{"id":"node:1070187423","kind":"peak","name":"Wolo Ngina","lat":-8.8115,"lon":121.1367,"elevationM":null},{"id":"node:1070187448","kind":"peak","name":"Wewo Dhawe","lat":-8.5973,"lon":121.2419,"elevationM":null},{"id":"node:1070187482","kind":"peak","name":"Mbotu Kalau","lat":-8.611125,"lon":121.636784,"elevationM":null},{"id":"node:1070187501","kind":"peak","name":"Wolo Niokoli","lat":-8.6921,"lon":121.484,"elevationM":null},{"id":"node:1070187505","kind":"peak","name":"Wewo Dhalodhadi","lat":-8.4805,"lon":121.1313,"elevationM":null},{"id":"node:1070187548","kind":"peak","name":"Wolo Gegekapa","lat":-8.5917,"lon":121.3873,"elevationM":null},{"id":"node:1070187682","kind":"peak","name":"Keli Lande","lat":-8.5717,"lon":121.9433,"elevationM":null},{"id":"node:1070187728","kind":"peak","name":"Keli Anggi","lat":-8.7101,"lon":121.4537,"elevationM":null},{"id":"node:1070187733","kind":"peak","name":"Wolo Beo","lat":-8.8989,"lon":121.0807,"elevationM":null},{"id":"node:1070187753","kind":"peak","name":"Wolo Mowa","lat":-8.6299,"lon":121.0422,"elevationM":null},{"id":"node:1070187804","kind":"peak","name":"Wewo Londotimur","lat":-8.4555,"lon":121.0898,"elevationM":null},{"id":"node:1070187863","kind":"peak","name":"Wolo Geisange","lat":-8.7668655,"lon":121.696892,"elevationM":null},{"id":"node:1070187907","kind":"peak","name":"Keli Fatandanu","lat":-8.7141,"lon":121.4353,"elevationM":null},{"id":"node:1070187927","kind":"peak","name":"Keli Tendabongi Dua","lat":-8.7169,"lon":121.6746,"elevationM":null},{"id":"node:1070187953","kind":"peak","name":"Keli Loke","lat":-8.7852,"lon":121.9533,"elevationM":null},{"id":"node:1070188009","kind":"peak","name":"Wolo Soge","lat":-8.8366959,"lon":121.0327,"elevationM":null},{"id":"node:1070188062","kind":"peak","name":"Mbotu Manulela","lat":-8.601447,"lon":121.674512,"elevationM":null},{"id":"node:1070188156","kind":"peak","name":"Tolong Bonelangi","lat":-8.4721,"lon":121.0908,"elevationM":null},{"id":"node:1070188163","kind":"peak","name":"Wolo Nusaloo","lat":-8.5938775,"lon":121.5423219,"elevationM":null},{"id":"node:1070188194","kind":"peak","name":"Keli Wolomage","lat":-8.7297,"lon":121.7523,"elevationM":null},{"id":"node:1070188215","kind":"peak","name":"Wewo Watulajar","lat":-8.4324,"lon":121.1411,"elevationM":null},{"id":"node:1070188324","kind":"peak","name":"Wolo Songge","lat":-8.5204,"lon":121.8104,"elevationM":null},{"id":"node:1070188341","kind":"peak","name":"Wewo Buru","lat":-8.4575,"lon":121.0281,"elevationM":null},{"id":"node:1070188468","kind":"peak","name":"Wodo Beda","lat":-8.7346,"lon":121.3847,"elevationM":null},{"id":"node:1070188477","kind":"peak","name":"Wodo Rita","lat":-8.847,"lon":121.3321,"elevationM":null},{"id":"node:1070188697","kind":"peak","name":"Wolo Lobobutu","lat":-8.5781,"lon":121.0254,"elevationM":null},{"id":"node:1070188703","kind":"peak","name":"Mbotu Lepembuku","lat":-8.5632,"lon":121.6897,"elevationM":null},{"id":"node:1070188731","kind":"peak","name":"Keli Pusumuku","lat":-8.7967655,"lon":121.685392,"elevationM":null},{"id":"node:1070189144","kind":"peak","name":"Wolo Sangatoro","lat":-8.5632,"lon":121.2895,"elevationM":null},{"id":"node:1070189319","kind":"peak","name":"Wolo Logotebe","lat":-8.8027,"lon":121.2689,"elevationM":null},{"id":"node:1070189651","kind":"peak","name":"Wolo Utekapa","lat":-8.5913,"lon":121.3042,"elevationM":null},{"id":"node:1070189845","kind":"peak","name":"Rokatenda","lat":-8.3289925,"lon":121.7100963,"elevationM":875},{"id":"node:1070189976","kind":"peak","name":"Keli Tendai","lat":-8.6841,"lon":121.4202,"elevationM":null},{"id":"node:1070189983","kind":"peak","name":"Wewo Bunge","lat":-8.4702,"lon":121.1702,"elevationM":null},{"id":"node:1070190173","kind":"peak","name":"Wolo Laki","lat":-8.6303,"lon":121.0931,"elevationM":null},{"id":"node:1070190801","kind":"peak","name":"Wolo Wowa","lat":-8.6185,"lon":121.4453,"elevationM":null},{"id":"node:1070190871","kind":"peak","name":"Wolo Muo","lat":-8.6261,"lon":121.0689,"elevationM":null},{"id":"node:1070191150","kind":"peak","name":"Mbotu Wolokoja","lat":-8.555955,"lon":121.62868,"elevationM":null},{"id":"node:1070191209","kind":"peak","name":"Wolo Kengo","lat":-8.8306,"lon":121.2506,"elevationM":null},{"id":"node:1070191341","kind":"peak","name":"Keli Nirajawa","lat":-8.7095,"lon":121.4683,"elevationM":null},{"id":"node:1070191544","kind":"peak","name":"Wewo Bunggadhadhik","lat":-8.5207,"lon":121.159,"elevationM":null},{"id":"node:1070191683","kind":"peak","name":"Wewo Nunutua","lat":-8.549,"lon":121.2441,"elevationM":null},{"id":"node:1070191866","kind":"peak","name":"Keri Ondorea","lat":-8.761,"lon":121.4344,"elevationM":null},{"id":"node:1070192409","kind":"peak","name":"Wewo Golobela","lat":-8.4184,"lon":121.0369,"elevationM":null},{"id":"node:1070192626","kind":"peak","name":"Wolo Tayu","lat":-8.8878,"lon":121.2064,"elevationM":null},{"id":"node:1070192632","kind":"peak","name":"Wolo Mogo","lat":-8.7596,"lon":121.3141,"elevationM":null},{"id":"node:1070192770","kind":"peak","name":"Woro Warimboro","lat":-8.6277655,"lon":121.5451759,"elevationM":null},{"id":"node:1070193037","kind":"peak","name":"Wolo Kapa","lat":-8.8212767,"lon":121.0053201,"elevationM":null},{"id":"node:1070193131","kind":"peak","name":"Wolo Ria","lat":-8.8192,"lon":121.7328,"elevationM":null},{"id":"node:1070193268","kind":"peak","name":"Wolo Watusua","lat":-8.5347,"lon":121.7678,"elevationM":null},{"id":"node:1070193328","kind":"peak","name":"Wolo Mboapelo","lat":-8.6789,"lon":121.5013,"elevationM":null},{"id":"node:1070193336","kind":"peak","name":"Wolo Sope","lat":-8.6247,"lon":121.3197,"elevationM":null},{"id":"node:1070193410","kind":"peak","name":"Wewo Leudunda","lat":-8.5235,"lon":121.0889,"elevationM":null},{"id":"node:1070193547","kind":"peak","name":"Wolo Siwu","lat":-8.8886,"lon":121.1309,"elevationM":null},{"id":"node:1070193652","kind":"peak","name":"Wolo Tububade","lat":-8.8109,"lon":121.7334,"elevationM":null},{"id":"node:1070193656","kind":"peak","name":"Wolo Olabula","lat":-8.6983,"lon":121.1303,"elevationM":null},{"id":"node:1070193698","kind":"peak","name":"Wolo Hoboltda","lat":-8.8447853,"lon":121.0223961,"elevationM":null},{"id":"node:1070193837","kind":"peak","name":"Wolo Wonapue","lat":-8.5695,"lon":121.3525,"elevationM":null},{"id":"node:1070194050","kind":"peak","name":"Wolo Neke","lat":-8.8909,"lon":121.1508,"elevationM":null},{"id":"node:1070194074","kind":"peak","name":"Wolo Wuwu","lat":-8.585029,"lon":121.737793,"elevationM":null},{"id":"node:1070194325","kind":"peak","name":"Mbotu Gaeara","lat":-8.6794,"lon":121.6463,"elevationM":null},{"id":"node:1070194365","kind":"peak","name":"Keli Lambo","lat":-8.65,"lon":121.316667,"elevationM":null},{"id":"node:1070194480","kind":"peak","name":"Wewo Korojawa","lat":-8.5142,"lon":121.2557,"elevationM":null},{"id":"node:1070194844","kind":"peak","name":"Wolo Natamude","lat":-8.8161,"lon":121.2633,"elevationM":null},{"id":"node:1070194951","kind":"peak","name":"Keli Tananua","lat":-8.7305,"lon":121.9718,"elevationM":1093},{"id":"node:1070194992","kind":"peak","name":"Wolo Beli","lat":-8.6843,"lon":121.3184,"elevationM":null},{"id":"node:1070195133","kind":"peak","name":"Keli Nata","lat":-8.8563,"lon":121.1688,"elevationM":null},{"id":"node:1070195362","kind":"peak","name":"Wewo Cipawa","lat":-8.4712,"lon":121.1302,"elevationM":null},{"id":"node:1070195485","kind":"peak","name":"Wolo Pau","lat":-8.5883,"lon":121.3824,"elevationM":null},{"id":"node:1070195560","kind":"peak","name":"Wewo Buir","lat":-8.4164269,"lon":121.0110478,"elevationM":375},{"id":"node:1070195829","kind":"peak","name":"Keli Toe","lat":-8.8901,"lon":121.2333,"elevationM":null},{"id":"node:1070196136","kind":"peak","name":"Keli Watuea","lat":-8.8695,"lon":121.2735,"elevationM":null},{"id":"node:1070196147","kind":"peak","name":"Wolo Batulaba","lat":-8.8962,"lon":121.0451,"elevationM":null},{"id":"node:1070196198","kind":"peak","name":"Mbotu Tendabongi Satu","lat":-8.7392655,"lon":121.672692,"elevationM":null},{"id":"node:1070196217","kind":"peak","name":"Wewo Toring","lat":-8.5032,"lon":121.1321,"elevationM":null},{"id":"node:1070196365","kind":"peak","name":"Wewo Timus","lat":-8.4495,"lon":121.0451,"elevationM":null},{"id":"node:1070196459","kind":"peak","name":"Wolo Piu","lat":-8.8834,"lon":121.0188,"elevationM":null},{"id":"node:1070196529","kind":"peak","name":"Keli Theoaemeti","lat":-8.7151,"lon":121.4413,"elevationM":null},{"id":"node:1070196562","kind":"peak","name":"Nggaja","lat":-8.7248,"lon":121.668,"elevationM":null},{"id":"node:1070196601","kind":"peak","name":"Keli Jawabombo","lat":-8.7892,"lon":121.9526,"elevationM":null},{"id":"node:1070196843","kind":"peak","name":"Wolo Seotora","lat":-8.8361,"lon":121.3157,"elevationM":null},{"id":"node:1070196875","kind":"peak","name":"Wolo Susumola","lat":-8.6179125,"lon":121.5512899,"elevationM":null},{"id":"node:1070197077","kind":"peak","name":"Wewo Bhoambay","lat":-8.4368,"lon":121.1554,"elevationM":null},{"id":"node:1070197105","kind":"peak","name":"Keli Mbero","lat":-8.7092,"lon":121.6549,"elevationM":null},{"id":"node:3891186290","kind":"volcano","name":"Paluweh","lat":-8.32,"lon":121.708,"elevationM":null},{"id":"node:3891186322","kind":"volcano","name":"Sukaria Caldera","lat":-8.792,"lon":121.77,"elevationM":1500},{"id":"node:5289475148","kind":"volcano","name":"Kawah Panas","lat":-8.7490525,"lon":121.830131,"elevationM":null},{"id":"node:5829583238","kind":"peak","name":"Iya","lat":-8.8914159,"lon":121.6411708,"elevationM":657},{"id":"node:10265119254","kind":"volcano","name":"Kezi Pui","lat":-8.862408,"lon":121.6558063,"elevationM":null},{"id":"node:12715704753","kind":"peak","name":"Wolo Manunai","lat":-8.3344638,"lon":121.7067836,"elevationM":684},{"id":"node:12715704754","kind":"peak","name":"Wolo Waturopala","lat":-8.3327717,"lon":121.7276812,"elevationM":463}]}