{"tileKey":"la_m8_lo_p112","version":"v1-1775891056926","entries":[{"id":"node:59073041","kind":"volcano","name":"Gunung Bromo","lat":-7.9420691,"lon":112.9529769,"elevationM":2329},{"id":"node:449697393","kind":"volcano","name":"Arjuno-Welirang","lat":-7.7342623,"lon":112.5749939,"elevationM":3339},{"id":"node:449702647","kind":"volcano","name":"Gunung Kelud","lat":-7.9389217,"lon":112.3052492,"elevationM":null},{"id":"node:547834427","kind":"volcano","name":"Gunung Penanggungan","lat":-7.6156599,"lon":112.6200569,"elevationM":1653},{"id":"node:1070155054","kind":"peak","name":"Gunung Luksongo","lat":-7.8486,"lon":112.3524,"elevationM":null},{"id":"node:1070155140","kind":"peak","name":"Gunung Batukucing","lat":-7.0592,"lon":112.9668,"elevationM":null},{"id":"node:1070155189","kind":"peak","name":"Gunung Garit","lat":-7.4789,"lon":112.0475,"elevationM":null},{"id":"node:1070155281","kind":"peak","name":"Gunung Argowayang","lat":-7.7729,"lon":112.4302,"elevationM":null},{"id":"node:1070155323","kind":"peak","name":"Gunung Langse","lat":-7.917222,"lon":112.518056,"elevationM":null},{"id":"node:1070155331","kind":"peak","name":"Gunung Tumbakan","lat":-7.768,"lon":112.4659,"elevationM":null},{"id":"node:1070155464","kind":"peak","name":"Gunung Pusungtuna","lat":-7.7277,"lon":112.514,"elevationM":null},{"id":"node:1070155473","kind":"peak","name":"Petukangan","lat":-7.174722,"lon":112.639444,"elevationM":null},{"id":"node:1070155692","kind":"peak","name":"Gunung Nol","lat":-7.0180266,"lon":112.0146275,"elevationM":405},{"id":"node:1070156035","kind":"peak","name":"Gunung Pegat","lat":-7.775,"lon":112.411,"elevationM":null},{"id":"node:1070156650","kind":"peak","name":"Gunung Kawi (Puncak Redi Kawi)","lat":-7.9179037,"lon":112.4518371,"elevationM":2651},{"id":"node:1070156780","kind":"peak","name":"Gunung Telimo","lat":-7.4028,"lon":112.1682,"elevationM":null},{"id":"node:1070156930","kind":"peak","name":"Gunung Seloungkat","lat":-7.6949336,"lon":112.5824817,"elevationM":null},{"id":"node:1070157002","kind":"peak","name":"Gunung Asenan","lat":-7.075,"lon":112.980278,"elevationM":null},{"id":"node:1070157010","kind":"peak","name":"Gunung Petungamolok","lat":-7.777,"lon":112.4752,"elevationM":null},{"id":"node:1070157186","kind":"peak","name":"Gunung Gentonggowok","lat":-7.7793,"lon":112.4558,"elevationM":null},{"id":"node:1070157367","kind":"peak","name":"Gunung Sari","lat":-7.9684012,"lon":112.5578735,"elevationM":null},{"id":"node:1070157611","kind":"peak","name":"Gunung Jamajam","lat":-7.126111,"lon":112.867778,"elevationM":null},{"id":"node:1070158643","kind":"peak","name":"Sabarrh","lat":-7.1225,"lon":112.818889,"elevationM":null},{"id":"node:1070158700","kind":"peak","name":"Gunung Kampek","lat":-7.0326,"lon":112.8232,"elevationM":null},{"id":"node:1070158937","kind":"peak","name":"Gunung Ungkal","lat":-7.4933,"lon":112.0186,"elevationM":null},{"id":"node:1070158964","kind":"peak","name":"Gunung Gondomayit","lat":-7.886,"lon":112.6935,"elevationM":null},{"id":"node:1070159059","kind":"peak","name":"Gunung Kambang","lat":-7.9291151,"lon":112.3064875,"elevationM":null},{"id":"node:1070159441","kind":"peak","name":"Gunung Panderman","lat":-7.9025608,"lon":112.4976897,"elevationM":null},{"id":"node:1070159527","kind":"peak","name":"Gunung Mungal","lat":-7.9314,"lon":112.9248,"elevationM":null},{"id":"node:1070159577","kind":"peak","name":"Gunung Gong","lat":-7.8896,"lon":112.7324,"elevationM":null},{"id":"node:1070159642","kind":"peak","name":"Gunung Begadung","lat":-7.8608,"lon":112.3965,"elevationM":null},{"id":"node:1070159929","kind":"peak","name":"Pusung Tegalkuwung","lat":-7.9634,"lon":112.9166,"elevationM":null},{"id":"node:1070160190","kind":"peak","name":"Gunung Nangger","lat":-7.1218,"lon":112.8138,"elevationM":null},{"id":"node:1070160314","kind":"peak","name":"Gunung Serayu","lat":-7.8656,"lon":112.7658,"elevationM":null},{"id":"node:1070160420","kind":"peak","name":"Gunung Ukir","lat":-7.8915,"lon":112.5659,"elevationM":null},{"id":"node:1070160487","kind":"peak","name":"Gunung Paranggembong","lat":-7.8989,"lon":112.444,"elevationM":null},{"id":"node:1070160518","kind":"peak","name":"Gunung Pilang","lat":-7.8444,"lon":112.7136,"elevationM":null},{"id":"node:1070160567","kind":"peak","name":"Gunung Guwopawon","lat":-7.0437,"lon":112.0124,"elevationM":null},{"id":"node:1070160743","kind":"peak","name":"Gunung Kencur","lat":-7.846389,"lon":112.5925,"elevationM":null},{"id":"node:1070161189","kind":"peak","name":"Gunung Kojor","lat":-7.766667,"lon":112.633333,"elevationM":null},{"id":"node:1070161293","kind":"peak","name":"Batukoceng","lat":-7.06,"lon":112.963333,"elevationM":null},{"id":"node:1070161331","kind":"peak","name":"Gunung Silih","lat":-7.4997,"lon":112.0352,"elevationM":null},{"id":"node:1070161511","kind":"peak","name":"Gunung Kemlanbingua","lat":-7.7948,"lon":112.4453,"elevationM":null},{"id":"node:1070161545","kind":"peak","name":"Gunung Pangolangan","lat":-7.018056,"lon":112.822778,"elevationM":null},{"id":"node:1070161658","kind":"peak","name":"Gunung Tinggi","lat":-7.7755,"lon":112.9426,"elevationM":null},{"id":"node:1070161901","kind":"peak","name":"Gunung Terbelo","lat":-7.3772,"lon":112.0077,"elevationM":null},{"id":"node:1070162008","kind":"peak","name":"Bukit Walugen","lat":-7.2666699,"lon":112.2493681,"elevationM":null},{"id":"node:1070162069","kind":"peak","name":"Gunung Nogo","lat":-7.765556,"lon":112.652778,"elevationM":null},{"id":"node:1070162162","kind":"peak","name":"Gunung Duwur","lat":-7.4889,"lon":112.1118,"elevationM":null},{"id":"node:1070162196","kind":"peak","name":"Gunung Grujugan","lat":-7.4526,"lon":112.1607,"elevationM":null},{"id":"node:1070162224","kind":"peak","name":"Gunung Sereng","lat":-7.1206,"lon":112.9017,"elevationM":null},{"id":"node:1070162335","kind":"peak","name":"Gunung Kramasan","lat":-7.9512,"lon":112.3518,"elevationM":null},{"id":"node:1070162411","kind":"peak","name":"Gunung Watukutu","lat":-7.7001,"lon":112.5312,"elevationM":null},{"id":"node:1070162526","kind":"peak","name":"Gunung Princi","lat":-7.761389,"lon":112.664167,"elevationM":null},{"id":"node:1070162596","kind":"peak","name":"Gunung Gedang","lat":-7.9878,"lon":112.2871,"elevationM":null},{"id":"node:1070162708","kind":"peak","name":"Gunung Bakal","lat":-7.6869209,"lon":112.4894789,"elevationM":null},{"id":"node:1070162835","kind":"peak","name":"Gunung Pedeng","lat":-7.094167,"lon":112.713333,"elevationM":null},{"id":"node:1070162844","kind":"peak","name":"Sragih","lat":-7.098889,"lon":112.736389,"elevationM":null},{"id":"node:1070163091","kind":"peak","name":"Gunung Macan","lat":-7.121667,"lon":112.872778,"elevationM":null},{"id":"node:1070163173","kind":"peak","name":"Gunung Arjuna","lat":-7.7373,"lon":112.6298,"elevationM":null},{"id":"node:1070163287","kind":"peak","name":"Gunung Rawung","lat":-7.782,"lon":112.5088,"elevationM":null},{"id":"node:1070163338","kind":"peak","name":"Gunung Kemaron","lat":-7.17,"lon":112.977778,"elevationM":null},{"id":"node:1070163350","kind":"peak","name":"Gunung Jeruk","lat":-7.8174,"lon":112.4973,"elevationM":null},{"id":"node:1070163420","kind":"peak","name":"Gunung Tabuan","lat":-7.131389,"lon":112.981111,"elevationM":null},{"id":"node:1070163537","kind":"peak","name":"Gunung Pucangan","lat":-7.388,"lon":112.2992,"elevationM":null},{"id":"node:1070163685","kind":"peak","name":"Gunung Katempak","lat":-7.02515,"lon":112.94612,"elevationM":null},{"id":"node:1070163860","kind":"peak","name":"Gunung Jugrug","lat":-7.8154,"lon":112.6075,"elevationM":null},{"id":"node:1070163908","kind":"peak","name":"Gunung Macan","lat":-7.906667,"lon":112.680556,"elevationM":null},{"id":"node:1070163919","kind":"peak","name":"Gunung Kuncung","lat":-7.6976,"lon":112.3601,"elevationM":null},{"id":"node:1070163989","kind":"peak","name":"Gunung Ringgit","lat":-7.7405,"lon":112.614,"elevationM":null},{"id":"node:1070164173","kind":"peak","name":"Gunung Watangan","lat":-7.9560986,"lon":112.9353026,"elevationM":null},{"id":"node:1070164304","kind":"peak","name":"Gunung Templek","lat":-7.4654,"lon":112.0842,"elevationM":null},{"id":"node:1070164344","kind":"peak","name":"Gunung Gebuk","lat":-7.8112,"lon":112.6556,"elevationM":null},{"id":"node:1070164480","kind":"peak","name":"Gunung Tangkil","lat":-7.9513,"lon":112.8051,"elevationM":null},{"id":"node:1070164548","kind":"peak","name":"Gunung Bulak","lat":-7.6781,"lon":112.5896,"elevationM":null},{"id":"node:1070164732","kind":"peak","name":"Gunung Widodaren","lat":-7.9507078,"lon":112.9372148,"elevationM":2614},{"id":"node:1070164801","kind":"peak","name":"Gunung Kembar Dua","lat":-7.7496518,"lon":112.5818429,"elevationM":null},{"id":"node:1070164841","kind":"peak","name":"Gunung Kelet","lat":-7.8732,"lon":112.457,"elevationM":null},{"id":"node:1070164976","kind":"peak","name":"Gunung Pitrang","lat":-7.9753169,"lon":112.4767727,"elevationM":null},{"id":"node:1070165048","kind":"peak","name":"Gunung Pencit","lat":-7.0477,"lon":112.002,"elevationM":null},{"id":"node:1070165086","kind":"peak","name":"Gunung Kuwal","lat":-7.9396,"lon":112.7362,"elevationM":null},{"id":"node:1070165158","kind":"peak","name":"Gunung Dlambah-daya","lat":-7.024444,"lon":112.841111,"elevationM":null},{"id":"node:1070165162","kind":"peak","name":"Gunung Ernun","lat":-7.1226,"lon":112.8683,"elevationM":null},{"id":"node:1070165718","kind":"peak","name":"Gunung Malangbong","lat":-7.388,"lon":112.0197,"elevationM":null},{"id":"node:1070165840","kind":"peak","name":"Gunung Gede","lat":-7.8273,"lon":112.5579,"elevationM":null},{"id":"node:1070165881","kind":"peak","name":"Gunung Orooroombo","lat":-7.6928,"lon":112.4432,"elevationM":null},{"id":"node:1070166197","kind":"peak","name":"Gunung Songko","lat":-7.8066,"lon":112.4053,"elevationM":null},{"id":"node:1070167438","kind":"peak","name":"Gunung Prau","lat":-7.4158,"lon":112.0366,"elevationM":null},{"id":"node:1070167589","kind":"peak","name":"Gunung Guwo","lat":-7.3763,"lon":112.2748,"elevationM":null},{"id":"node:1070167621","kind":"peak","name":"Gunung Gede","lat":-7.883,"lon":112.7386,"elevationM":null},{"id":"node:1070168109","kind":"peak","name":"Gunung Gede","lat":-7.7653,"lon":112.4366,"elevationM":null},{"id":"node:1070168121","kind":"peak","name":"Gunung Pondoklembu","lat":-7.9478,"lon":112.9942,"elevationM":null},{"id":"node:1070168310","kind":"peak","name":"Gunung Kukusan","lat":-7.7187,"lon":112.5103,"elevationM":null},{"id":"node:1070168494","kind":"peak","name":"Gunung Pule","lat":-7.7593,"lon":112.8246,"elevationM":null},{"id":"node:1070168630","kind":"peak","name":"Telok","lat":-7.115556,"lon":112.993333,"elevationM":null},{"id":"node:1070168827","kind":"peak","name":"Gunung Sanggaringan","lat":-7.3939,"lon":112.0093,"elevationM":null},{"id":"node:1070168904","kind":"peak","name":"Gunung Sendanggogor","lat":-7.4317,"lon":112.0612,"elevationM":null},{"id":"node:1070168926","kind":"peak","name":"Gunung Colah","lat":-7.101111,"lon":112.768056,"elevationM":null},{"id":"node:1070168942","kind":"peak","name":"Pasir Munjung","lat":-7.8771,"lon":112.3524,"elevationM":null},{"id":"node:1070169156","kind":"peak","name":"Gunung Jantur","lat":-7.9769,"lon":112.9789,"elevationM":null},{"id":"node:1070169261","kind":"peak","name":"Phutu Sanan","lat":-7.7849,"lon":112.3245,"elevationM":null},{"id":"node:1070169290","kind":"peak","name":"Gunung Pandansari","lat":-7.8955,"lon":112.8653,"elevationM":null},{"id":"node:1070169294","kind":"peak","name":"Bukit Bang","lat":-7.6159,"lon":112.7279,"elevationM":null},{"id":"node:1070169333","kind":"peak","name":"Gunung Umbuk","lat":-7.9444,"lon":112.2633,"elevationM":null},{"id":"node:1070169491","kind":"peak","name":"Gunung Grogol","lat":-7.6991,"lon":112.5435,"elevationM":null},{"id":"node:1070169539","kind":"peak","name":"Gunung Ngepoh","lat":-7.8423,"lon":112.7245,"elevationM":null},{"id":"node:1070169613","kind":"peak","name":"Gunung Kukusan","lat":-7.8367,"lon":112.4147,"elevationM":null},{"id":"node:1070169681","kind":"peak","name":"Gunung Gupit","lat":-7.9638,"lon":112.2691,"elevationM":null},{"id":"node:1070169945","kind":"peak","name":"Gunung Lawang","lat":-7.9279,"lon":112.8141,"elevationM":null},{"id":"node:1070170128","kind":"peak","name":"Gunung Watujombalan","lat":-7.7421,"lon":112.4154,"elevationM":null},{"id":"node:1070170162","kind":"peak","name":"Gunung Bret","lat":-7.871667,"lon":112.692222,"elevationM":null},{"id":"node:1070170173","kind":"peak","name":"Gunung Celeng","lat":-7.3769,"lon":112.2222,"elevationM":null},{"id":"node:1070170279","kind":"peak","name":"Gunung Suruh","lat":-7.973,"lon":112.8383,"elevationM":null},{"id":"node:1070170364","kind":"peak","name":"Gunung Boklorobubuh","lat":-7.7291,"lon":112.4598,"elevationM":null},{"id":"node:1070170722","kind":"peak","name":"Gunung Kembar","lat":-7.8165,"lon":112.6202,"elevationM":null},{"id":"node:1070170798","kind":"peak","name":"Pusung Gemerlawang","lat":-7.9927,"lon":112.8443,"elevationM":null},{"id":"node:1070170981","kind":"peak","name":"Gunung Budug Asu","lat":-7.8072,"lon":112.6206,"elevationM":null},{"id":"node:1070171123","kind":"peak","name":"Puncak Cendono","lat":-7.6952837,"lon":112.5007663,"elevationM":1131},{"id":"node:1070171134","kind":"peak","name":"Gunung Glingesem","lat":-7.3752,"lon":112.0661,"elevationM":null},{"id":"node:1070171742","kind":"peak","name":"Gunung Nongko","lat":-7.4434,"lon":112.101,"elevationM":null},{"id":"node:1070171844","kind":"peak","name":"Bukit Gupit","lat":-7.3608,"lon":112.2305,"elevationM":null},{"id":"node:1070171924","kind":"peak","name":"Gunung Ije","lat":-7.9565,"lon":112.9131,"elevationM":null},{"id":"node:1070171957","kind":"peak","name":"Gunung Jambe","lat":-7.6186,"lon":112.591,"elevationM":null},{"id":"node:1070172269","kind":"peak","name":"Gunung Cemara","lat":-7.9503,"lon":112.8664,"elevationM":null},{"id":"node:1070172302","kind":"peak","name":"Gunung Kukusan","lat":-7.7195,"lon":112.4572,"elevationM":null},{"id":"node:1070172377","kind":"peak","name":"Gunung Kedungjangkul","lat":-7.8737,"lon":112.4884,"elevationM":null},{"id":"node:1070172449","kind":"peak","name":"Gunung Gading","lat":-7.8612,"lon":112.3537,"elevationM":null},{"id":"node:1070172452","kind":"peak","name":"Gunung Erreman","lat":-7.131389,"lon":112.868889,"elevationM":null},{"id":"node:1070172535","kind":"peak","name":"Gunung Pehmangun","lat":-7.9344,"lon":112.4075,"elevationM":null},{"id":"node:1070172918","kind":"peak","name":"Gunung Kendit","lat":-7.861,"lon":112.3282,"elevationM":null},{"id":"node:1070173069","kind":"peak","name":"Gunung Alapalap","lat":-7.3891,"lon":112.0246,"elevationM":null},{"id":"node:1070173094","kind":"peak","name":"Gunung Barek","lat":-7.8336,"lon":112.7311,"elevationM":null},{"id":"node:1070173102","kind":"peak","name":"Gunung Watucandi","lat":-7.6953,"lon":112.4601,"elevationM":null},{"id":"node:1070173602","kind":"peak","name":"Gunung Siwalan","lat":-7.4187,"lon":112.0446,"elevationM":null},{"id":"node:1070173697","kind":"peak","name":"Gunung Glugusari","lat":-7.3749,"lon":112.0803,"elevationM":null},{"id":"node:1070173768","kind":"peak","name":"Gunung Gentonggowok","lat":-7.7668,"lon":112.4226,"elevationM":null},{"id":"node:1070173878","kind":"peak","name":"Gunung Baung","lat":-7.806389,"lon":112.749722,"elevationM":null},{"id":"node:1070173918","kind":"peak","name":"Gunung Tapakan","lat":-7.0149897,"lon":112.0118735,"elevationM":453},{"id":"node:1070174056","kind":"peak","name":"Kemere","lat":-7.123056,"lon":112.869444,"elevationM":null},{"id":"node:1070174106","kind":"peak","name":"Gunung Kuncing","lat":-7.4723,"lon":112.0634,"elevationM":null},{"id":"node:1070174439","kind":"peak","name":"Gunung Buthak","lat":-7.9553512,"lon":112.4651839,"elevationM":2868},{"id":"node:1070174905","kind":"peak","name":"Gunung Dukutan","lat":-7.9072,"lon":112.788,"elevationM":null},{"id":"node:1070175100","kind":"volcano","name":"Gunung Arjuno","lat":-7.7654442,"lon":112.5906469,"elevationM":3339},{"id":"node:1070175275","kind":"peak","name":"Gunung Selatri","lat":-7.7981,"lon":112.3424,"elevationM":null},{"id":"node:1070175450","kind":"peak","name":"Gunung Gajahmungkur","lat":-7.9256,"lon":112.2968,"elevationM":null},{"id":"node:1070175470","kind":"peak","name":"Gunung Togubang","lat":-7.0306,"lon":112.8793,"elevationM":null},{"id":"node:1070175831","kind":"peak","name":"Gunung Dempo","lat":-7.8371,"lon":112.7912,"elevationM":null},{"id":"node:1070175955","kind":"peak","name":"Gunung Drowati","lat":-7.8369,"lon":112.4206,"elevationM":null},{"id":"node:1070176383","kind":"volcano","name":"Gunung Welirang","lat":-7.7326,"lon":112.5747,"elevationM":3245},{"id":"node:1070176391","kind":"peak","name":"Gunung Kukusan","lat":-7.9328,"lon":112.8234,"elevationM":null},{"id":"node:1070176574","kind":"peak","name":"Gunung Marmoyo","lat":-7.3904,"lon":112.1431,"elevationM":null},{"id":"node:1070176651","kind":"peak","name":"Gunung Ketawang","lat":-7.854722,"lon":112.735556,"elevationM":null},{"id":"node:1070176654","kind":"peak","name":"Gunung Argowulan","lat":-7.8999,"lon":112.9611,"elevationM":null},{"id":"node:1070176930","kind":"peak","name":"Gunung Jadih Satu","lat":-7.0851,"lon":112.7581,"elevationM":null},{"id":"node:1070177044","kind":"peak","name":"Gunung Baruklinting","lat":-7.8886,"lon":112.9569,"elevationM":null},{"id":"node:1070177194","kind":"peak","name":"Gunung Lincing","lat":-7.7876,"lon":112.6162,"elevationM":null},{"id":"node:1070177285","kind":"peak","name":"Gunung Gendis","lat":-7.8985,"lon":112.7846,"elevationM":null},{"id":"node:1070177473","kind":"peak","name":"Gunung Pucung","lat":-7.8156,"lon":112.5479,"elevationM":null},{"id":"node:1070177615","kind":"peak","name":"Gunung Pusungkutuk","lat":-7.736,"lon":112.5475,"elevationM":null},{"id":"node:1070177814","kind":"peak","name":"Gunung Sanggrahan","lat":-7.9503,"lon":112.8243,"elevationM":null},{"id":"node:1070177985","kind":"peak","name":"Gunung Taji","lat":-7.4797,"lon":112.0715,"elevationM":null},{"id":"node:1070178063","kind":"peak","name":"Gunung Timongo","lat":-7.3813,"lon":112.0759,"elevationM":null},{"id":"node:1070178186","kind":"peak","name":"Gunung Jeruk","lat":-7.9547,"lon":112.8429,"elevationM":null},{"id":"node:1070178455","kind":"peak","name":"Gunung Malang","lat":-7.159444,"lon":112.613056,"elevationM":null},{"id":"node:1070178457","kind":"peak","name":"Gunung Tutup","lat":-7.9584,"lon":112.8618,"elevationM":null},{"id":"node:1070178489","kind":"peak","name":"Gunung Gede","lat":-7.7321,"lon":112.4235,"elevationM":null},{"id":"node:1070178524","kind":"peak","name":"Gunung Limas","lat":-7.7094,"lon":112.6116,"elevationM":null},{"id":"node:1070178739","kind":"peak","name":"Gunung Lingkar","lat":-7.9344412,"lon":112.9740678,"elevationM":null},{"id":"node:1070178791","kind":"peak","name":"Gunung Templek","lat":-7.0075679,"lon":112.0043697,"elevationM":456},{"id":"node:1070178926","kind":"peak","name":"Gunung Pasang","lat":-7.8132,"lon":112.4418,"elevationM":null},{"id":"node:1070179079","kind":"peak","name":"Gunung Alasmalang","lat":-7.4836,"lon":112.006,"elevationM":null},{"id":"node:1070179123","kind":"peak","name":"Gunung Medon","lat":-7.8164,"lon":112.6977,"elevationM":null},{"id":"node:1070179458","kind":"peak","name":"Gunung Parasbang","lat":-7.8468,"lon":112.3265,"elevationM":null},{"id":"node:1070179608","kind":"peak","name":"Gunung Bungkat","lat":-7.3763,"lon":112.0356,"elevationM":null},{"id":"node:1070179830","kind":"peak","name":"Gunung Palengkecik","lat":-7.3833,"lon":112.259,"elevationM":null},{"id":"node:1070179896","kind":"peak","name":"Gunung Bedali","lat":-7.4612,"lon":112.0706,"elevationM":null},{"id":"node:1070179943","kind":"peak","name":"Gunung Prodo","lat":-7.0278582,"lon":112.0242422,"elevationM":239},{"id":"node:1070180056","kind":"peak","name":"Gunung Kintel","lat":-7.3961,"lon":112.1938,"elevationM":null},{"id":"node:1070180061","kind":"peak","name":"Gunung Kutugan","lat":-7.967222,"lon":112.505556,"elevationM":null},{"id":"node:1070180218","kind":"peak","name":"Gunung Percil","lat":-7.8562,"lon":112.7866,"elevationM":null},{"id":"node:1070180260","kind":"peak","name":"Gunung Bale","lat":-7.8337,"lon":112.7031,"elevationM":null},{"id":"node:1070180330","kind":"peak","name":"Gunung Cobanmenteng","lat":-7.907,"lon":112.4751,"elevationM":null},{"id":"node:1070180414","kind":"peak","name":"Gunung Kemiri","lat":-7.9073,"lon":112.7627,"elevationM":null},{"id":"node:1070180457","kind":"peak","name":"Gunung Anjasmoro","lat":-7.7535,"lon":112.5078,"elevationM":null},{"id":"node:1070180591","kind":"peak","name":"Gunung Lirang","lat":-7.9334,"lon":112.3028,"elevationM":null},{"id":"node:1070180736","kind":"peak","name":"Pusung Jemplang","lat":-7.9663,"lon":112.9175,"elevationM":null},{"id":"node:1070180814","kind":"peak","name":"Gunung Tretes","lat":-7.841,"lon":112.7983,"elevationM":null},{"id":"node:1070180974","kind":"peak","name":"Gunung Tunggangan","lat":-7.8278,"lon":112.421,"elevationM":null},{"id":"node:1070181047","kind":"peak","name":"Gunung Ompak","lat":-7.9686,"lon":112.3261,"elevationM":null},{"id":"node:1070181052","kind":"peak","name":"Gunung Regobono","lat":-7.8977,"lon":112.9733,"elevationM":null},{"id":"node:1070181126","kind":"peak","name":"Gunung Kumbo","lat":-7.874,"lon":112.7808,"elevationM":null},{"id":"node:1070181312","kind":"peak","name":"Gunung Budukusu","lat":-7.8819,"lon":112.4839,"elevationM":null},{"id":"node:1070181319","kind":"peak","name":"Gunung Temugiri","lat":-7.9261,"lon":112.7903,"elevationM":null},{"id":"node:1070181347","kind":"peak","name":"Gunung Bekel","lat":-7.6087123,"lon":112.6078215,"elevationM":1268},{"id":"node:1070181488","kind":"peak","name":"Gunung Boyak","lat":-7.857,"lon":112.4294,"elevationM":null},{"id":"node:1070181568","kind":"peak","name":"Gunung Pusungkeningar","lat":-7.9298,"lon":112.7826,"elevationM":null},{"id":"node:1070182565","kind":"peak","name":"Gunung Malang","lat":-7.8346,"lon":112.5972,"elevationM":null},{"id":"node:1070182676","kind":"peak","name":"Gunung Bulakampel","lat":-7.7942,"lon":112.4305,"elevationM":null},{"id":"node:1070182770","kind":"peak","name":"Gunung Kembar Satu","lat":-7.7435076,"lon":112.5793038,"elevationM":null},{"id":"node:1070182848","kind":"peak","name":"Gunung Pandak","lat":-7.7717,"lon":112.9407,"elevationM":null},{"id":"node:1070183009","kind":"peak","name":"Pusung Jentan","lat":-7.9412,"lon":112.9067,"elevationM":null},{"id":"node:1070183157","kind":"peak","name":"Gunung Guwo","lat":-7.4386,"lon":112.0915,"elevationM":null},{"id":"node:1070183253","kind":"peak","name":"Gunung Selokaki","lat":-7.8227,"lon":112.3542,"elevationM":null},{"id":"node:1070183342","kind":"peak","name":"Bukit Nginggil","lat":-7.2648529,"lon":112.1909646,"elevationM":null},{"id":"node:1070183407","kind":"peak","name":"Gunung Seruk","lat":-7.881667,"lon":112.505,"elevationM":null},{"id":"node:1070183422","kind":"peak","name":"Gunung Gumer","lat":-7.951,"lon":112.8312,"elevationM":null},{"id":"node:1070184000","kind":"peak","name":"Gunung Semar","lat":-7.7105,"lon":112.4502,"elevationM":null},{"id":"node:1070184125","kind":"peak","name":"Gunung Budahbulung","lat":-7.8188,"lon":112.3151,"elevationM":null},{"id":"node:1070184208","kind":"peak","name":"Gunung Carek","lat":-7.1176,"lon":112.96972,"elevationM":null},{"id":"node:1070184503","kind":"peak","name":"Gunung Gentonggowah","lat":-7.9585,"lon":112.4852,"elevationM":null},{"id":"node:1070185538","kind":"peak","name":"Gunung Penanjakan","lat":-7.9037251,"lon":112.9521356,"elevationM":2782},{"id":"node:1070185828","kind":"peak","name":"Gunung Secang","lat":-7.4889,"lon":112.0133,"elevationM":null},{"id":"node:1070185953","kind":"peak","name":"Gunung Jokomujung","lat":-7.6941,"lon":112.4329,"elevationM":null},{"id":"node:1070186142","kind":"peak","name":"Gunung Selokurung","lat":-7.838,"lon":112.3584,"elevationM":null},{"id":"node:1070186293","kind":"peak","name":"Gunung Preteng","lat":-7.8231,"lon":112.5088,"elevationM":null},{"id":"node:1070186347","kind":"peak","name":"Gunung Selokodok","lat":-7.8339,"lon":112.3525,"elevationM":null},{"id":"node:1070186460","kind":"peak","name":"Gunung Kunir","lat":-7.3927,"lon":112.0437,"elevationM":null},{"id":"node:1070186617","kind":"peak","name":"Gunung Wangi","lat":-7.6219,"lon":112.6317,"elevationM":null},{"id":"node:1070186653","kind":"peak","name":"Gunung Butak","lat":-7.372,"lon":112.0155,"elevationM":null},{"id":"node:1070186703","kind":"peak","name":"Gunung Biru","lat":-7.7623,"lon":112.4954,"elevationM":null},{"id":"node:1070186975","kind":"peak","name":"Gunung Gerbek","lat":-7.8975,"lon":112.509722,"elevationM":null},{"id":"node:1070187007","kind":"peak","name":"Gunung Pulosari","lat":-7.9646,"lon":112.8531,"elevationM":null},{"id":"node:1070187182","kind":"peak","name":"Gunung Srandil","lat":-7.9247,"lon":112.4885,"elevationM":null},{"id":"node:1070187234","kind":"peak","name":"Pusung Kutugan","lat":-7.9722491,"lon":112.9250079,"elevationM":null},{"id":"node:1070187308","kind":"peak","name":"Gunung Rengih","lat":-7.7815,"lon":112.304,"elevationM":null},{"id":"node:1070187415","kind":"peak","name":"Gunung Kursi","lat":-7.959698,"lon":112.9561093,"elevationM":2581},{"id":"node:1070187460","kind":"peak","name":"Gunung Pegat","lat":-7.6893,"lon":112.5237,"elevationM":null},{"id":"node:1070187488","kind":"peak","name":"Gunung Rajegwesi","lat":-7.8571,"lon":112.4897,"elevationM":null},{"id":"node:1070187537","kind":"peak","name":"Gunung Watugilang","lat":-7.8264,"lon":112.4191,"elevationM":null},{"id":"node:1070187588","kind":"peak","name":"Gunung Ider-ider","lat":-7.9693,"lon":112.9859,"elevationM":null},{"id":"node:1070187642","kind":"peak","name":"Gunung Tempi","lat":-7.8082,"lon":112.7912,"elevationM":null},{"id":"node:1070187766","kind":"peak","name":"Gunung Penuksapi","lat":-7.8956,"lon":112.496,"elevationM":null},{"id":"node:1070187771","kind":"peak","name":"Gunung Manggungan","lat":-7.9254,"lon":112.8054,"elevationM":null},{"id":"node:1070187792","kind":"peak","name":"Gunung Gajah Mungkur","lat":-7.604,"lon":112.6221,"elevationM":null},{"id":"node:1070187818","kind":"peak","name":"Gunung Resek","lat":-7.4192,"lon":112.112,"elevationM":null},{"id":"node:1070187847","kind":"peak","name":"Gunung Petung","lat":-7.9318,"lon":112.7379,"elevationM":null},{"id":"node:1070187945","kind":"peak","name":"Gunung Ronompel","lat":-7.150278,"lon":112.819722,"elevationM":null},{"id":"node:1070187997","kind":"peak","name":"Gunung Bacin","lat":-7.3914,"lon":112.121,"elevationM":null},{"id":"node:1070188013","kind":"peak","name":"Gunung Papak","lat":-7.8148,"lon":112.5981,"elevationM":null},{"id":"node:1070188068","kind":"peak","name":"Gunung Lareangen","lat":-7.809,"lon":112.4623,"elevationM":null},{"id":"node:1070188123","kind":"peak","name":"Gunung Sleret","lat":-7.11445,"lon":112.94333,"elevationM":null},{"id":"node:1070188168","kind":"peak","name":"Gunung Bendo","lat":-7.6331,"lon":112.6226,"elevationM":null},{"id":"node:1070188629","kind":"peak","name":"Gunung Pasang","lat":-7.7985,"lon":112.3992,"elevationM":null},{"id":"node:1070188683","kind":"peak","name":"Gunung Pusungtumpeng","lat":-7.7251,"lon":112.5422,"elevationM":null},{"id":"node:1070189004","kind":"peak","name":"Gunung Jembek","lat":-7.7734,"lon":112.3992,"elevationM":null},{"id":"node:1070189343","kind":"peak","name":"Gunung Papringan","lat":-7.4743,"lon":112.0099,"elevationM":null},{"id":"node:1070189543","kind":"peak","name":"Bukit Kemal","lat":-7.3659,"lon":112.236,"elevationM":null},{"id":"node:1070189713","kind":"peak","name":"Pusung Jarat","lat":-7.9905,"lon":112.9027,"elevationM":null},{"id":"node:1070189850","kind":"peak","name":"Gunung Patukjati","lat":-7.6793,"lon":112.5003,"elevationM":null},{"id":"node:1070190207","kind":"peak","name":"Gunung Waru","lat":-7.369,"lon":112.2568,"elevationM":null},{"id":"node:1070190322","kind":"peak","name":"Gunung Biru","lat":-7.7253,"lon":112.4962,"elevationM":null},{"id":"node:1070190494","kind":"peak","name":"Gunung Pundak","lat":-7.6946296,"lon":112.5704315,"elevationM":null},{"id":"node:1070190518","kind":"peak","name":"Gunung Banyusango","lat":-7.8743,"lon":112.8576,"elevationM":null},{"id":"node:1070190783","kind":"peak","name":"Gunung Malaka","lat":-7.11537,"lon":112.99616,"elevationM":null},{"id":"node:1070190951","kind":"peak","name":"Gunung Malang","lat":-7.9587,"lon":112.4984,"elevationM":null},{"id":"node:1070191029","kind":"peak","name":"Gunung Geger","lat":-7.0288,"lon":112.933,"elevationM":null},{"id":"node:1070191307","kind":"peak","name":"Gunung Parangklakah","lat":-7.8489,"lon":112.418,"elevationM":null},{"id":"node:1070191636","kind":"peak","name":"Gunung Gunturan","lat":-7.9528,"lon":112.8011,"elevationM":null},{"id":"node:1070192540","kind":"peak","name":"Gunung Kerumbung","lat":-7.8297,"lon":112.5023,"elevationM":null},{"id":"node:1070193231","kind":"peak","name":"Gunung Sili","lat":-7.3699,"lon":112.0393,"elevationM":null},{"id":"node:1070193874","kind":"peak","name":"Gunung Bambang","lat":-7.7675,"lon":112.3403,"elevationM":null},{"id":"node:1070193938","kind":"peak","name":"Batuporon","lat":-7.157222,"lon":112.754722,"elevationM":null},{"id":"node:1070194154","kind":"peak","name":"Gunung Bunten","lat":-7.3962,"lon":112.0585,"elevationM":null},{"id":"node:1070194368","kind":"peak","name":"Gunung Bokong","lat":-7.8976,"lon":112.4956,"elevationM":null},{"id":"node:1070194619","kind":"peak","name":"Gunung Kebut","lat":-7.9352,"lon":112.7338,"elevationM":null},{"id":"node:1070194806","kind":"peak","name":"Gunung Ampingamping","lat":-7.8619,"lon":112.4597,"elevationM":null},{"id":"node:1070194963","kind":"peak","name":"Gunung Jadih Dua","lat":-7.0791,"lon":112.7637,"elevationM":null},{"id":"node:1070195103","kind":"peak","name":"Gunung Gentong","lat":-7.9659,"lon":112.9007,"elevationM":null},{"id":"node:1070195176","kind":"peak","name":"Puncak Sarah Koplo","lat":-7.6193177,"lon":112.6142335,"elevationM":null},{"id":"node:1070195236","kind":"peak","name":"Gunung Pringgodani","lat":-7.6899,"lon":112.5864,"elevationM":null},{"id":"node:1070195595","kind":"peak","name":"Gunung Tunggeng","lat":-7.9099,"lon":112.3937,"elevationM":null},{"id":"node:1070195603","kind":"volcano","name":"Gunung Batok","lat":-7.9347675,"lon":112.9472895,"elevationM":2470},{"id":"node:1070195752","kind":"peak","name":"Gunung Niti","lat":-7.0241303,"lon":112.0280595,"elevationM":300},{"id":"node:1070196255","kind":"peak","name":"Gunung Canggah","lat":-7.8887,"lon":112.4155,"elevationM":null},{"id":"node:1070196393","kind":"peak","name":"Gunung Pandaksih","lat":-7.4458,"lon":112.1101,"elevationM":null},{"id":"node:1070196429","kind":"peak","name":"Gunung Meliwis","lat":-7.8237,"lon":112.7391,"elevationM":null},{"id":"node:1070196510","kind":"peak","name":"Gunung Dowo","lat":-7.389,"lon":112.2343,"elevationM":null},{"id":"node:1070196540","kind":"peak","name":"Gunung Tunggangan","lat":-7.8895,"lon":112.7795,"elevationM":null},{"id":"node:1070196573","kind":"peak","name":"Gunung Kendaldampak","lat":-7.836389,"lon":112.561111,"elevationM":null},{"id":"node:1070196705","kind":"peak","name":"Gunung Banten","lat":-7.41,"lon":112.0191,"elevationM":null},{"id":"node:1070196746","kind":"peak","name":"Gunung Tambakmerang","lat":-7.7053,"lon":112.4238,"elevationM":null},{"id":"node:1070196781","kind":"peak","name":"Gunung Botekan","lat":-7.368,"lon":112.3012,"elevationM":null},{"id":"node:1070196852","kind":"peak","name":"Gunung Cemarapukul","lat":-7.9127,"lon":112.9137,"elevationM":null},{"id":"node:1070196887","kind":"peak","name":"Gunung Tompeng","lat":-7.156389,"lon":112.835278,"elevationM":null},{"id":"node:1070197058","kind":"peak","name":"Gunung Kundi","lat":-7.8773,"lon":112.9771,"elevationM":null},{"id":"node:2764591712","kind":"volcano","name":"Lapindo","lat":-7.5269209,"lon":112.7114657,"elevationM":null},{"id":"node:4057484468","kind":"peak","name":"Gunung Banyak","lat":-7.8560646,"lon":112.4981249,"elevationM":null},{"id":"node:7960950027","kind":"peak","name":"Gunung Pegat","lat":-7.2563746,"lon":112.2227543,"elevationM":null},{"id":"node:8250647217","kind":"peak","name":"Puthuk Siwur","lat":-7.6919894,"lon":112.5746617,"elevationM":null},{"id":"node:8250686121","kind":"peak","name":"Puthuk Gragal","lat":-7.6939498,"lon":112.5800926,"elevationM":1480},{"id":"node:8561248043","kind":"peak","name":"Gunung Probcia","lat":-7.9730295,"lon":112.950194,"elevationM":2123},{"id":"node:9333207116","kind":"peak","name":"Bukit Raci","lat":-7.6248305,"lon":112.8334632,"elevationM":null},{"id":"node:9428533034","kind":"peak","name":"Bukit Prahu","lat":-7.5771046,"lon":112.6748255,"elevationM":null},{"id":"node:11036767184","kind":"peak","name":"Bukit Jabal","lat":-7.9556047,"lon":112.5069422,"elevationM":1700},{"id":"node:11037611710","kind":"peak","name":"Puncak P30","lat":-7.9507168,"lon":112.9949139,"elevationM":null},{"id":"node:11037611711","kind":"peak","name":"Puncak B29","lat":-7.9592366,"lon":112.9948512,"elevationM":2900},{"id":"node:11233394384","kind":"peak","name":"Bukit Cinta","lat":-7.9145615,"lon":112.9390159,"elevationM":null},{"id":"node:11309006533","kind":"peak","name":"Puncak Kondang","lat":-7.9647893,"lon":112.4761096,"elevationM":null},{"id":"node:11309006536","kind":"peak","name":"Puncak Batu Tulis","lat":-7.972462,"lon":112.4767023,"elevationM":null},{"id":"node:11333639567","kind":"peak","name":"Puncak Ogal Agil","lat":-7.7646656,"lon":112.5925085,"elevationM":null},{"id":"node:11335449458","kind":"peak","name":"Watu Jolang","lat":-7.6025213,"lon":112.6211674,"elevationM":null},{"id":"node:11949138227","kind":"peak","name":"Puncak Watu Jengger","lat":-7.6992865,"lon":112.4348425,"elevationM":1100},{"id":"node:12043609647","kind":"peak","name":"Puthuk Kencur Sejati","lat":-7.7044146,"lon":112.4931903,"elevationM":1441},{"id":"node:12062614355","kind":"peak","name":"Gunung Kawi (Puncak Selatan)","lat":-7.9228857,"lon":112.4521927,"elevationM":2646},{"id":"node:12071219872","kind":"peak","name":"Puncak Sejati Gunung Arjuno","lat":-7.7654194,"lon":112.5910159,"elevationM":3339},{"id":"node:12133610586","kind":"peak","name":"Puncak Kemuncup","lat":-7.6168437,"lon":112.628685,"elevationM":1238},{"id":"node:12136404297","kind":"peak","name":"Bukit Semar","lat":-7.6839036,"lon":112.4705493,"elevationM":933},{"id":"node:12136418048","kind":"peak","name":"Lorokan","lat":-7.6882576,"lon":112.5230817,"elevationM":1100},{"id":"node:13387532921","kind":"volcano","name":"Lumpur Gunung Anyar","lat":-7.3372085,"lon":112.7823937,"elevationM":null},{"id":"node:13625723835","kind":"peak","name":"Bukit Nglai","lat":-7.0246582,"lon":112.042196,"elevationM":306},{"id":"node:13628104637","kind":"peak","name":"Puncak Menyunyur","lat":-7.0255672,"lon":112.0326987,"elevationM":290},{"id":"node:13630932044","kind":"peak","name":"Gunung Goa Jurang Kandang","lat":-7.0285652,"lon":112.0154871,"elevationM":237},{"id":"node:13631123987","kind":"peak","name":"Gunung Dermawuharjo","lat":-7.0030002,"lon":112.0338065,"elevationM":216}]}