{"tileKey":"la_m32_lo_p27","version":"v1-1775891056926","entries":[{"id":"node:6147263563","kind":"peak","name":"Spitskop","lat":-31.1471284,"lon":27.5945697,"elevationM":2643},{"id":"node:6251166224","kind":"peak","name":"Helmet Hill","lat":-32,"lon":27.5125,"elevationM":1456},{"id":"node:6251167143","kind":"peak","name":"Qwempe","lat":-31.615,"lon":27.0592,"elevationM":1839},{"id":"node:6251167146","kind":"peak","name":"Ncambele","lat":-31.8092,"lon":27.1,"elevationM":1421},{"id":"node:6251167152","kind":"peak","name":"Tsolokazi","lat":-31.88,"lon":27.135,"elevationM":1465},{"id":"node:6251167157","kind":"peak","name":"Three Crowns","lat":-31.7625,"lon":27.14,"elevationM":1767},{"id":"node:6251167370","kind":"peak","name":"Bakenskop","lat":-31.2958,"lon":27.0908,"elevationM":2025},{"id":"node:6251167787","kind":"peak","name":"Ben Dearg","lat":-31.1108,"lon":27.98,"elevationM":2743},{"id":"node:6253198568","kind":"peak","name":"Galamatunzi","lat":-31.865,"lon":27.04,"elevationM":1582},{"id":"node:6253198569","kind":"peak","name":"Ntabankulu","lat":-31.9075,"lon":27.1608,"elevationM":1337},{"id":"node:6253198582","kind":"peak","name":"Ntabamtonjeni","lat":-32,"lon":27.4625,"elevationM":1400},{"id":"node:6253198886","kind":"peak","name":"Clover Hill","lat":-31.5042,"lon":27.03,"elevationM":1935},{"id":"node:6253198891","kind":"peak","name":"Manqata","lat":-31.8508,"lon":27.3742,"elevationM":1431},{"id":"node:6253198896","kind":"peak","name":"Gilandoda","lat":-31.6592,"lon":27.0008,"elevationM":1480},{"id":"node:6253198905","kind":"peak","name":"KuNtabaholi","lat":-31.9158,"lon":27.2808,"elevationM":1137},{"id":"node:6253198907","kind":"peak","name":"Ntabaluxa","lat":-31.9017,"lon":27.2858,"elevationM":1160},{"id":"node:6253198911","kind":"peak","name":"Lubisi","lat":-31.8183,"lon":27.4517,"elevationM":1354},{"id":"node:6253198914","kind":"peak","name":"KuNgqwaru","lat":-31.8542,"lon":27.8367,"elevationM":1229},{"id":"node:6253198918","kind":"peak","name":"KuNomadamba","lat":-31.6992,"lon":27.7283,"elevationM":1673},{"id":"node:6253199536","kind":"peak","name":"Kranskop","lat":-31.2375,"lon":27.2358,"elevationM":2056},{"id":"node:6253199543","kind":"peak","name":"Langberg","lat":-31.455,"lon":27.105,"elevationM":2001},{"id":"node:6253199566","kind":"peak","name":"Mount Ararat","lat":-31.2992,"lon":27.9958,"elevationM":1884},{"id":"node:6253199568","kind":"peak","name":"Loskop","lat":-31.3275,"lon":27.7492,"elevationM":1736},{"id":"node:6253199570","kind":"peak","name":"Tafelberg","lat":-31.2208,"lon":27.6325,"elevationM":2431},{"id":"node:6255280068","kind":"peak","name":"Middelkop","lat":-31.8092,"lon":27.135,"elevationM":1269},{"id":"node:6255280069","kind":"peak","name":"Maxalanga","lat":-31.7758,"lon":27.1658,"elevationM":1562},{"id":"node:6255280075","kind":"peak","name":"Tsakana","lat":-31.8775,"lon":27.4292,"elevationM":1318},{"id":"node:6255280082","kind":"peak","name":"Mcewula","lat":-31.8817,"lon":27.315,"elevationM":1495},{"id":"node:6255280285","kind":"peak","name":"Ngcongconi","lat":-31.8367,"lon":27.1542,"elevationM":1311},{"id":"node:6255280297","kind":"peak","name":"KwaMbaxa","lat":-31.7633,"lon":27.6825,"elevationM":1348}]}