{"tileKey":"la_m30_lo_m58","version":"v1-1775891056926","entries":[{"id":"node:4456953445","kind":"peak","name":"Cerro Cerro Verde","lat":-29.3931868,"lon":-57.6535282,"elevationM":109},{"id":"node:4456953450","kind":"peak","name":"Cerro Ita Curuzú","lat":-29.2494135,"lon":-57.4380932,"elevationM":79},{"id":"node:4456953455","kind":"peak","name":"Cerro Yuqueri","lat":-29.3979033,"lon":-57.5705805,"elevationM":97},{"id":"node:4456953457","kind":"peak","name":"Loma Carumbe","lat":-29.5059338,"lon":-57.8771515,"elevationM":104},{"id":"node:4456953458","kind":"peak","name":"Loma Puesto Cerro","lat":-29.508234,"lon":-57.9630737,"elevationM":95}]}