{"tileKey":"la_m30_lo_p18","version":"v1-1775891056926","entries":[{"id":"node:1306428901","kind":"peak","name":"Amamkop","lat":-29.1475203,"lon":18.4232253,"elevationM":null},{"id":"node:2376906382","kind":"peak","name":"Maanhaarkop","lat":-29.2448453,"lon":18.8328514,"elevationM":1007},{"id":"node:6251169743","kind":"peak","name":"Carolusberg","lat":-29.645,"lon":18.0008,"elevationM":1333},{"id":"node:6253199266","kind":"peak","name":"Naab se Berg","lat":-29.2683,"lon":18.1708,"elevationM":1115},{"id":"node:6253199378","kind":"peak","name":"Haaslipkop","lat":-29.7825,"lon":18.0625,"elevationM":1197},{"id":"node:6255289295","kind":"peak","name":"Bitterheuningberge","lat":-29.1842,"lon":18.1367,"elevationM":988},{"id":"node:6255289314","kind":"peak","name":"Tafelkop","lat":-29.365,"lon":18.2808,"elevationM":1109},{"id":"node:6255289326","kind":"peak","name":"Grootberg","lat":-29.0756686,"lon":18.9046759,"elevationM":1105},{"id":"node:6895679037","kind":"peak","name":"Witberg","lat":-29.1140836,"lon":18.8293805,"elevationM":1152},{"id":"node:6895679040","kind":"peak","name":"Spitskop","lat":-29.1205509,"lon":18.8604942,"elevationM":1059},{"id":"node:6895679041","kind":"peak","name":"Piet se Kop","lat":-29.1104654,"lon":18.8568464,"elevationM":1013},{"id":"node:12397035331","kind":"peak","name":"Ghaamsberg","lat":-29.2439068,"lon":18.9715003,"elevationM":1148},{"id":"node:13042892636","kind":"peak","name":"Kabib se Kop","lat":-29.1632823,"lon":18.3519808,"elevationM":null},{"id":"node:13042919355","kind":"peak","name":"Uitspankop","lat":-29.0709229,"lon":18.5384587,"elevationM":null},{"id":"node:13051665369","kind":"peak","name":"Oograbies","lat":-29.2586169,"lon":18.5777123,"elevationM":null},{"id":"node:13075589753","kind":"peak","name":"Witberg","lat":-29.1493484,"lon":18.6705631,"elevationM":null}]}