{"tileKey":"la_m50_lo_m73","version":"v1-1775891056926","entries":[{"id":"node:672565662","kind":"peak","name":"Loma de las Pizarras","lat":-49.2977534,"lon":-72.9825253,"elevationM":1691},{"id":"node:672567137","kind":"peak","name":"Cerro Madsen","lat":-49.269391,"lon":-72.99246,"elevationM":1806},{"id":"node:672567139","kind":"peak","name":"Polo","lat":-49.2570247,"lon":-72.9278294,"elevationM":1188},{"id":"node:672567140","kind":"peak","name":"León","lat":-49.309205,"lon":-72.9250265,"elevationM":866},{"id":"node:771458953","kind":"peak","name":"Loma del Pliegue Tumbado","lat":-49.3594424,"lon":-72.9675211,"elevationM":1520},{"id":"node:3284698667","kind":"peak","name":"Cerro Pana","lat":-49.2992766,"lon":-72.3728762,"elevationM":2012},{"id":"node:3578318587","kind":"peak","name":"Cerro Guacho","lat":-49.8368308,"lon":-72.1110821,"elevationM":580},{"id":"node:3578320894","kind":"peak","name":"Cerro Piramides","lat":-49.8867562,"lon":-72.2135279,"elevationM":771},{"id":"node:4446511717","kind":"peak","name":"Cerro Colorado","lat":-49.7795775,"lon":-72.3740075,"elevationM":1044},{"id":"node:4446511724","kind":"peak","name":"Cerro El Moro","lat":-49.0401548,"lon":-72.1146717,"elevationM":1410},{"id":"node:4446511728","kind":"peak","name":"Cerro Fortaleza","lat":-49.9432835,"lon":-72.0162492,"elevationM":720},{"id":"node:4446511733","kind":"peak","name":"Cerro Kach Aike","lat":-49.1461603,"lon":-72.0437818,"elevationM":1008},{"id":"node:4446511763","kind":"peak","name":"Cerro Ratones","lat":-49.8165386,"lon":-72.3368828,"elevationM":1085},{"id":"node:4447718838","kind":"peak","name":"Cerro Astillado","lat":-49.1559021,"lon":-72.599417,"elevationM":2005},{"id":"node:4447718839","kind":"peak","name":"Cerro Bonete","lat":-49.1236232,"lon":-72.8098863,"elevationM":2028},{"id":"node:4447718840","kind":"peak","name":"Cerro Cangrejo","lat":-49.3323308,"lon":-72.4395056,"elevationM":1944},{"id":"node:4447718841","kind":"peak","name":"Cerro Cordón","lat":-49.254227,"lon":-72.5802851,"elevationM":1879},{"id":"node:4447718842","kind":"peak","name":"Cerro El Faldeo","lat":-49.344184,"lon":-72.7447095,"elevationM":1803},{"id":"node:4447718843","kind":"peak","name":"Cerro Milanesio","lat":-49.0294718,"lon":-72.9812582,"elevationM":2053},{"id":"node:4447718845","kind":"peak","name":"Cerro Sombrero","lat":-49.304148,"lon":-72.6259346,"elevationM":1920},{"id":"node:4447718846","kind":"peak","name":"Cerro Vespignani","lat":-49.0508453,"lon":-72.9269266,"elevationM":2146},{"id":"node:4448105160","kind":"peak","name":"Cerro Bayo","lat":-49.8651123,"lon":-72.660059,"elevationM":null},{"id":"node:4448105165","kind":"peak","name":"Cerro Cuadrado","lat":-49.9036927,"lon":-72.9024858,"elevationM":1578},{"id":"node:4448105166","kind":"peak","name":"Cerro Huemules","lat":-49.747302,"lon":-72.9236794,"elevationM":1784},{"id":"node:4448105167","kind":"peak","name":"Cerro Las Tetas","lat":-49.763386,"lon":-72.4301376,"elevationM":1145},{"id":"node:4448105170","kind":"peak","name":"Cerro Mora","lat":-49.9638971,"lon":-72.706723,"elevationM":1299},{"id":"node:4448105172","kind":"peak","name":"Cerro Pico Negro","lat":-49.7260402,"lon":-72.7087684,"elevationM":1279},{"id":"node:4448105173","kind":"peak","name":"Cerro Pintado","lat":-49.8814264,"lon":-72.8761821,"elevationM":null},{"id":"node:7954816163","kind":"peak","name":"Cerro Crestón","lat":-49.0646983,"lon":-72.9356189,"elevationM":2050},{"id":"node:10074086400","kind":"peak","name":"Cerro El Rodado","lat":-49.0214096,"lon":-72.8046173,"elevationM":1838},{"id":"node:10074139422","kind":"peak","name":"Cordón Martínez de Rozas","lat":-49.1128172,"lon":-72.8660952,"elevationM":null},{"id":"node:11069292796","kind":"peak","name":"Cerro Paredón","lat":-49.3258825,"lon":-72.8779563,"elevationM":642},{"id":"node:11069292882","kind":"peak","name":"Cerro Antena","lat":-49.3493105,"lon":-72.8783871,"elevationM":655},{"id":"node:11886666558","kind":"peak","name":"Cerro Rosado","lat":-49.3169798,"lon":-72.9050674,"elevationM":null},{"id":"node:13236154162","kind":"peak","name":"Cerro Padre","lat":-49.1048883,"lon":-72.8568035,"elevationM":2068}]}