{"tileKey":"la_m44_lo_p170","version":"v1-1775891056926","entries":[{"id":"node:60598224","kind":"peak","name":"Mount Élie De Beaumont","lat":-43.4816504,"lon":170.328163,"elevationM":3109},{"id":"node:268394285","kind":"peak","name":"Sentinel Rock","lat":-43.4250258,"lon":170.1689475,"elevationM":280},{"id":"node:322026071","kind":"peak","name":"Alex Knob","lat":-43.4276688,"lon":170.151276,"elevationM":1303},{"id":"node:470243351","kind":"peak","name":"Mount Sefton","lat":-43.6824551,"lon":170.0421118,"elevationM":3151},{"id":"node:470243913","kind":"peak","name":"Malte-Brun","lat":-43.5623839,"lon":170.3048142,"elevationM":3199},{"id":"node:514253716","kind":"peak","name":"Mount Potts","lat":-43.5025836,"lon":170.9248589,"elevationM":2180},{"id":"node:515811618","kind":"peak","name":"Mount Sunday","lat":-43.5478217,"lon":170.8928853,"elevationM":611},{"id":"node:1863863859","kind":"peak","name":"Fox Peak","lat":-43.8387181,"lon":170.7836076,"elevationM":2330},{"id":"node:2265665409","kind":"peak","name":"Beuzenberg Peak","lat":-43.7165988,"lon":170.6836292,"elevationM":2070},{"id":"node:2265665410","kind":"peak","name":"Mount Hope","lat":-43.7260475,"lon":170.6941642,"elevationM":2086},{"id":"node:2625064349","kind":"peak","name":"Aoraki / Mount Cook","lat":-43.5950017,"lon":170.1421677,"elevationM":3724},{"id":"node:2625064353","kind":"peak","name":"Te Horokōau / Mount Tasman","lat":-43.565698,"lon":170.1571884,"elevationM":3497},{"id":"node:2649432340","kind":"peak","name":"Mount Oneone","lat":-43.036654,"lon":170.4204646,"elevationM":56},{"id":"node:2974725505","kind":"peak","name":"Mount Ollivier","lat":-43.7255094,"lon":170.0644429,"elevationM":1933},{"id":"node:3067945451","kind":"peak","name":"Kaitiaki Peak","lat":-43.6454185,"lon":170.1534325,"elevationM":2222},{"id":"node:3067946511","kind":"peak","name":"Mount Wakefield","lat":-43.6927102,"lon":170.1241855,"elevationM":2058},{"id":"node:3067946512","kind":"peak","name":"Mount Kinsey","lat":-43.6804923,"lon":170.1357089,"elevationM":2083},{"id":"node:3067946513","kind":"peak","name":"Turner Peak","lat":-43.6394992,"lon":170.1469928,"elevationM":2338},{"id":"node:3218345809","kind":"peak","name":"Braun-Elwert Peak","lat":-43.7295753,"lon":170.6918131,"elevationM":2086},{"id":"node:3218345816","kind":"peak","name":"Louisa Peak","lat":-43.4228916,"lon":170.1474833,"elevationM":1188},{"id":"node:3218345826","kind":"peak","name":"Sugar Loaf","lat":-43.4059839,"lon":170.1865116,"elevationM":590},{"id":"node:3250026015","kind":"peak","name":"White Pyramid","lat":-43.4198597,"lon":170.5180538,"elevationM":2412},{"id":"node:3559794208","kind":"peak","name":"Kitchener","lat":-43.7336309,"lon":170.0635458,"elevationM":2042},{"id":"node:3559845688","kind":"peak","name":"Mount Annette","lat":-43.7513632,"lon":170.0620405,"elevationM":2235},{"id":"node:4060119045","kind":"peak","name":"Mount Fox","lat":-43.4954278,"lon":170.0012216,"elevationM":1021},{"id":"node:4920365585","kind":"peak","name":"Madonna","lat":-43.6605531,"lon":170.0895545,"elevationM":2265},{"id":"node:4920365597","kind":"peak","name":"Du Faur Peak","lat":-43.6638285,"lon":170.0840461,"elevationM":2330},{"id":"node:4920365601","kind":"peak","name":"The Footstool","lat":-43.6754301,"lon":170.0634315,"elevationM":2764},{"id":"node:4920365603","kind":"peak","name":"Mount Brunner","lat":-43.6901533,"lon":170.0284877,"elevationM":2643},{"id":"node:4920365606","kind":"peak","name":"Cadogan Peak","lat":-43.6713763,"lon":170.0738492,"elevationM":2449},{"id":"node:4931758324","kind":"peak","name":"Middle Peak","lat":-43.603142,"lon":170.1441869,"elevationM":3717},{"id":"node:4931758325","kind":"peak","name":"Mount Low","lat":-43.5955883,"lon":170.0986602,"elevationM":2932},{"id":"node:4931758326","kind":"peak","name":"Unicorn","lat":-43.6256216,"lon":170.0848372,"elevationM":2557},{"id":"node:4931758328","kind":"peak","name":"Mount Haast","lat":-43.5590003,"lon":170.1777897,"elevationM":3114},{"id":"node:4931758329","kind":"peak","name":"Mount Beatrice","lat":-43.6256216,"lon":170.0932507,"elevationM":2528},{"id":"node:4931758330","kind":"peak","name":"Mount Graham","lat":-43.5733975,"lon":170.1505813,"elevationM":3184},{"id":"node:4931758331","kind":"peak","name":"Rakiroa / Mount Dampier","lat":-43.5894994,"lon":170.1399855,"elevationM":3440},{"id":"node:4931758332","kind":"peak","name":"La Perouse","lat":-43.60131,"lon":170.0921757,"elevationM":3078},{"id":"node:4931758334","kind":"peak","name":"Mount Teichelmann","lat":-43.5736432,"lon":170.1468091,"elevationM":3144},{"id":"node:4931758335","kind":"peak","name":"Dilemma Peak","lat":-43.6251385,"lon":170.0891759,"elevationM":2602},{"id":"node:4931758336","kind":"peak","name":"Mount Johnson","lat":-43.6035755,"lon":170.2619037,"elevationM":2692},{"id":"node:4931758337","kind":"peak","name":"Nazomi","lat":-43.6219713,"lon":170.1432857,"elevationM":2925},{"id":"node:4931758338","kind":"peak","name":"Vancouver Mountain","lat":-43.5850978,"lon":170.141788,"elevationM":3309},{"id":"node:4931758339","kind":"peak","name":"Sharks Teeth","lat":-43.7028131,"lon":170.0254037,"elevationM":2518},{"id":"node:4931758340","kind":"peak","name":"Lendenfeld Peak","lat":-43.5598213,"lon":170.16964,"elevationM":3194},{"id":"node:4931758341","kind":"peak","name":"Scott Peak","lat":-43.6726198,"lon":170.0030405,"elevationM":2537},{"id":"node:4931758342","kind":"peak","name":"Jellicoe Peak","lat":-43.5933946,"lon":170.1045996,"elevationM":2827},{"id":"node:4931758343","kind":"peak","name":"Drake","lat":-43.5696042,"lon":170.1386938,"elevationM":2960},{"id":"node:4931758344","kind":"peak","name":"Low Peak","lat":-43.6087215,"lon":170.1395993,"elevationM":3593},{"id":"node:4931758345","kind":"peak","name":"Raureka Peak","lat":-43.6342259,"lon":170.0993404,"elevationM":2333},{"id":"node:4931758346","kind":"peak","name":"Mount Hicks / Saint Davids Dome","lat":-43.5876266,"lon":170.129085,"elevationM":3198},{"id":"node:4931758349","kind":"peak","name":"Anzac Peaks","lat":-43.6046942,"lon":170.172554,"elevationM":2513},{"id":"node:4931758350","kind":"peak","name":"Grey Peak","lat":-43.5575977,"lon":170.1871495,"elevationM":2882},{"id":"node:4931758351","kind":"peak","name":"Sturdee Peak","lat":-43.5893719,"lon":170.1153972,"elevationM":2708},{"id":"node:4931758352","kind":"peak","name":"Lean Peak","lat":-43.649116,"lon":170.0935104,"elevationM":2360},{"id":"node:4931758354","kind":"peak","name":"Malcher Peak","lat":-43.6103513,"lon":170.2530632,"elevationM":2502},{"id":"node:4931758355","kind":"peak","name":"Proud Peak","lat":-43.63845,"lon":170.1458606,"elevationM":2321},{"id":"node:4931758356","kind":"peak","name":"Torres Peak","lat":-43.5596503,"lon":170.146337,"elevationM":3160},{"id":"node:4931758357","kind":"peak","name":"Malaspina","lat":-43.5782756,"lon":170.1452641,"elevationM":3042},{"id":"node:4931758358","kind":"peak","name":"Sibyl Peak","lat":-43.6309179,"lon":170.0662591,"elevationM":2411},{"id":"node:4931758359","kind":"peak","name":"Silberhorn","lat":-43.5717186,"lon":170.1576624,"elevationM":3300},{"id":"node:4931758360","kind":"peak","name":"Mount Stephen","lat":-43.6952115,"lon":170.028279,"elevationM":2546},{"id":"node:4931758361","kind":"peak","name":"Mount Haidinger","lat":-43.5513726,"lon":170.1996171,"elevationM":3070},{"id":"node:4931758362","kind":"peak","name":"Novara Peak","lat":-43.6206339,"lon":170.2424202,"elevationM":2298},{"id":"node:4931758363","kind":"peak","name":"Magellan","lat":-43.5709101,"lon":170.1421699,"elevationM":3049},{"id":"node:4931758364","kind":"peak","name":"Dixon Peak","lat":-43.5636339,"lon":170.1812658,"elevationM":3004},{"id":"node:4931758365","kind":"peak","name":"Pibrac","lat":-43.6320361,"lon":170.1460752,"elevationM":2514},{"id":"node:4931758366","kind":"peak","name":"Edith Peak","lat":-43.6393041,"lon":170.1015784,"elevationM":2248},{"id":"node:4931763216","kind":"peak","name":"Emas Dome","lat":-43.5414578,"lon":170.2184305,"elevationM":2453},{"id":"node:4931763217","kind":"peak","name":"Conway Peak","lat":-43.530856,"lon":170.2142968,"elevationM":2889},{"id":"node:4931763218","kind":"peak","name":"Glacier Peak","lat":-43.5381913,"lon":170.2096758,"elevationM":3002},{"id":"node:4931763219","kind":"peak","name":"Mount Meeson","lat":-43.503584,"lon":170.2896743,"elevationM":2716},{"id":"node:4931763220","kind":"peak","name":"Mount Spencer","lat":-43.523879,"lon":170.2210483,"elevationM":2788},{"id":"node:4931763421","kind":"peak","name":"Triad Peak","lat":-43.5200328,"lon":170.200494,"elevationM":2649},{"id":"node:4931763422","kind":"peak","name":"Minarets","lat":-43.5096551,"lon":170.2743063,"elevationM":3040},{"id":"node:4931763423","kind":"peak","name":"Mount Mallory","lat":-43.5243271,"lon":170.2056868,"elevationM":2756},{"id":"node:4931763424","kind":"peak","name":"Mount Aurora","lat":-43.5192314,"lon":170.2281551,"elevationM":2673},{"id":"node:4931763425","kind":"peak","name":"Mount Alack","lat":-43.5395088,"lon":170.1936297,"elevationM":2759},{"id":"node:4931763426","kind":"peak","name":"Mount Frederick Gardiner","lat":-43.522292,"lon":170.2261553,"elevationM":2680},{"id":"node:4931763427","kind":"peak","name":"Mount Halcombe","lat":-43.511118,"lon":170.1882631,"elevationM":2659},{"id":"node:4931763429","kind":"peak","name":"De La Beche","lat":-43.5114915,"lon":170.2665386,"elevationM":2950},{"id":"node:4931763430","kind":"peak","name":"Matenga Peak","lat":-43.4998205,"lon":170.2616892,"elevationM":2665},{"id":"node:4931763431","kind":"peak","name":"Douglas Peak","lat":-43.5415791,"lon":170.2023844,"elevationM":3077},{"id":"node:4931763432","kind":"peak","name":"Mount Gold Smith","lat":-43.508018,"lon":170.2795033,"elevationM":2909},{"id":"node:4931763433","kind":"peak","name":"Aigrette","lat":-43.5124859,"lon":170.2487759,"elevationM":2665},{"id":"node:4931763434","kind":"peak","name":"Vic Mountain","lat":-43.505517,"lon":170.2848634,"elevationM":2807},{"id":"node:4931763435","kind":"peak","name":"Coronet","lat":-43.5015326,"lon":170.2981672,"elevationM":2651},{"id":"node:4931763436","kind":"peak","name":"Meteor Peak","lat":-43.5157568,"lon":170.2341375,"elevationM":2624},{"id":"node:4931763437","kind":"peak","name":"Mount Christie","lat":-43.5135145,"lon":170.1908381,"elevationM":2636},{"id":"node:4931763438","kind":"peak","name":"Mount Jervois","lat":-43.5130803,"lon":170.2376566,"elevationM":2630},{"id":"node:4931763439","kind":"peak","name":"West Hoe","lat":-43.5172211,"lon":170.1941576,"elevationM":2574},{"id":"node:4931763440","kind":"peak","name":"Mount Rudolf","lat":-43.5099991,"lon":170.2537927,"elevationM":2743},{"id":"node:4931763441","kind":"peak","name":"Bristol Top","lat":-43.5329148,"lon":170.2141003,"elevationM":2891},{"id":"node:4931763442","kind":"peak","name":"Mount Barnicoat","lat":-43.5261505,"lon":170.2091608,"elevationM":2800},{"id":"node:4931763443","kind":"peak","name":"Mount Von Bulow","lat":-43.507124,"lon":170.1880034,"elevationM":2600},{"id":"node:4931763444","kind":"peak","name":"Moonlight Peak","lat":-43.5095633,"lon":170.2561102,"elevationM":2700},{"id":"node:4931776367","kind":"peak","name":"Mount Darby","lat":-43.7635437,"lon":170.0159078,"elevationM":2531},{"id":"node:4931776369","kind":"peak","name":"Mount Rosa","lat":-43.6535585,"lon":170.1481793,"elevationM":2161},{"id":"node:4931776370","kind":"peak","name":"Mount Eric","lat":-43.7289341,"lon":170.0215812,"elevationM":2466},{"id":"node:4931776374","kind":"peak","name":"Maunga Ma","lat":-43.7249754,"lon":170.0288232,"elevationM":2503},{"id":"node:4931776375","kind":"peak","name":"Mount Bannie","lat":-43.7414583,"lon":170.0074234,"elevationM":2560},{"id":"node:4931776379","kind":"peak","name":"Mount Thomson","lat":-43.7063024,"lon":170.0228579,"elevationM":2642},{"id":"node:4931776385","kind":"peak","name":"Mount Mabel","lat":-43.6577175,"lon":170.1465056,"elevationM":2091},{"id":"node:4931776386","kind":"peak","name":"Awatea Peak","lat":-43.7276611,"lon":170.0060072,"elevationM":2440},{"id":"node:4931776387","kind":"peak","name":"Mount Marie","lat":-43.7676533,"lon":170.0190535,"elevationM":2504},{"id":"node:4931776388","kind":"peak","name":"Mount Sealy","lat":-43.7649275,"lon":170.0454421,"elevationM":2627},{"id":"node:4931776389","kind":"peak","name":"Eagle Peak","lat":-43.7176449,"lon":170.0293489,"elevationM":2548},{"id":"node:4931776390","kind":"peak","name":"Mount Jeanette","lat":-43.7670768,"lon":170.0250037,"elevationM":2485},{"id":"node:4931776391","kind":"peak","name":"White Horse Hill","lat":-43.71235,"lon":170.0862482,"elevationM":922},{"id":"node:4931776397","kind":"peak","name":"Mount Isabel","lat":-43.7317995,"lon":170.0138028,"elevationM":2598},{"id":"node:4931776402","kind":"peak","name":"Mount Jean","lat":-43.7669715,"lon":170.030984,"elevationM":2519},{"id":"node:4931776405","kind":"peak","name":"Mount Massey","lat":-43.7605233,"lon":170.0351467,"elevationM":2436},{"id":"node:4933517252","kind":"peak","name":"Storm","lat":-43.5663074,"lon":170.0870665,"elevationM":2165},{"id":"node:4933517273","kind":"peak","name":"Price Peak","lat":-43.6216925,"lon":170.0102953,"elevationM":1909},{"id":"node:4933517287","kind":"peak","name":"Belmont","lat":-43.565603,"lon":170.0979134,"elevationM":2219},{"id":"node:4933517309","kind":"peak","name":"Vanguard","lat":-43.5689504,"lon":170.1234587,"elevationM":2331},{"id":"node:4933517311","kind":"peak","name":"Mount Copland","lat":-43.5992984,"lon":170.0265924,"elevationM":2326},{"id":"node:4933527902","kind":"peak","name":"Mount Stevenson","lat":-43.8287631,"lon":170.2998393,"elevationM":2330},{"id":"node:4933527903","kind":"peak","name":"Rotten Tommy","lat":-43.8421362,"lon":170.2388995,"elevationM":1516},{"id":"node:4933527904","kind":"peak","name":"Mount Lucia","lat":-43.645612,"lon":170.3545156,"elevationM":2617},{"id":"node:4933527905","kind":"peak","name":"Mount Bruce","lat":-43.7141365,"lon":170.2608314,"elevationM":2401},{"id":"node:4933527906","kind":"peak","name":"Mount Sydney King","lat":-43.5076962,"lon":170.4347673,"elevationM":2521},{"id":"node:4933527907","kind":"peak","name":"Mount Acland","lat":-43.5183091,"lon":170.4439083,"elevationM":2562},{"id":"node:4933527909","kind":"peak","name":"Mount Biretta","lat":-43.6873037,"lon":170.2459827,"elevationM":2665},{"id":"node:4933527910","kind":"peak","name":"Mount Hutton","lat":-43.6045004,"lon":170.3913069,"elevationM":2822},{"id":"node:4933527911","kind":"peak","name":"Mount Catherine","lat":-43.8158206,"lon":170.2461951,"elevationM":1856},{"id":"node:4933527912","kind":"peak","name":"Mount William Grant","lat":-43.7045509,"lon":170.3212133,"elevationM":2556},{"id":"node:4933527913","kind":"peak","name":"Abbot","lat":-43.6658561,"lon":170.2928892,"elevationM":2630},{"id":"node:4933527914","kind":"peak","name":"Jollie Peak","lat":-43.6587155,"lon":170.3023735,"elevationM":2544},{"id":"node:4933527915","kind":"peak","name":"Mount Donald","lat":-43.7903329,"lon":170.1841009,"elevationM":1857},{"id":"node:4933527916","kind":"peak","name":"The Armchair","lat":-43.6803632,"lon":170.2265446,"elevationM":2072},{"id":"node:4933527917","kind":"peak","name":"Brass Peak","lat":-43.7467377,"lon":170.2271607,"elevationM":2343},{"id":"node:4933527919","kind":"peak","name":"Mount Kenneth","lat":-43.5845278,"lon":170.4045978,"elevationM":2638},{"id":"node:4933527920","kind":"peak","name":"Abbess","lat":-43.6743305,"lon":170.290443,"elevationM":2607},{"id":"node:4933528721","kind":"peak","name":"The Nuns Veil","lat":-43.6933843,"lon":170.2472745,"elevationM":2749},{"id":"node:4933528722","kind":"peak","name":"Mount Conrad","lat":-43.5612398,"lon":170.419232,"elevationM":2598},{"id":"node:4933528723","kind":"peak","name":"Mount Kea","lat":-43.7739424,"lon":170.2361122,"elevationM":1268},{"id":"node:4933528724","kind":"peak","name":"Mount Richmond","lat":-43.5294803,"lon":170.4314199,"elevationM":2509},{"id":"node:4933528725","kind":"peak","name":"Mount Little","lat":-43.7238137,"lon":170.2398458,"elevationM":2207},{"id":"node:4933528726","kind":"peak","name":"Mount German","lat":-43.7771264,"lon":170.2035137,"elevationM":2204},{"id":"node:4933528727","kind":"peak","name":"The Acolyte","lat":-43.708058,"lon":170.2340952,"elevationM":2290},{"id":"node:4933528728","kind":"peak","name":"Mount Jukes","lat":-43.6622238,"lon":170.3308264,"elevationM":2526},{"id":"node:4933528729","kind":"peak","name":"Mount Olaf","lat":-43.5820082,"lon":170.4028812,"elevationM":2641},{"id":"node:4933528731","kind":"peak","name":"Mount Phyllis","lat":-43.5109612,"lon":170.4269181,"elevationM":2444},{"id":"node:4933528732","kind":"peak","name":"The Big Hill","lat":-43.8490901,"lon":170.1807568,"elevationM":862},{"id":"node:4933528733","kind":"peak","name":"Mount Ronald Adair","lat":-43.5921434,"lon":170.4005638,"elevationM":2818},{"id":"node:4933528734","kind":"peak","name":"Mount Mannering","lat":-43.4868975,"lon":170.4110823,"elevationM":2669},{"id":"node:4933528735","kind":"peak","name":"The Ant-hill","lat":-43.5412715,"lon":170.435926,"elevationM":2517},{"id":"node:4933528737","kind":"peak","name":"Monastery Peak","lat":-43.6799795,"lon":170.2543083,"elevationM":2580},{"id":"node:4933528738","kind":"peak","name":"Mount Tamaki","lat":-43.6334374,"lon":170.3437439,"elevationM":2444},{"id":"node:4933528739","kind":"peak","name":"Mount Burnett","lat":-43.7994712,"lon":170.1993767,"elevationM":2032},{"id":"node:4933528740","kind":"peak","name":"Corbies Peaks","lat":-43.8003075,"lon":170.2071443,"elevationM":1930},{"id":"node:4933528741","kind":"peak","name":"Mount Fagin","lat":-43.7563696,"lon":170.2355114,"elevationM":2139},{"id":"node:4933531944","kind":"peak","name":"Mount Darwin","lat":-43.5270517,"lon":170.3397527,"elevationM":2952},{"id":"node:4933531945","kind":"peak","name":"Mount Annan","lat":-43.5268355,"lon":170.3480354,"elevationM":2934},{"id":"node:4933531946","kind":"peak","name":"Brodrick Peak","lat":-43.4982332,"lon":170.3940407,"elevationM":2669},{"id":"node:4933531947","kind":"peak","name":"Hochstetter Dome","lat":-43.5009571,"lon":170.3476663,"elevationM":2810},{"id":"node:4933531948","kind":"peak","name":"Mount Green","lat":-43.4950267,"lon":170.311729,"elevationM":2837},{"id":"node:4933531949","kind":"peak","name":"Rose Peak","lat":-43.5461538,"lon":170.3559361,"elevationM":2508},{"id":"node:4933531950","kind":"peak","name":"Mount Hamilton","lat":-43.5545207,"lon":170.3292814,"elevationM":3025},{"id":"node:4933531951","kind":"peak","name":"Mount Aylmer","lat":-43.507203,"lon":170.3614082,"elevationM":2699},{"id":"node:4933531952","kind":"peak","name":"Mount Walter","lat":-43.4901387,"lon":170.3224149,"elevationM":2905},{"id":"node:4933531953","kind":"peak","name":"Rumdoodle","lat":-43.5543667,"lon":170.3012577,"elevationM":2706},{"id":"node:4933531954","kind":"peak","name":"Mount Turnbull","lat":-43.543012,"lon":170.300099,"elevationM":2265},{"id":"node:4933531955","kind":"peak","name":"Graceful Peak","lat":-43.5031672,"lon":170.3718706,"elevationM":2457},{"id":"node:4933531956","kind":"peak","name":"Mount Abel","lat":-43.5216545,"lon":170.3617426,"elevationM":2688},{"id":"node:4933531957","kind":"peak","name":"Mount Cooper","lat":-43.5216078,"lon":170.3850284,"elevationM":2362},{"id":"node:4933532410","kind":"peak","name":"Haeckel Peak","lat":-43.5401181,"lon":170.3454219,"elevationM":2965},{"id":"node:4933533038","kind":"peak","name":"Aiguilles Rouges","lat":-43.5775003,"lon":170.2917305,"elevationM":2950},{"id":"node:4933533039","kind":"peak","name":"Frind Peak","lat":-43.5722475,"lon":170.319368,"elevationM":2448},{"id":"node:4933533040","kind":"peak","name":"Mount Nathan","lat":-43.5834864,"lon":170.2845636,"elevationM":2868},{"id":"node:4933533041","kind":"peak","name":"Mount Chudleigh","lat":-43.5873099,"lon":170.2785555,"elevationM":2966},{"id":"node:4933545071","kind":"peak","name":"Mount Garnier","lat":-43.5222567,"lon":170.1004572,"elevationM":1986},{"id":"node:4933545072","kind":"peak","name":"Crozet Peak","lat":-43.537162,"lon":170.0950928,"elevationM":2005},{"id":"node:4933545073","kind":"peak","name":"Mount Du Fresne","lat":-43.540147,"lon":170.1089545,"elevationM":2266},{"id":"node:4933545074","kind":"peak","name":"Craig Peak","lat":-43.5267027,"lon":170.05089,"elevationM":1914},{"id":"node:4933545075","kind":"peak","name":"Big Mac","lat":-43.546804,"lon":170.1295109,"elevationM":2565},{"id":"node:4933545076","kind":"peak","name":"Sam Peak","lat":-43.522725,"lon":170.073721,"elevationM":1827},{"id":"node:4933545077","kind":"peak","name":"Receveur Peak","lat":-43.5513328,"lon":170.1323712,"elevationM":2565},{"id":"node:4933567707","kind":"peak","name":"Mount Fletcher","lat":-43.4420119,"lon":170.4957127,"elevationM":2467},{"id":"node:4933567708","kind":"peak","name":"Pyramus Peak","lat":-43.441546,"lon":170.615483,"elevationM":2253},{"id":"node:4933567709","kind":"peak","name":"Mount Sibbald","lat":-43.5517807,"lon":170.5548072,"elevationM":2811},{"id":"node:4933567710","kind":"peak","name":"Mount Walton","lat":-43.4247813,"lon":170.5179,"elevationM":2403},{"id":"node:4933567711","kind":"peak","name":"Mount Shyness","lat":-43.4169279,"lon":170.5808139,"elevationM":2355},{"id":"node:4933567712","kind":"peak","name":"Mount Petermann","lat":-43.4217937,"lon":170.5671367,"elevationM":2346},{"id":"node:4933567713","kind":"peak","name":"Mount Frances","lat":-43.4294003,"lon":170.5107932,"elevationM":2479},{"id":"node:4933567714","kind":"peak","name":"Mount D'Archiac","lat":-43.4648215,"lon":170.5816475,"elevationM":2875},{"id":"node:4933567715","kind":"peak","name":"Mount Earle","lat":-43.4830175,"lon":170.6022489,"elevationM":2410},{"id":"node:4933567716","kind":"peak","name":"Takrouna Peak","lat":-43.4444734,"lon":170.4682898,"elevationM":2357},{"id":"node:4933567717","kind":"peak","name":"McClure Peak","lat":-43.4318249,"lon":170.615659,"elevationM":2486},{"id":"node:4933567718","kind":"peak","name":"Malthus Peak","lat":-43.4324451,"lon":170.5878949,"elevationM":2210},{"id":"node:4933567719","kind":"peak","name":"Mount Victoire","lat":-43.4182371,"lon":170.5197024,"elevationM":2517},{"id":"node:4933567720","kind":"peak","name":"Mount Forbes","lat":-43.4953444,"lon":170.5877361,"elevationM":2582},{"id":"node:4933567921","kind":"peak","name":"Cumine Peak","lat":-43.4098809,"lon":170.5297403,"elevationM":2484},{"id":"node:4933567922","kind":"peak","name":"Gorrie Peak","lat":-43.4144933,"lon":170.5229168,"elevationM":2425},{"id":"node:4933567923","kind":"peak","name":"The Onlooker","lat":-43.4642962,"lon":170.5939631,"elevationM":2449},{"id":"node:4933567924","kind":"peak","name":"Mount Livingstone","lat":-43.4594898,"lon":170.4597926,"elevationM":2561},{"id":"node:4933567925","kind":"peak","name":"Mount Odell","lat":-43.4194216,"lon":170.6154401,"elevationM":2145},{"id":"node:4933567926","kind":"peak","name":"Mount Moffat","lat":-43.4614009,"lon":170.4555139,"elevationM":2638},{"id":"node:4933567927","kind":"peak","name":"Mount Sutton-Turner","lat":-43.4271777,"lon":170.5126709,"elevationM":2437},{"id":"node:4933567928","kind":"peak","name":"Mount Wolseley","lat":-43.429486,"lon":170.5232215,"elevationM":2558},{"id":"node:4933567929","kind":"peak","name":"Mount Loughnan","lat":-43.4342853,"lon":170.4754996,"elevationM":2590},{"id":"node:4933567930","kind":"peak","name":"Alamein Peak","lat":-43.4471218,"lon":170.4658866,"elevationM":2367},{"id":"node:4933567931","kind":"peak","name":"Dennistoun Peak","lat":-43.4333489,"lon":170.5930834,"elevationM":2315},{"id":"node:4933567932","kind":"peak","name":"Seymour Peak","lat":-43.4269069,"lon":170.4968414,"elevationM":2400},{"id":"node:4933567934","kind":"peak","name":"The Commander","lat":-43.4508013,"lon":170.6030419,"elevationM":2337},{"id":"node:4933567935","kind":"peak","name":"Mount Huss","lat":-43.4654798,"lon":170.4343996,"elevationM":2502},{"id":"node:4933567936","kind":"peak","name":"Panorama","lat":-43.4749479,"lon":170.4802375,"elevationM":2117},{"id":"node:4933567937","kind":"peak","name":"Upton Peak","lat":-43.4669671,"lon":170.4627924,"elevationM":2328},{"id":"node:4933567938","kind":"peak","name":"Bruce Murray","lat":-43.4703931,"lon":170.4681611,"elevationM":2120},{"id":"node:4933567939","kind":"peak","name":"Cassino Peak","lat":-43.4518263,"lon":170.4605651,"elevationM":2450},{"id":"node:4933567940","kind":"peak","name":"McKinnon Peak","lat":-43.4104405,"lon":170.5334739,"elevationM":2504},{"id":"node:4933582683","kind":"peak","name":"Mount Edison","lat":-43.3713025,"lon":170.6459595,"elevationM":2337},{"id":"node:4933582684","kind":"peak","name":"The Great Unknown","lat":-43.3328881,"lon":170.5867749,"elevationM":2196},{"id":"node:4933582685","kind":"peak","name":"Mount Moreton","lat":-43.3447801,"lon":170.5960489,"elevationM":1775},{"id":"node:4933582686","kind":"peak","name":"Mount Barrowman","lat":-43.4558142,"lon":170.4141308,"elevationM":2089},{"id":"node:4933582687","kind":"peak","name":"Quoin Peak","lat":-43.3432212,"lon":170.7162527,"elevationM":2208},{"id":"node:4933582688","kind":"peak","name":"Schrund Peak","lat":-43.3447239,"lon":170.7101115,"elevationM":2190},{"id":"node:4933582689","kind":"peak","name":"Eric Twins","lat":-43.401212,"lon":170.6354452,"elevationM":2123},{"id":"node:4933582690","kind":"peak","name":"Sword Peak","lat":-43.3864977,"lon":170.6573256,"elevationM":2336},{"id":"node:4933582691","kind":"peak","name":"Mount Rangatira","lat":-43.393011,"lon":170.5212046,"elevationM":2157},{"id":"node:4933582692","kind":"peak","name":"Veil Peak","lat":-43.3728607,"lon":170.6919218,"elevationM":2028},{"id":"node:4933582693","kind":"peak","name":"Helmet Peak","lat":-43.373547,"lon":170.7023889,"elevationM":2215},{"id":"node:4933582694","kind":"peak","name":"Mount Whataroa","lat":-43.393011,"lon":170.5049826,"elevationM":2123},{"id":"node:4933582695","kind":"peak","name":"Trireme Peak","lat":-43.3678396,"lon":170.7141455,"elevationM":2374},{"id":"node:4933582696","kind":"peak","name":"Rankin Peak","lat":-43.37676,"lon":170.657847,"elevationM":2113},{"id":"node:4933582697","kind":"peak","name":"Dog Kennel Peak","lat":-43.4612345,"lon":170.4210401,"elevationM":2288},{"id":"node:4933582698","kind":"peak","name":"Bamford Knob","lat":-43.3956913,"lon":170.4766155,"elevationM":1845},{"id":"node:4933582699","kind":"peak","name":"King Peak","lat":-43.4292665,"lon":170.4243017,"elevationM":1938},{"id":"node:4933582700","kind":"peak","name":"Dolphin Peak","lat":-43.4071984,"lon":170.6278063,"elevationM":2135},{"id":"node:4933582701","kind":"peak","name":"Sceptre Peak","lat":-43.3501464,"lon":170.6725241,"elevationM":2319},{"id":"node:4933582702","kind":"peak","name":"Outram Peak","lat":-43.346094,"lon":170.7020069,"elevationM":2399},{"id":"node:4933582703","kind":"peak","name":"Eric Twins","lat":-43.3987783,"lon":170.6332994,"elevationM":2137},{"id":"node:4933582704","kind":"peak","name":"Milne Peak","lat":-43.393853,"lon":170.6621386,"elevationM":2093},{"id":"node:4933582705","kind":"peak","name":"Tauroa Peak","lat":-43.3712073,"lon":170.7264622,"elevationM":2321},{"id":"node:4933582706","kind":"peak","name":"Mount Ariki","lat":-43.3962526,"lon":170.5405165,"elevationM":2193},{"id":"node:4933585404","kind":"peak","name":"Mount Stoddart","lat":-43.2875449,"lon":170.788391,"elevationM":2223},{"id":"node:4933585405","kind":"peak","name":"Snowy Peak","lat":-43.3164637,"lon":170.7429909,"elevationM":2376},{"id":"node:4933585406","kind":"peak","name":"Mount Ramsay","lat":-43.2718296,"lon":170.8806998,"elevationM":2454},{"id":"node:4933585407","kind":"peak","name":"Baker Peak","lat":-43.3319802,"lon":170.721662,"elevationM":2259},{"id":"node:4933585408","kind":"peak","name":"Mount Farrar","lat":-43.3107198,"lon":170.656774,"elevationM":2424},{"id":"node:4933585409","kind":"peak","name":"Mount Tyndall","lat":-43.3182451,"lon":170.7242326,"elevationM":2517},{"id":"node:4933585410","kind":"peak","name":"Newton Peak","lat":-43.3163076,"lon":170.71707,"elevationM":2543},{"id":"node:4933585411","kind":"peak","name":"Icefall Lookout","lat":-43.3129291,"lon":170.6883983,"elevationM":1745},{"id":"node:4933585412","kind":"peak","name":"Malcolm Peak","lat":-43.2997253,"lon":170.8168053,"elevationM":2512},{"id":"node:4933585413","kind":"peak","name":"Blue Lookout","lat":-43.2442947,"lon":170.7757782,"elevationM":1273},{"id":"node:4933585414","kind":"peak","name":"Hidden Peak","lat":-43.2859735,"lon":170.827062,"elevationM":2298},{"id":"node:4933585415","kind":"peak","name":"False Blue Lookout","lat":-43.2583903,"lon":170.7800268,"elevationM":1223},{"id":"node:4933585416","kind":"peak","name":"Mount Lord","lat":-43.2455748,"lon":170.8705718,"elevationM":2072},{"id":"node:4933585417","kind":"peak","name":"Barlow Peak","lat":-43.3158408,"lon":170.6120948,"elevationM":2100},{"id":"node:4933585418","kind":"peak","name":"Guardian Peak","lat":-43.3191177,"lon":170.6793903,"elevationM":2218},{"id":"node:4933585419","kind":"peak","name":"Review Peak","lat":-43.320337,"lon":170.8153462,"elevationM":2174},{"id":"node:4933585420","kind":"peak","name":"Mount Westland","lat":-43.264672,"lon":170.8647353,"elevationM":2355},{"id":"node:4933587821","kind":"peak","name":"Mount Roberts","lat":-43.2393552,"lon":170.8910853,"elevationM":2107},{"id":"node:4933587822","kind":"peak","name":"Nicholson Peak","lat":-43.3160578,"lon":170.8062052,"elevationM":2367},{"id":"node:4933587823","kind":"peak","name":"Blair Peak","lat":-43.2820465,"lon":170.8551995,"elevationM":2486},{"id":"node:4933587824","kind":"peak","name":"Mount Lambert","lat":-43.2910763,"lon":170.7436303,"elevationM":2430},{"id":"node:4933587825","kind":"peak","name":"Little Unknown","lat":-43.3272976,"lon":170.6237291,"elevationM":2068},{"id":"node:4933600219","kind":"peak","name":"Dan Peak","lat":-43.2403257,"lon":170.8347388,"elevationM":2335},{"id":"node:4933602321","kind":"peak","name":"Mount Butler","lat":-43.2501088,"lon":170.9317704,"elevationM":2103},{"id":"node:4933602323","kind":"peak","name":"Erewhon Peak","lat":-43.2132879,"lon":170.9210008,"elevationM":2440},{"id":"node:4933602324","kind":"peak","name":"Mount Whitcombe","lat":-43.2160934,"lon":170.9128061,"elevationM":2650},{"id":"node:4933602325","kind":"peak","name":"Snow Dome","lat":-43.215102,"lon":170.9068817,"elevationM":2624},{"id":"node:4933602340","kind":"peak","name":"Lauper Peak","lat":-43.2269139,"lon":170.9479538,"elevationM":2485},{"id":"node:4933602341","kind":"peak","name":"Mueller Peak","lat":-43.2312884,"lon":170.8381721,"elevationM":2016},{"id":"node:4941389904","kind":"peak","name":"Mount Renegade","lat":-43.3474648,"lon":170.8726813,"elevationM":2389},{"id":"node:4941389911","kind":"peak","name":"Jollie Sisters","lat":-43.323119,"lon":170.9118201,"elevationM":2191},{"id":"node:4941389913","kind":"peak","name":"Mount Gould","lat":-43.3171556,"lon":170.9776093,"elevationM":2406},{"id":"node:4941389916","kind":"peak","name":"Red Peak","lat":-43.3142564,"lon":170.9894325,"elevationM":2637},{"id":"node:4941389918","kind":"peak","name":"Mount Arrowsmith","lat":-43.3569217,"lon":170.978253,"elevationM":2781},{"id":"node:4941389919","kind":"peak","name":"Outlaw Peak","lat":-43.3517729,"lon":170.870793,"elevationM":2394},{"id":"node:4941390722","kind":"peak","name":"South Peak","lat":-43.3881794,"lon":170.9538771,"elevationM":2343},{"id":"node:4941390723","kind":"peak","name":"Couloir Peak","lat":-43.3412525,"lon":170.9898359,"elevationM":2642},{"id":"node:4941390724","kind":"peak","name":"The Twins","lat":-43.3408186,"lon":170.9979082,"elevationM":2564},{"id":"node:4941390725","kind":"peak","name":"Hakatere Peak","lat":-43.3783234,"lon":170.9547354,"elevationM":2298},{"id":"node:4941390728","kind":"peak","name":"Ashburton Peak","lat":-43.3705872,"lon":170.9612156,"elevationM":2359},{"id":"node:4941390730","kind":"peak","name":"Johnstone Mount","lat":-43.3755784,"lon":170.8574034,"elevationM":2320},{"id":"node:4941390733","kind":"peak","name":"East Horn","lat":-43.3607284,"lon":170.9870078,"elevationM":2591},{"id":"node:4941412502","kind":"peak","name":"Newton Rocks","lat":-43.4756865,"lon":170.2352549,"elevationM":2291},{"id":"node:4941412503","kind":"peak","name":"Mount Roon","lat":-43.4783039,"lon":170.1714012,"elevationM":2231},{"id":"node:4941412504","kind":"peak","name":"Tusk","lat":-43.5033049,"lon":170.2286889,"elevationM":2289},{"id":"node:4941412505","kind":"peak","name":"Bismarck Peaks","lat":-43.5001298,"lon":170.1818682,"elevationM":2538},{"id":"node:4941412506","kind":"peak","name":"Mount Anderegg","lat":-43.4916915,"lon":170.175388,"elevationM":2360},{"id":"node:4941412507","kind":"peak","name":"Mackay Rocks","lat":-43.493094,"lon":170.2420785,"elevationM":2243},{"id":"node:4941412508","kind":"peak","name":"Drummond Peak","lat":-43.4722935,"lon":170.2537557,"elevationM":2514},{"id":"node:4941412509","kind":"peak","name":"Goatpath","lat":-43.4505199,"lon":170.2059437,"elevationM":1821},{"id":"node:4941412510","kind":"peak","name":"Thelma Peak","lat":-43.4566556,"lon":170.2164151,"elevationM":2087},{"id":"node:4941412511","kind":"peak","name":"Lemmer Peak","lat":-43.4493983,"lon":170.1541084,"elevationM":1775},{"id":"node:4941412512","kind":"peak","name":"Mount Moltke","lat":-43.4598112,"lon":170.151246,"elevationM":1987},{"id":"node:4941412513","kind":"peak","name":"Mackay Rocks","lat":-43.4924387,"lon":170.2404477,"elevationM":2242},{"id":"node:4941412514","kind":"peak","name":"Saint Mildred Peak","lat":-43.4702706,"lon":170.2398082,"elevationM":2395},{"id":"node:4941412517","kind":"peak","name":"Crawford Knob","lat":-43.4646004,"lon":170.2082183,"elevationM":1670},{"id":"node:4941412518","kind":"peak","name":"Bismarck Peaks","lat":-43.5017485,"lon":170.1817867,"elevationM":2538},{"id":"node:4941416130","kind":"peak","name":"Omoeroa Hill","lat":-43.3694013,"lon":170.084371,"elevationM":682},{"id":"node:4941417536","kind":"peak","name":"Mount Hercules","lat":-43.1671102,"lon":170.4646836,"elevationM":347},{"id":"node:4941421094","kind":"peak","name":"Mount Ashmore","lat":-43.1422069,"lon":170.6866386,"elevationM":1463},{"id":"node:4941424339","kind":"peak","name":"Jourdain Cone","lat":-43.1850872,"lon":170.9723245,"elevationM":1610},{"id":"node:4941424340","kind":"peak","name":"Agfa Knob","lat":-43.173358,"lon":170.9578899,"elevationM":1004},{"id":"node:4941424341","kind":"peak","name":"Mount Smyth","lat":-43.1870914,"lon":170.7864152,"elevationM":1855},{"id":"node:4941424342","kind":"peak","name":"Kea Knob","lat":-43.1772012,"lon":170.7380067,"elevationM":1600},{"id":"node:4941424343","kind":"peak","name":"The Red Lion","lat":-43.1886872,"lon":170.9145604,"elevationM":2444},{"id":"node:4941424344","kind":"peak","name":"Mount Neville","lat":-43.1743251,"lon":170.8093363,"elevationM":2036},{"id":"node:4941424345","kind":"peak","name":"Mount Durward","lat":-43.1717618,"lon":170.7459739,"elevationM":1929},{"id":"node:4941424346","kind":"peak","name":"Mirage Knob","lat":-43.1904065,"lon":170.7552157,"elevationM":1780},{"id":"node:4941424347","kind":"peak","name":"Mount Barry","lat":-43.177608,"lon":170.8186446,"elevationM":2074},{"id":"node:4941424348","kind":"peak","name":"Mount Evans","lat":-43.1856207,"lon":170.9258901,"elevationM":2620},{"id":"node:4958088358","kind":"peak","name":"Canavans Knob","lat":-43.3809881,"lon":170.1638654,"elevationM":249},{"id":"node:4958114538","kind":"peak","name":"Allens Hill","lat":-43.0097937,"lon":170.6766983,"elevationM":150},{"id":"node:5019725003","kind":"peak","name":"Mistake Peak","lat":-43.7847946,"lon":170.496991,"elevationM":1921},{"id":"node:5689527783","kind":"peak","name":"Mount Kennedy","lat":-43.4262503,"lon":170.5220995,"elevationM":2492},{"id":"node:6169692812","kind":"peak","name":"Ōkārito Trig","lat":-43.2313384,"lon":170.1553712,"elevationM":158},{"id":"node:6332389338","kind":"peak","name":"Pito Peak","lat":-43.4022978,"lon":170.9524493,"elevationM":2401},{"id":"node:6549038810","kind":"peak","name":"Tohunga Peak","lat":-43.3950993,"lon":170.4970861,"elevationM":1926},{"id":"node:6549038827","kind":"peak","name":"Mount Burster","lat":-43.4143392,"lon":170.2268487,"elevationM":1395},{"id":"node:6549038828","kind":"peak","name":"Mount Mueller","lat":-43.4064292,"lon":170.2067846,"elevationM":1135},{"id":"node:6549038864","kind":"peak","name":"Mount Spencer","lat":-43.4135671,"lon":170.2568482,"elevationM":1648},{"id":"node:6549038875","kind":"peak","name":"Junction Peak","lat":-43.4144562,"lon":170.3454262,"elevationM":2219},{"id":"node:6549038896","kind":"peak","name":"McFetrick Peak","lat":-43.3957578,"lon":170.3177739,"elevationM":2188},{"id":"node:6549038899","kind":"peak","name":"Mount Downe","lat":-43.3904733,"lon":170.2957059,"elevationM":2002},{"id":"node:6549083329","kind":"peak","name":"Mount Cloher","lat":-43.3688635,"lon":170.3562335,"elevationM":1689},{"id":"node:6549083345","kind":"peak","name":"Gunn Peak","lat":-43.342178,"lon":170.3655974,"elevationM":1753},{"id":"node:6549083356","kind":"peak","name":"Fardowner Peak","lat":-43.3274974,"lon":170.3774202,"elevationM":1655},{"id":"node:6549083382","kind":"peak","name":"Mount Roderick","lat":-43.4656674,"lon":170.341497,"elevationM":2343},{"id":"node:6549092285","kind":"peak","name":"Mt Peter","lat":-43.45937,"lon":170.3433482,"elevationM":2274},{"id":"node:6549092287","kind":"peak","name":"Mount Peter","lat":-43.4576009,"lon":170.3452066,"elevationM":2286},{"id":"node:6549092295","kind":"peak","name":"Mount Alec","lat":-43.4496191,"lon":170.3433288,"elevationM":2269},{"id":"node:6549092299","kind":"peak","name":"Wilczek Peak","lat":-43.4420392,"lon":170.3426416,"elevationM":2359},{"id":"node:6549092300","kind":"peak","name":"Neophyte","lat":-43.4358128,"lon":170.3309819,"elevationM":2156},{"id":"node:6549092301","kind":"peak","name":"Mount Park","lat":-43.4391375,"lon":170.3464087,"elevationM":2312},{"id":"node:6565796657","kind":"peak","name":"Pito Peak","lat":-43.402304,"lon":170.9523311,"elevationM":2401},{"id":"node:6567439378","kind":"peak","name":"Pukewhero Peak","lat":-43.5087853,"lon":170.5202855,"elevationM":2006},{"id":"node:6567452212","kind":"peak","name":"Kea Knob","lat":-43.63773,"lon":170.5100637,"elevationM":1224},{"id":"node:6567452213","kind":"peak","name":"Mount Erebus","lat":-43.6376863,"lon":170.5380992,"elevationM":2311},{"id":"node:6583665231","kind":"peak","name":"Taranaki Peak","lat":-43.6406491,"lon":170.4416589,"elevationM":2302},{"id":"node:6583665234","kind":"peak","name":"Mount John","lat":-43.9857424,"lon":170.4650398,"elevationM":1031},{"id":"node:6583665236","kind":"peak","name":"Mauka Atua","lat":-43.8787056,"lon":170.0242373,"elevationM":2557},{"id":"node:6583665237","kind":"peak","name":"Kai Tarau","lat":-43.8808195,"lon":170.027114,"elevationM":2542},{"id":"node:6585846567","kind":"peak","name":"Mount Rangitoto","lat":-43.0069213,"lon":170.8010477,"elevationM":1127},{"id":"node:6586147608","kind":"peak","name":"Kohuamarua","lat":-43.2366571,"lon":170.1326053,"elevationM":174},{"id":"node:6669416163","kind":"peak","name":"Sebastopol","lat":-43.7532399,"lon":170.0993621,"elevationM":1468},{"id":"node:6669534260","kind":"peak","name":"Kaimakamaka Peaks","lat":-43.9767519,"lon":170.0514627,"elevationM":2431},{"id":"node:6669534307","kind":"peak","name":"Ferintosh Peak","lat":-43.9109237,"lon":170.0281404,"elevationM":null},{"id":"node:6669534310","kind":"peak","name":"Glentanner Peak","lat":-43.9080459,"lon":170.0228037,"elevationM":2551},{"id":"node:6669534407","kind":"peak","name":"Mount Cran","lat":-43.8037354,"lon":170.0529502,"elevationM":2444},{"id":"node:6669534430","kind":"peak","name":"Mount Edgar Thomson","lat":-43.7776463,"lon":170.0641027,"elevationM":2379},{"id":"node:6699813674","kind":"peak","name":"Glacier Dome","lat":-43.5781441,"lon":170.1876394,"elevationM":2424},{"id":"node:6699855488","kind":"peak","name":"The Buttress","lat":-43.549974,"lon":170.1604509,"elevationM":2776},{"id":"node:6699855718","kind":"peak","name":"Chancellor Dome","lat":-43.5104113,"lon":170.1362494,"elevationM":2004},{"id":"node:6701092261","kind":"peak","name":"Mount Mitchell","lat":-43.4821285,"lon":170.0722072,"elevationM":1623},{"id":"node:6701092269","kind":"peak","name":"Mount Vickers","lat":-43.4819883,"lon":170.1090715,"elevationM":1801},{"id":"node:6701142103","kind":"peak","name":"Mount Ferguson","lat":-43.4843795,"lon":170.1181671,"elevationM":1880},{"id":"node:6702248140","kind":"peak","name":"Mount Ferguson","lat":-43.229451,"lon":170.5671081,"elevationM":1677},{"id":"node:6702591762","kind":"peak","name":"Mount McIntosh","lat":-43.4865526,"lon":170.1281697,"elevationM":1935},{"id":"node:6702591766","kind":"peak","name":"Mount Purity","lat":-43.4867105,"lon":170.136413,"elevationM":1845},{"id":"node:6702591771","kind":"peak","name":"Mount Gaskell","lat":-43.4883591,"lon":170.1457684,"elevationM":1817},{"id":"node:6704419194","kind":"peak","name":"Ebenezer Peak","lat":-43.4348335,"lon":170.1524637,"elevationM":1338},{"id":"node:6705047913","kind":"peak","name":"Mount Gunn","lat":-43.4393863,"lon":170.1964028,"elevationM":1261},{"id":"node:6705047914","kind":"peak","name":"Annie Peak","lat":-43.4345094,"lon":170.1969393,"elevationM":1259},{"id":"node:7034977124","kind":"peak","name":"Foliage Hill","lat":-43.7206603,"lon":170.0939592,"elevationM":793},{"id":"node:7281798651","kind":"peak","name":"High Peak","lat":-43.5690016,"lon":170.7242754,"elevationM":2540},{"id":"node:7281798652","kind":"peak","name":"Low Peak","lat":-43.565301,"lon":170.7302389,"elevationM":2450},{"id":"node:7281798654","kind":"peak","name":"Alma","lat":-43.5549877,"lon":170.7272131,"elevationM":2510},{"id":"node:7283760347","kind":"peak","name":"Mount Maude","lat":-43.981386,"lon":170.6319354,"elevationM":1797},{"id":"node:7283760381","kind":"peak","name":"Dobson Peak","lat":-43.9356039,"lon":170.6698264,"elevationM":2095},{"id":"node:7284466553","kind":"peak","name":"Mount Musgrave","lat":-43.8021007,"lon":170.7187805,"elevationM":2251},{"id":"node:7286413160","kind":"peak","name":"Neutral Hill","lat":-43.7672218,"lon":170.7723961,"elevationM":1763},{"id":"node:7287069346","kind":"peak","name":"Mount Toby","lat":-43.6731141,"lon":170.7112061,"elevationM":2222},{"id":"node:7287069362","kind":"peak","name":"Captains Peak","lat":-43.6428292,"lon":170.7128075,"elevationM":2371},{"id":"node:7287069372","kind":"peak","name":"Mount Pattisson","lat":-43.6290833,"lon":170.7293995,"elevationM":2313},{"id":"node:7287071778","kind":"peak","name":"Mount Brabazon","lat":-43.6036717,"lon":170.809303,"elevationM":1792},{"id":"node:7287950588","kind":"peak","name":"Mount Caton","lat":-43.6126755,"lon":170.7409695,"elevationM":2309},{"id":"node:7287950595","kind":"peak","name":"Split Peaks","lat":-43.6046962,"lon":170.737636,"elevationM":2345},{"id":"node:7287950605","kind":"peak","name":"The Thumbs","lat":-43.5931372,"lon":170.7271552,"elevationM":2546},{"id":"node:7287950619","kind":"peak","name":"Electra Peak","lat":-43.5941061,"lon":170.7156852,"elevationM":2447},{"id":"node:7287950624","kind":"peak","name":"Paris","lat":-43.6142444,"lon":170.6947197,"elevationM":2175},{"id":"node:7287962119","kind":"peak","name":"Priam","lat":-43.5785531,"lon":170.7179425,"elevationM":2435},{"id":"node:7287962122","kind":"peak","name":"Myrmidon","lat":-43.5739676,"lon":170.7186932,"elevationM":2474},{"id":"node:7289418078","kind":"peak","name":"Black Mountain","lat":-43.5709293,"lon":170.8152608,"elevationM":1809},{"id":"node:7289460708","kind":"peak","name":"Achilles Peak","lat":-43.5676024,"lon":170.72581,"elevationM":2540},{"id":"node:7289460718","kind":"peak","name":"Tantalus","lat":-43.5827195,"lon":170.7122759,"elevationM":2454},{"id":"node:7290755092","kind":"peak","name":"Exeter","lat":-43.5537079,"lon":170.6992315,"elevationM":2327},{"id":"node:7290755095","kind":"peak","name":"Graf Spee","lat":-43.5422741,"lon":170.6734196,"elevationM":2267},{"id":"node:7290755171","kind":"peak","name":"East Sentinel","lat":-43.4912329,"lon":170.6285286,"elevationM":2133},{"id":"node:7290755224","kind":"peak","name":"Mount Coates","lat":-43.4751704,"lon":170.5888084,"elevationM":2400},{"id":"node:7290755282","kind":"peak","name":"Mount Ross","lat":-43.5956842,"lon":170.6487798,"elevationM":2366},{"id":"node:7290755284","kind":"peak","name":"Ajax Peak","lat":-43.5799769,"lon":170.6526116,"elevationM":2319},{"id":"node:7290755288","kind":"peak","name":"Mount Chevalier","lat":-43.569059,"lon":170.6513325,"elevationM":2404},{"id":"node:7293534639","kind":"peak","name":"Observation Hill","lat":-43.659213,"lon":170.578345,"elevationM":1689},{"id":"node:7293534677","kind":"peak","name":"Sibbald Knobs","lat":-43.653042,"lon":170.533803,"elevationM":null},{"id":"node:7296229706","kind":"peak","name":"Charlies Knob","lat":-43.6049272,"lon":170.511204,"elevationM":1114},{"id":"node:7990348500","kind":"peak","name":"Sugar Loaf","lat":-43.8936261,"lon":170.7113358,"elevationM":1677},{"id":"node:9289188107","kind":"peak","name":"Mount Caroline","lat":-43.4915161,"lon":170.8752643,"elevationM":1384},{"id":"node:9705090917","kind":"peak","name":"Remarkable Peak","lat":-43.0607748,"lon":170.9353035,"elevationM":1790},{"id":"node:9705090927","kind":"peak","name":"Mount Beaumont","lat":-43.0990179,"lon":170.930088,"elevationM":2118},{"id":"node:10199411568","kind":"peak","name":"Mount Bowen","lat":-43.0478104,"lon":170.9633595,"elevationM":1985},{"id":"node:10199411569","kind":"peak","name":"Sentinel Peak","lat":-43.0528051,"lon":170.9678089,"elevationM":1944},{"id":"node:10276794703","kind":"peak","name":"Cone Rock","lat":-43.498058,"lon":170.0396364,"elevationM":546},{"id":"node:10653834997","kind":"peak","name":"Sugar Loaf","lat":-43.946639,"lon":170.910861,"elevationM":null},{"id":"node:10653911108","kind":"peak","name":"Mount Hay","lat":-43.949139,"lon":170.565028,"elevationM":null},{"id":"node:10653911109","kind":"peak","name":"Wee McGregor","lat":-43.942444,"lon":170.583167,"elevationM":1146},{"id":"node:10653911110","kind":"peak","name":"Mount Ardmore","lat":-43.911507,"lon":170.625276,"elevationM":1989},{"id":"node:10653911111","kind":"peak","name":"Mount Misery","lat":-43.847528,"lon":170.717889,"elevationM":null},{"id":"node:10653911112","kind":"peak","name":"Mount Joseph","lat":-43.860083,"lon":170.371,"elevationM":null},{"id":"node:10653911113","kind":"peak","name":"Little Mount John","lat":-43.976639,"lon":170.403167,"elevationM":null},{"id":"node:10653911114","kind":"peak","name":"Mount Cox","lat":-43.985861,"lon":170.264667,"elevationM":837},{"id":"node:10677340736","kind":"peak","name":"Waiho","lat":-43.284926,"lon":170.055518,"elevationM":77},{"id":"node:10677340748","kind":"peak","name":"Mount Lloyd","lat":-43.809778,"lon":170.065389,"elevationM":null},{"id":"node:10677340749","kind":"peak","name":"Rocky Knob","lat":-43.808197,"lon":170.089933,"elevationM":1280},{"id":"node:10677340750","kind":"peak","name":"Mount Hodgkinson","lat":-43.789278,"lon":170.091917,"elevationM":null},{"id":"node:10677340751","kind":"peak","name":"Round Hill","lat":-43.844639,"lon":170.0915,"elevationM":null},{"id":"node:10677340752","kind":"peak","name":"Mount Brown","lat":-43.844056,"lon":170.047111,"elevationM":null},{"id":"node:10677340753","kind":"peak","name":"Mount Dark","lat":-43.8828706,"lon":170.0458116,"elevationM":2496},{"id":"node:10677340754","kind":"peak","name":"Dun Fiunary","lat":-43.945389,"lon":170.021,"elevationM":null},{"id":"node:10677340757","kind":"peak","name":"Mount Gillies","lat":-43.781056,"lon":170.177222,"elevationM":1650},{"id":"node:10677340758","kind":"peak","name":"Mount Caitriana","lat":-43.761297,"lon":170.176298,"elevationM":1763},{"id":"node:10677340759","kind":"peak","name":"Mount Blackburn","lat":-43.756028,"lon":170.201583,"elevationM":2409},{"id":"node:10677340760","kind":"peak","name":"The Twins","lat":-43.621418,"lon":170.240429,"elevationM":null},{"id":"node:10679954204","kind":"peak","name":"Finlay Hill","lat":-43.482215,"lon":170.680172,"elevationM":2005},{"id":"node:10679980686","kind":"peak","name":"Mount Bonar","lat":-43.084139,"lon":170.654417,"elevationM":null},{"id":"node:10679980687","kind":"peak","name":"Urquhart Knob","lat":-43.114414,"lon":170.763183,"elevationM":1228},{"id":"node:10679980688","kind":"peak","name":"Mount Allen","lat":-43.092333,"lon":170.795583,"elevationM":1524},{"id":"node:10679980689","kind":"peak","name":"Mount Hitchin","lat":-43.110081,"lon":170.81209,"elevationM":1720},{"id":"node:10679980690","kind":"peak","name":"Ragged Peak","lat":-43.116639,"lon":170.87125,"elevationM":1943},{"id":"node:10679980691","kind":"peak","name":"The Tusk","lat":-43.106556,"lon":170.884333,"elevationM":2046},{"id":"node:10679980692","kind":"peak","name":"Mount Blomfield","lat":-43.150973,"lon":170.871023,"elevationM":2106},{"id":"node:10679980693","kind":"peak","name":"Artist Dome","lat":-43.164056,"lon":170.880194,"elevationM":2128},{"id":"node:10679980694","kind":"peak","name":"Park Dome","lat":-43.159471,"lon":170.929014,"elevationM":2340},{"id":"node:10679980695","kind":"peak","name":"Mount Thorndike","lat":-43.150526,"lon":170.958182,"elevationM":2035},{"id":"node:10679980696","kind":"peak","name":"Mount Van Redan","lat":-43.140083,"lon":170.974472,"elevationM":1707},{"id":"node:10679980697","kind":"peak","name":"Johanson Peak","lat":-43.131121,"lon":170.984345,"elevationM":1275},{"id":"node:10679980698","kind":"peak","name":"Mount Wylde Brown","lat":-43.124306,"lon":170.957417,"elevationM":1475},{"id":"node:10679980699","kind":"peak","name":"The Rotunda","lat":-43.097306,"lon":170.949,"elevationM":2024},{"id":"node:10679980700","kind":"peak","name":"Cropp Knob","lat":-43.089917,"lon":170.984611,"elevationM":1508},{"id":"node:10679983905","kind":"peak","name":"Mount McMillan","lat":-43.437333,"lon":170.68025,"elevationM":null},{"id":"node:10679983906","kind":"peak","name":"Oklahoma","lat":-43.442639,"lon":170.646972,"elevationM":null},{"id":"node:10679983907","kind":"peak","name":"Gordon Peak","lat":-43.454222,"lon":170.491,"elevationM":2090},{"id":"node:10679983908","kind":"peak","name":"Coopers Mate","lat":-43.528278,"lon":170.418306,"elevationM":null},{"id":"node:10679983909","kind":"peak","name":"Cloudy Peak","lat":-43.461028,"lon":170.779528,"elevationM":null},{"id":"node:10679983910","kind":"peak","name":"Ferrar Peak","lat":-43.4694825,"lon":170.7868877,"elevationM":2225},{"id":"node:10679983911","kind":"peak","name":"Mount Nolan","lat":-43.468694,"lon":170.804111,"elevationM":null},{"id":"node:10679983912","kind":"peak","name":"Mount Onslow","lat":-43.45125,"lon":170.780611,"elevationM":null},{"id":"node:10679983913","kind":"peak","name":"Watchdog Peak","lat":-43.412442,"lon":170.769162,"elevationM":2079},{"id":"node:10679983914","kind":"peak","name":"The Sentinel","lat":-43.3742154,"lon":170.8089348,"elevationM":2217},{"id":"node:10679983915","kind":"peak","name":"Bandit Peak","lat":-43.3651619,"lon":170.8248667,"elevationM":2246},{"id":"node:10679983916","kind":"peak","name":"Amazon Peak","lat":-43.35421,"lon":170.842223,"elevationM":2486},{"id":"node:10679983917","kind":"peak","name":"Warrior Peak","lat":-43.345171,"lon":170.84408,"elevationM":2580},{"id":"node:10679983918","kind":"peak","name":"Nym Peak","lat":-43.34196,"lon":170.843819,"elevationM":null},{"id":"node:10679983919","kind":"peak","name":"Spearpoint Peak","lat":-43.340278,"lon":170.841797,"elevationM":2446},{"id":"node:10679983920","kind":"peak","name":"Bardolph Peak","lat":-43.3373597,"lon":170.8463788,"elevationM":2368},{"id":"node:10679983921","kind":"peak","name":"Pistol Peak","lat":-43.335841,"lon":170.848238,"elevationM":2345},{"id":"node:10679983922","kind":"peak","name":"Mount Goethe","lat":-43.321361,"lon":170.843333,"elevationM":null},{"id":"node:10679983923","kind":"peak","name":"View Peak","lat":-43.322806,"lon":170.828111,"elevationM":null},{"id":"node:10679983924","kind":"peak","name":"Scimitar Peak","lat":-43.341166,"lon":170.824543,"elevationM":2225},{"id":"node:10679983925","kind":"peak","name":"Prelude Peak","lat":-43.320867,"lon":170.873753,"elevationM":null},{"id":"node:10679983926","kind":"peak","name":"Hells Gates","lat":-43.347269,"lon":170.910366,"elevationM":null},{"id":"node:10679983927","kind":"peak","name":"Mount Jollie","lat":-43.406306,"lon":170.857944,"elevationM":null},{"id":"node:10679983928","kind":"peak","name":"Mount McRae","lat":-43.432139,"lon":170.8465,"elevationM":null},{"id":"node:10679983929","kind":"peak","name":"The Pyramid","lat":-43.520512,"lon":170.935169,"elevationM":1748},{"id":"node:10679983930","kind":"peak","name":"Rabbit Hill","lat":-43.522753,"lon":170.861261,"elevationM":null},{"id":"node:10679983931","kind":"peak","name":"Harpers Knob","lat":-43.585694,"lon":170.964222,"elevationM":null},{"id":"node:10679983932","kind":"peak","name":"Mount Sinclair","lat":-43.641472,"lon":170.82,"elevationM":2065},{"id":"node:10679983944","kind":"peak","name":"Ben McLeod","lat":-43.736778,"lon":170.953083,"elevationM":null},{"id":"node:10679983945","kind":"peak","name":"Rawtor","lat":-43.709583,"lon":170.998556,"elevationM":1243},{"id":"node:10679983946","kind":"peak","name":"Mount Gerald","lat":-43.750389,"lon":170.634806,"elevationM":1551},{"id":"node:10679983947","kind":"peak","name":"Round Hill","lat":-43.81825,"lon":170.661361,"elevationM":null},{"id":"node:10679983948","kind":"peak","name":"Pikes Peak","lat":-43.721212,"lon":170.488719,"elevationM":1992},{"id":"node:10679983949","kind":"peak","name":"Mount Radove","lat":-43.697556,"lon":170.436139,"elevationM":2430},{"id":"node:10679983950","kind":"peak","name":"Mount Haszard","lat":-43.767167,"lon":170.436472,"elevationM":2213},{"id":"node:10679983952","kind":"peak","name":"The Needles","lat":-43.73803,"lon":170.314136,"elevationM":null},{"id":"node:10679992315","kind":"peak","name":"Kennaway Hill","lat":-43.036519,"lon":170.858528,"elevationM":823},{"id":"node:10679992318","kind":"peak","name":"Amazons Breasts","lat":-43.205346,"lon":170.947754,"elevationM":2314},{"id":"node:10679992319","kind":"peak","name":"Amazons Breasts","lat":-43.2076438,"lon":170.9485339,"elevationM":2277},{"id":"node:10679992320","kind":"peak","name":"Jims Knob","lat":-43.277879,"lon":170.926072,"elevationM":1264},{"id":"node:10679992321","kind":"peak","name":"Meins Knob","lat":-43.293639,"lon":170.920194,"elevationM":null},{"id":"node:10679992322","kind":"peak","name":"Mount Kinkel","lat":-43.288806,"lon":170.878611,"elevationM":null},{"id":"node:10679992323","kind":"peak","name":"Mount Hulka","lat":-43.303778,"lon":170.642611,"elevationM":null},{"id":"node:10679992324","kind":"peak","name":"Mount Kensington","lat":-43.291361,"lon":170.638944,"elevationM":2444},{"id":"node:10679992325","kind":"peak","name":"Tri Peak","lat":-43.27053,"lon":170.640581,"elevationM":2000},{"id":"node:10679992326","kind":"peak","name":"Mount Tri","lat":-43.264123,"lon":170.642585,"elevationM":1815},{"id":"node:10679992327","kind":"peak","name":"Smith Peak","lat":-43.261159,"lon":170.632693,"elevationM":1790},{"id":"node:10679992328","kind":"peak","name":"Avalon Peak","lat":-43.236663,"lon":170.622543,"elevationM":null},{"id":"node:10679992329","kind":"peak","name":"Artemis Peak","lat":-43.235342,"lon":170.566968,"elevationM":null},{"id":"node:10679992330","kind":"peak","name":"Mount Adams","lat":-43.268153,"lon":170.52736,"elevationM":2208},{"id":"node:10679992331","kind":"peak","name":"Speculation Hill","lat":-43.2297053,"lon":170.6858176,"elevationM":null},{"id":"node:10679992332","kind":"peak","name":"Bryan Hill","lat":-43.17724,"lon":170.638884,"elevationM":617},{"id":"node:10679992333","kind":"peak","name":"Mount Willberg","lat":-43.185512,"lon":170.596621,"elevationM":1245},{"id":"node:10679992334","kind":"peak","name":"The Exile","lat":-43.18725,"lon":170.426472,"elevationM":102},{"id":"node:10679992335","kind":"peak","name":"Mount Bird","lat":-43.226917,"lon":170.340306,"elevationM":null},{"id":"node:10679992336","kind":"peak","name":"Ralfes Knob","lat":-43.288833,"lon":170.322694,"elevationM":411},{"id":"node:10679992337","kind":"peak","name":"Mount Price","lat":-43.3075576,"lon":170.3550512,"elevationM":1034},{"id":"node:10679992338","kind":"peak","name":"Ulipa Hill","lat":-43.101111,"lon":170.32375,"elevationM":22},{"id":"node:10679992339","kind":"peak","name":"Mount Murray","lat":-43.299222,"lon":170.975944,"elevationM":2147},{"id":"node:11686411498","kind":"peak","name":"Teichelmann Rock","lat":-43.427349,"lon":170.171715,"elevationM":287}]}