{"tileKey":"la_m15_lo_m170","version":"v1-1775891056926","entries":[{"id":"node:359258216","kind":"volcano","name":"Judds Crater","lat":-14.2250194,"lon":-169.4347388,"elevationM":317},{"id":"node:359258220","kind":"peak","name":"Lata Mountain","lat":-14.2330425,"lon":-169.4524332,"elevationM":954},{"id":"node:359258248","kind":"volcano","name":"Lepue Crater","lat":-14.2219108,"lon":-169.4866082,"elevationM":299},{"id":"node:359258267","kind":"peak","name":"Maluatia Hill","lat":-14.2194444,"lon":-169.4233333,"elevationM":53},{"id":"node:359258377","kind":"volcano","name":"Olomanu Crater","lat":-14.2388141,"lon":-169.4851131,"elevationM":679},{"id":"node:359258380","kind":"volcano","name":"Olomatimu Crater","lat":-14.2303276,"lon":-169.4751538,"elevationM":790},{"id":"node:359258415","kind":"peak","name":"Piumafua Mountain","lat":-14.1705828,"lon":-169.620489,"elevationM":623},{"id":"node:359258441","kind":"peak","name":"Sunu'itao Peak","lat":-14.1687113,"lon":-169.638221,"elevationM":233},{"id":"node:359258488","kind":"peak","name":"Tumu Mountain","lat":-14.1761343,"lon":-169.661679,"elevationM":487}]}