{"tileKey":"la_m43_lo_m65","version":"v1-1775891056926","entries":[{"id":"node:4432869731","kind":"peak","name":"Cormoranes","lat":-42.7751141,"lon":-64.2427096,"elevationM":106},{"id":"node:4432869732","kind":"peak","name":"Cerro El Montículo","lat":-42.4440606,"lon":-64.1546679,"elevationM":91},{"id":"node:4432869734","kind":"peak","name":"Piaggio","lat":-42.5336318,"lon":-64.3311596,"elevationM":110},{"id":"node:4432869735","kind":"peak","name":"Cerro San José","lat":-42.4353134,"lon":-64.29796,"elevationM":91},{"id":"node:4432869736","kind":"peak","name":"Unión","lat":-42.5674216,"lon":-64.3056564,"elevationM":109},{"id":"node:4432869737","kind":"peak","name":"Morro Nuevo","lat":-42.8704871,"lon":-64.1440172,"elevationM":109},{"id":"node:10300681524","kind":"peak","name":"Cerro Pirámides","lat":-42.5776875,"lon":-64.3048935,"elevationM":null},{"id":"node:10300681525","kind":"peak","name":"Cerro Olazábal","lat":-42.5962945,"lon":-64.2516557,"elevationM":88},{"id":"node:10300681536","kind":"peak","name":"Cerro Cono","lat":-42.6077554,"lon":-64.2172465,"elevationM":null}]}