{"tileKey":"la_m15_lo_p49","version":"v1-1775891056926","entries":[{"id":"node:719060182","kind":"peak","name":"Marojejy","lat":-14.4491744,"lon":49.732411,"elevationM":2132},{"id":"node:2460307212","kind":"peak","name":"Tsaravilona","lat":-14.9319512,"lon":49.4220901,"elevationM":1365},{"id":"node:2461534309","kind":"peak","name":"Andranomenakely","lat":-14.6993879,"lon":49.8555738,"elevationM":null},{"id":"node:2461534313","kind":"peak","name":"Antsatrana","lat":-14.4290808,"lon":49.0682743,"elevationM":null},{"id":"node:2461534322","kind":"peak","name":"Makirovana","lat":-14.1781577,"lon":49.9444938,"elevationM":null},{"id":"node:2463211007","kind":"peak","name":"Tandavan’ i Tsararano","lat":-14.9234102,"lon":49.6538654,"elevationM":null}]}