{"tileKey":"la_m9_lo_p27","version":"v1-1775891056926","entries":[{"id":"node:8068576258","kind":"peak","name":"Kabumbwa","lat":-8.2112752,"lon":27.1555158,"elevationM":1074},{"id":"node:8084378784","kind":"peak","name":"Kabemba","lat":-8.2519707,"lon":27.9768199,"elevationM":null},{"id":"node:8084687498","kind":"peak","name":"Lupwezie","lat":-8.0987207,"lon":27.7174931,"elevationM":1606},{"id":"node:8087539036","kind":"peak","name":"Wakyulu","lat":-8.0725172,"lon":27.38532,"elevationM":1337},{"id":"node:8164057430","kind":"peak","name":"Kabwizundwe","lat":-8.9220708,"lon":27.8066384,"elevationM":null},{"id":"node:10310534039","kind":"peak","name":"Mont Kabondo","lat":-8.1662373,"lon":27.7597922,"elevationM":null}]}