{"tileKey":"la_m23_lo_m69","version":"v1-1775891056926","entries":[{"id":"node:96306324","kind":"peak","name":"Cerrito de Silala","lat":-22.0240955,"lon":-68.0146542,"elevationM":4850},{"id":"node:365356165","kind":"peak","name":"Cerro La Cruz","lat":-22.4409337,"lon":-68.9436691,"elevationM":null},{"id":"node:365356384","kind":"peak","name":"Cerro Llamas","lat":-22.4453488,"lon":-68.9524314,"elevationM":null},{"id":"node:2507562093","kind":"peak","name":"Alto Ojo de Cáblor","lat":-22.404942,"lon":-68.07281,"elevationM":null},{"id":"node:2507562094","kind":"peak","name":"Alto de Puripica","lat":-22.493345,"lon":-68.098226,"elevationM":null},{"id":"node:2507562095","kind":"peak","name":"Cerro Copacoya","lat":-22.31665,"lon":-68.022392,"elevationM":null},{"id":"node:2507562098","kind":"peak","name":"Cerro Curón","lat":-22.6653587,"lon":-68.1570282,"elevationM":3870},{"id":"node:2507562100","kind":"peak","name":"Cerro Jorquencal","lat":-22.6273619,"lon":-68.0043124,"elevationM":4950},{"id":"node:2507562101","kind":"peak","name":"Cerro Saye","lat":-22.646566,"lon":-68.028698,"elevationM":4205},{"id":"node:3060360707","kind":"peak","name":"Pabellón","lat":-22.502447,"lon":-68.0094363,"elevationM":4633},{"id":"node:3060360712","kind":"peak","name":"Domo Falda Grande","lat":-22.6139458,"lon":-68.0330948,"elevationM":4560},{"id":"node:3060369868","kind":"volcano","name":"Cerro del León","lat":-22.1414906,"lon":-68.1064855,"elevationM":5730},{"id":"node:3060369869","kind":"volcano","name":"Cerro Toconce","lat":-22.1962267,"lon":-68.0789698,"elevationM":5380},{"id":"node:3060369870","kind":"peak","name":"Cerro Hojalar o Piedras Grandes","lat":-22.2493755,"lon":-68.0103496,"elevationM":4824},{"id":"node:3060369875","kind":"peak","name":"Cerro del Tatio","lat":-22.4324282,"lon":-68.0151332,"elevationM":5170},{"id":"node:4031060155","kind":"volcano","name":"Volcán Paniri","lat":-22.0593979,"lon":-68.2281326,"elevationM":5946},{"id":"node:4084234598","kind":"peak","name":"Cerro Silaguala","lat":-22.0758688,"lon":-68.0253464,"elevationM":4928},{"id":"node:4084235360","kind":"volcano","name":"Cerro Chao","lat":-22.1254641,"lon":-68.1310243,"elevationM":null},{"id":"node:4084235378","kind":"peak","name":"Cerro Lagunita","lat":-22.1199082,"lon":-68.1239809,"elevationM":5362},{"id":"node:4084239989","kind":"peak","name":"Cerro Negro","lat":-22.0752185,"lon":-68.1394036,"elevationM":4860},{"id":"node:4085494701","kind":"peak","name":"Cerro Aycina","lat":-22.0068877,"lon":-68.377004,"elevationM":4685},{"id":"node:4085494703","kind":"peak","name":"Cerro Cóndores","lat":-22.0137391,"lon":-68.4111646,"elevationM":4320},{"id":"node:4085494704","kind":"peak","name":"Cerro Ichumorro","lat":-22.0504812,"lon":-68.2916883,"elevationM":4056},{"id":"node:4085494724","kind":"peak","name":"Cerro Agua Larga","lat":-22.0099196,"lon":-68.3471349,"elevationM":4531},{"id":"node:4085494725","kind":"peak","name":"Cerro Cupo","lat":-22.0329986,"lon":-68.3494094,"elevationM":4840},{"id":"node:4085494730","kind":"peak","name":"Morro Colorado","lat":-22.0170812,"lon":-68.3028463,"elevationM":4002},{"id":"node:4085494731","kind":"peak","name":"Cerro Carcanal","lat":-22.0178769,"lon":-68.3598378,"elevationM":4881},{"id":"node:4088900019","kind":"peak","name":"Cerro del Inca","lat":-22.2195016,"lon":-68.928216,"elevationM":3486},{"id":"node:4088900062","kind":"peak","name":"Cerro del Inca","lat":-22.2795583,"lon":-68.9695006,"elevationM":3711},{"id":"node:4088900185","kind":"peak","name":"Cerro de Paqui","lat":-22.0332104,"lon":-68.8080531,"elevationM":4589},{"id":"node:4088900327","kind":"peak","name":"Cerro Atahualpa","lat":-22.1639541,"lon":-68.930276,"elevationM":3480},{"id":"node:4098115068","kind":"peak","name":"Cerro Peineta","lat":-22.1691975,"lon":-68.0418536,"elevationM":5009},{"id":"node:4556378030","kind":"peak","name":"Cerro Negro","lat":-22.4271402,"lon":-68.0828735,"elevationM":4648},{"id":"node:4556378033","kind":"peak","name":"Cerro Colorado","lat":-22.393556,"lon":-68.0658576,"elevationM":4590},{"id":"node:4556378054","kind":"peak","name":"Cerro Sinchorco","lat":-22.0917655,"lon":-68.3456052,"elevationM":3843},{"id":"node:4556378074","kind":"peak","name":"Cerro Cerroqui","lat":-22.1333565,"lon":-68.407732,"elevationM":3876},{"id":"node:4556378092","kind":"peak","name":"Cerro Loma Aguada","lat":-22.2947995,"lon":-68.0397973,"elevationM":421},{"id":"node:4556378097","kind":"peak","name":"Cerro Chisnar","lat":-22.5607024,"lon":-68.2583436,"elevationM":3934},{"id":"node:4556378099","kind":"peak","name":"Cerro Chuschul","lat":-22.6013234,"lon":-68.2717815,"elevationM":4032},{"id":"node:4556378102","kind":"peak","name":"Cerro Jones","lat":-22.6159768,"lon":-68.2397399,"elevationM":null},{"id":"node:6024964688","kind":"peak","name":"Cerro Llamas Sur","lat":-22.4482657,"lon":-68.9539326,"elevationM":null},{"id":"node:6024964689","kind":"peak","name":"C. Llamas Norte","lat":-22.4433787,"lon":-68.9517011,"elevationM":null},{"id":"node:7539430382","kind":"peak","name":"Cerro Sipaka Mama o Morro de Cablor","lat":-22.4029828,"lon":-68.152408,"elevationM":4436},{"id":"node:7539430383","kind":"peak","name":"Cerro Sipitari Tata","lat":-22.4041392,"lon":-68.1655954,"elevationM":4453},{"id":"node:9217194365","kind":"peak","name":"Cerro Cere","lat":-22.2559863,"lon":-68.7461499,"elevationM":2682},{"id":"node:9217194366","kind":"peak","name":"Cerro Cobrizo","lat":-22.3270298,"lon":-68.8545871,"elevationM":2689},{"id":"node:9217194367","kind":"peak","name":"Cerro Milagro","lat":-22.366447,"lon":-68.8224276,"elevationM":2515},{"id":"node:9217194368","kind":"peak","name":"Cerro Angostura","lat":-22.4649913,"lon":-68.7317832,"elevationM":2495},{"id":"node:9217194369","kind":"peak","name":"Cerro Negro","lat":-22.3676045,"lon":-68.9488692,"elevationM":2921},{"id":"node:9217194370","kind":"peak","name":"Cerro Genoveva","lat":-22.3899274,"lon":-68.9961332,"elevationM":3017},{"id":"node:9217194371","kind":"peak","name":"Cerro Montecristo","lat":-22.3324421,"lon":-68.990241,"elevationM":3252},{"id":"node:9217194372","kind":"peak","name":"Cerro Piedra Grande","lat":-22.3022414,"lon":-68.9575075,"elevationM":3202},{"id":"node:9228608466","kind":"peak","name":"Cerro Piedra Grande","lat":-22.3094751,"lon":-68.9745649,"elevationM":3202},{"id":"node:9228608467","kind":"peak","name":"Cerro Tres Cerros","lat":-22.2469963,"lon":-68.9699884,"elevationM":3308},{"id":"node:9228608468","kind":"peak","name":"Cerro El Mineral","lat":-22.2766292,"lon":-68.8800868,"elevationM":3176},{"id":"node:9228608469","kind":"peak","name":"Cerro Platero","lat":-22.1217551,"lon":-68.8404767,"elevationM":3661},{"id":"node:9228608470","kind":"peak","name":"Cerro Bayo","lat":-22.1150473,"lon":-68.7639707,"elevationM":3537},{"id":"node:9228608471","kind":"peak","name":"Cerro Bayo","lat":-22.0636454,"lon":-68.7279776,"elevationM":3763},{"id":"node:9228608472","kind":"peak","name":"Cerro Calama","lat":-22.4631342,"lon":-68.8817009,"elevationM":2432},{"id":"node:9254604633","kind":"peak","name":"Cerro Ayquina","lat":-22.3171478,"lon":-68.2965562,"elevationM":null},{"id":"node:9254604634","kind":"peak","name":"Cerro Tatio Oeste","lat":-22.3269269,"lon":-68.0337415,"elevationM":4459},{"id":"node:9254604635","kind":"peak","name":"Cerro Tatio Norte","lat":-22.3167837,"lon":-68.002585,"elevationM":4483},{"id":"node:9254604636","kind":"peak","name":"Cerro Tatio Sur","lat":-22.3627696,"lon":-68.0097733,"elevationM":4492},{"id":"node:9254604638","kind":"peak","name":"Morro del Inca","lat":-22.580988,"lon":-68.4373317,"elevationM":3595},{"id":"node:9254604639","kind":"peak","name":"Cerro La Teca","lat":-22.6129461,"lon":-68.5058944,"elevationM":3166},{"id":"node:9254604640","kind":"peak","name":"Cerro Moctezuma","lat":-22.6058855,"lon":-68.9041248,"elevationM":3068},{"id":"node:9254610391","kind":"peak","name":"Cerro Negro","lat":-22.6417605,"lon":-68.6431457,"elevationM":2854},{"id":"node:9254610392","kind":"peak","name":"Cerro Carolina","lat":-22.7763714,"lon":-68.2835281,"elevationM":2887},{"id":"node:9265154858","kind":"peak","name":"Cerro de La Guacha","lat":-22.8718948,"lon":-68.2120568,"elevationM":2658},{"id":"node:9265154859","kind":"peak","name":"Cerro Negro","lat":-22.980399,"lon":-68.7755166,"elevationM":3392},{"id":"node:9265154860","kind":"peak","name":"Cerro Los Mellizos","lat":-22.9336878,"lon":-68.9804335,"elevationM":2738},{"id":"node:9268887988","kind":"peak","name":"Cerro El Marmol","lat":-22.9071538,"lon":-68.3036234,"elevationM":2655},{"id":"node:9270578366","kind":"peak","name":"Cerro Chaupeloma","lat":-22.7740956,"lon":-68.0793584,"elevationM":3283},{"id":"node:9270578907","kind":"peak","name":"Loma Corralito","lat":-22.8751595,"lon":-68.1340091,"elevationM":2584},{"id":"node:9270917770","kind":"peak","name":"Cerro Los Burreros","lat":-22.8509849,"lon":-68.0648447,"elevationM":2925},{"id":"node:9427938054","kind":"peak","name":"Cerro Panizo de Ojuno","lat":-22.0141972,"lon":-68.8221969,"elevationM":4325},{"id":"node:9432199636","kind":"peak","name":"Monte Tacita","lat":-22.0924481,"lon":-68.2614189,"elevationM":4201},{"id":"node:9432199637","kind":"peak","name":"Monte Loa","lat":-22.0877145,"lon":-68.6441718,"elevationM":3040},{"id":"node:9437912958","kind":"peak","name":"Cerro Aralar","lat":-22.2636895,"lon":-68.9699938,"elevationM":3542},{"id":"node:9437912959","kind":"peak","name":"Cerro Quetena","lat":-22.4274319,"lon":-68.9965259,"elevationM":2647},{"id":"node:9437912961","kind":"peak","name":"Cerro Limón Verde","lat":-22.7448595,"lon":-68.9861945,"elevationM":3611},{"id":"node:9437912962","kind":"peak","name":"Cerro Peinado","lat":-22.8655718,"lon":-68.9925514,"elevationM":2536},{"id":"node:9437912963","kind":"peak","name":"Cerro Providencia","lat":-22.904393,"lon":-68.8692122,"elevationM":2790},{"id":"node:9437912964","kind":"peak","name":"Cerro Punta del Bordo","lat":-22.9298492,"lon":-68.8221484,"elevationM":3012},{"id":"node:9441005921","kind":"peak","name":"Cerro Topaín","lat":-22.1663293,"lon":-68.3117917,"elevationM":3237},{"id":"node:9441005923","kind":"peak","name":"Cerro Pabellón","lat":-22.1745861,"lon":-68.1468844,"elevationM":4189},{"id":"node:9441005925","kind":"peak","name":"Cerro Quenante","lat":-22.6794401,"lon":-68.7775167,"elevationM":2984},{"id":"node:9441005926","kind":"peak","name":"Cerros de Tuina","lat":-22.5940482,"lon":-68.5143763,"elevationM":3015},{"id":"node:9441005927","kind":"peak","name":"Cerro Barroso","lat":-22.5800725,"lon":-68.3596468,"elevationM":3702},{"id":"node:9441005928","kind":"peak","name":"Cerro Verde","lat":-22.4584374,"lon":-68.3205213,"elevationM":3297},{"id":"node:9441005929","kind":"peak","name":"Cerro Moreno","lat":-22.3514986,"lon":-68.2856869,"elevationM":3364},{"id":"node:9441005930","kind":"peak","name":"Cerro Los Colorados","lat":-22.3491171,"lon":-68.2632422,"elevationM":3368},{"id":"node:9441005931","kind":"volcano","name":"Volcán Tátio","lat":-22.4330861,"lon":-68.0116421,"elevationM":5179},{"id":"node:9441005932","kind":"peak","name":"Cerro Junquillar","lat":-22.4953599,"lon":-68.2052259,"elevationM":3874},{"id":"node:9441005933","kind":"peak","name":"Cerro del Medio","lat":-22.5490163,"lon":-68.2337459,"elevationM":3470},{"id":"node:9442947246","kind":"peak","name":"Cerro Alto Machuca","lat":-22.6102621,"lon":-68.0794246,"elevationM":4456},{"id":"node:9442947247","kind":"peak","name":"Cerro Peñaliri","lat":-22.6205225,"lon":-68.1151516,"elevationM":3884},{"id":"node:9442947250","kind":"peak","name":"Cerro Chuilo","lat":-22.6482395,"lon":-68.2865425,"elevationM":3669},{"id":"node:9442947251","kind":"peak","name":"Cerros Los Limones Verdes","lat":-22.7978411,"lon":-68.4594591,"elevationM":3564},{"id":"node:9442947252","kind":"peak","name":"Cerro Limón Verde","lat":-22.8483867,"lon":-68.3559912,"elevationM":2773},{"id":"node:9493108886","kind":"peak","name":"Cerro Verde","lat":-22.3084199,"lon":-68.2315911,"elevationM":3269},{"id":"node:9493108888","kind":"peak","name":"Cerros de Purilactis","lat":-22.6760593,"lon":-68.3627236,"elevationM":null}]}