{"tileKey":"la_m38_lo_m71","version":"v1-1775891056926","entries":[{"id":"node:2666304037","kind":"volcano","name":"Volcán El Tromen","lat":-37.1402313,"lon":-70.0493351,"elevationM":3984},{"id":"node:4455569945","kind":"peak","name":"Cerro Agua Fria","lat":-37.983458,"lon":-70.4918523,"elevationM":1897},{"id":"node:4455569946","kind":"peak","name":"Cerro Bandera","lat":-37.73821,"lon":-70.2549549,"elevationM":null},{"id":"node:4455569948","kind":"peak","name":"Cerro Colipilli","lat":-37.8321786,"lon":-70.3690915,"elevationM":2149},{"id":"node:4455569949","kind":"peak","name":"Cerro Colorado","lat":-37.7811095,"lon":-70.6273689,"elevationM":1858},{"id":"node:4455569950","kind":"peak","name":"Cerro Colún","lat":-37.9158546,"lon":-70.6727345,"elevationM":1354},{"id":"node:4455569951","kind":"peak","name":"Cerro El Guanaco","lat":-37.8482202,"lon":-70.6866942,"elevationM":null},{"id":"node:4455569952","kind":"peak","name":"Cerro Epu Anca","lat":-37.6259974,"lon":-70.5169973,"elevationM":null},{"id":"node:4455569954","kind":"peak","name":"Cerro La Tapera","lat":-37.9246826,"lon":-70.7379632,"elevationM":null},{"id":"node:4455569955","kind":"peak","name":"Cerro León","lat":-37.7823801,"lon":-70.2473733,"elevationM":1345},{"id":"node:4455569956","kind":"peak","name":"Cerro Los Potreritos","lat":-37.8614243,"lon":-70.4421476,"elevationM":null},{"id":"node:4455569957","kind":"peak","name":"Cerro Maloñehue","lat":-37.7003275,"lon":-70.7888464,"elevationM":2230},{"id":"node:4455569959","kind":"peak","name":"Cerro Molina","lat":-37.7132627,"lon":-70.4544177,"elevationM":2137},{"id":"node:4455569960","kind":"peak","name":"Cerro Musical","lat":-37.8604722,"lon":-70.3025832,"elevationM":null},{"id":"node:4455569961","kind":"peak","name":"Cerro Negro","lat":-37.8147155,"lon":-70.413846,"elevationM":2039},{"id":"node:4455569962","kind":"peak","name":"Cerro Nonial","lat":-37.9099178,"lon":-70.445035,"elevationM":1863},{"id":"node:4455569964","kind":"peak","name":"Cerro Picú","lat":-37.7576698,"lon":-70.2497481,"elevationM":null},{"id":"node:4455569965","kind":"peak","name":"Cerro Ranquilón","lat":-37.8014916,"lon":-70.5099783,"elevationM":1738},{"id":"node:4455569969","kind":"peak","name":"Cerro de Los Bueyes","lat":-37.7198301,"lon":-70.4181149,"elevationM":2229},{"id":"node:4455569970","kind":"peak","name":"Cerro del Diablo","lat":-37.6312013,"lon":-70.4436135,"elevationM":2195},{"id":"node:4455590165","kind":"peak","name":"Cerro Cajón Chico","lat":-37.9184864,"lon":-70.9445462,"elevationM":2189},{"id":"node:4455590166","kind":"peak","name":"Cerro Hualcupén","lat":-37.976565,"lon":-70.9913473,"elevationM":2205},{"id":"node:4455590168","kind":"peak","name":"Cerro Trolón Chico","lat":-37.79002,"lon":-70.8968506,"elevationM":2479},{"id":"node:4455590169","kind":"peak","name":"Cerro Trolón","lat":-37.738199,"lon":-70.9059496,"elevationM":2505},{"id":"node:4456464910","kind":"peak","name":"Cerro Bayo del Bolo O de Los Maitene","lat":-37.5474153,"lon":-70.1349909,"elevationM":1797},{"id":"node:4456464911","kind":"peak","name":"Cerro Bola Mahuida","lat":-37.3796212,"lon":-70.6422691,"elevationM":null},{"id":"node:4456464913","kind":"peak","name":"Cerro Caycayen","lat":-37.4355597,"lon":-70.4858656,"elevationM":2331},{"id":"node:4456464916","kind":"peak","name":"Cerro El Convento","lat":-37.3988301,"lon":-70.9828963,"elevationM":2514},{"id":"node:4456464917","kind":"peak","name":"Cerro El Mayal","lat":-37.3542201,"lon":-70.3870962,"elevationM":null},{"id":"node:4456464918","kind":"peak","name":"Cerro La Tosca","lat":-37.4493033,"lon":-70.976339,"elevationM":null},{"id":"node:4456464919","kind":"peak","name":"Cerro Las Cortaderas","lat":-37.4753093,"lon":-70.3903694,"elevationM":1680},{"id":"node:4456464921","kind":"peak","name":"Cerro Naunauco","lat":-37.594961,"lon":-70.2328138,"elevationM":2051},{"id":"node:4456464923","kind":"peak","name":"Cerro Pini Mahuida","lat":-37.3528709,"lon":-70.6846924,"elevationM":1519},{"id":"node:4456464924","kind":"peak","name":"Cerro Pitren","lat":-37.5093259,"lon":-70.2988815,"elevationM":1647},{"id":"node:4456464926","kind":"peak","name":"Cerro Vilu Mallín","lat":-37.525074,"lon":-70.7666092,"elevationM":1917},{"id":"node:4456464927","kind":"peak","name":"Cerro de Los Potreritos","lat":-37.5463109,"lon":-70.5125856,"elevationM":null},{"id":"node:4456491758","kind":"peak","name":"Cerro Buta Mallín","lat":-37.2344093,"lon":-70.9983673,"elevationM":2732},{"id":"node:4456491759","kind":"peak","name":"Cerro Buta Pailan","lat":-37.0443268,"lon":-70.6945648,"elevationM":1810},{"id":"node:4456491760","kind":"peak","name":"Cerro Centinela","lat":-37.136013,"lon":-70.8878708,"elevationM":null},{"id":"node:4456491761","kind":"peak","name":"Cerro Colo","lat":-37.2288532,"lon":-70.6775023,"elevationM":null},{"id":"node:4456491762","kind":"peak","name":"Cerro Corona L","lat":-37.3012945,"lon":-70.931797,"elevationM":null},{"id":"node:4456491764","kind":"peak","name":"Cerro Guanaco","lat":-37.0940737,"lon":-70.8978739,"elevationM":null},{"id":"node:4456491765","kind":"peak","name":"Cerro Guanaco","lat":-37.2141325,"lon":-70.6338867,"elevationM":null},{"id":"node:4456491767","kind":"peak","name":"Cerro Leuto Caballo","lat":-37.3088121,"lon":-70.8836981,"elevationM":null},{"id":"node:4456491768","kind":"peak","name":"Cerro Los Cardos","lat":-37.1768385,"lon":-70.8855853,"elevationM":null},{"id":"node:4456491772","kind":"peak","name":"Cerro Negro","lat":-37.1110389,"lon":-70.7188501,"elevationM":1594},{"id":"node:4456491773","kind":"peak","name":"Cerro de La Yegua","lat":-37.2363381,"lon":-70.6332617,"elevationM":null},{"id":"node:4456491774","kind":"peak","name":"Cerro de las Piedras","lat":-37.1084557,"lon":-70.9724447,"elevationM":null},{"id":"node:4456491775","kind":"peak","name":"Cerro Ñancao","lat":-37.0556011,"lon":-70.9460473,"elevationM":null},{"id":"node:4456599058","kind":"peak","name":"Cerro Aquihueco","lat":-37.0375964,"lon":-70.560442,"elevationM":null},{"id":"node:4456599059","kind":"peak","name":"Cerro Bayo","lat":-37.1380922,"lon":-70.5424905,"elevationM":null},{"id":"node:4456599064","kind":"peak","name":"Cerro Cañañan","lat":-37.1576085,"lon":-70.4122353,"elevationM":1460},{"id":"node:4456599068","kind":"peak","name":"Cerro China Muerta","lat":-37.0719073,"lon":-70.2846446,"elevationM":2114},{"id":"node:4456599069","kind":"peak","name":"Cerro Curaco","lat":-37.4942436,"lon":-70.0008206,"elevationM":1741},{"id":"node:4456599071","kind":"peak","name":"Cerro La Corona","lat":-37.1658176,"lon":-70.5465937,"elevationM":2991},{"id":"node:4456599073","kind":"peak","name":"Cerro Las Cortaderas","lat":-37.1024085,"lon":-70.3199999,"elevationM":null},{"id":"node:4456599076","kind":"peak","name":"Cerro Negro del Tromen","lat":-37.2291526,"lon":-70.0367479,"elevationM":3386},{"id":"node:4456599077","kind":"peak","name":"Cerro Negro","lat":-37.1266667,"lon":-70.3269515,"elevationM":2540},{"id":"node:4456599079","kind":"peak","name":"Cerro Tilhue","lat":-37.2890277,"lon":-70.1297202,"elevationM":2560},{"id":"node:4456599081","kind":"peak","name":"Cerro Wayle","lat":-37.0528005,"lon":-70.1188402,"elevationM":3296},{"id":"node:4456599082","kind":"peak","name":"Cerro de La Arena","lat":-37.3455576,"lon":-70.0309443,"elevationM":1755},{"id":"node:4456599084","kind":"peak","name":"Cerro de la Parva","lat":-37.2665556,"lon":-70.4382905,"elevationM":null},{"id":"node:4456599086","kind":"peak","name":"Cerro Ñiraico","lat":-37.0417886,"lon":-70.5004506,"elevationM":2760},{"id":"node:5661894071","kind":"peak","name":"Cerro Vuta","lat":-37.4326422,"lon":-70.6490356,"elevationM":null},{"id":"node:6809961774","kind":"peak","name":"Cerro de la Virgen","lat":-37.3615351,"lon":-70.2926215,"elevationM":1131},{"id":"node:8633018580","kind":"peak","name":"Cerro El Calvario","lat":-37.0410587,"lon":-70.3217524,"elevationM":null},{"id":"node:8633657031","kind":"peak","name":"Cerro de la Cruz","lat":-37.3634563,"lon":-70.2664559,"elevationM":null},{"id":"node:12312293999","kind":"peak","name":"Cerro Premier","lat":-37.1284817,"lon":-70.5876915,"elevationM":2300}]}