{"tileKey":"la_m7_lo_p106","version":"v1-1775891056926","entries":[{"id":"node:546519996","kind":"volcano","name":"Gunung Gede","lat":-6.7878411,"lon":106.9817166,"elevationM":2958},{"id":"node:546559107","kind":"peak","name":"Gunung Karang","lat":-6.268608,"lon":106.0491108,"elevationM":1778},{"id":"node:546562831","kind":"volcano","name":"Gunung Kiaraberes-Gagak","lat":-6.7293192,"lon":106.6504902,"elevationM":1511},{"id":"node:547843884","kind":"volcano","name":"Gunung Salak","lat":-6.7136069,"lon":106.7385402,"elevationM":2211},{"id":"node:549726263","kind":"volcano","name":"Gunung Perbakti","lat":-6.7430442,"lon":106.6975485,"elevationM":1699},{"id":"node:822685707","kind":"peak","name":"Geger Bentang","lat":-6.7344158,"lon":106.9862398,"elevationM":1990},{"id":"node:825442460","kind":"peak","name":"Gunung Handeuleum","lat":-6.9327065,"lon":106.5375371,"elevationM":null},{"id":"node:1070155052","kind":"peak","name":"Gunung Munara","lat":-6.453056,"lon":106.627778,"elevationM":null},{"id":"node:1070155168","kind":"peak","name":"Pasir Cipari","lat":-6.4215,"lon":106.3875,"elevationM":null},{"id":"node:1070155204","kind":"peak","name":"Pasir Cipeteng","lat":-6.4475,"lon":106.3375,"elevationM":null},{"id":"node:1070155258","kind":"peak","name":"Pasir Balukbuk","lat":-6.498333,"lon":106.982778,"elevationM":null},{"id":"node:1070155432","kind":"peak","name":"Gunung Karancang","lat":-6.497778,"lon":106.265833,"elevationM":null},{"id":"node:1070155767","kind":"peak","name":"Pasir Rengastilu","lat":-6.441389,"lon":106.270278,"elevationM":null},{"id":"node:1070156011","kind":"peak","name":"Gunung Batu","lat":-6.943889,"lon":106.578889,"elevationM":null},{"id":"node:1070156129","kind":"peak","name":"eks Gunung Sudamanik","lat":-6.439444,"lon":106.565278,"elevationM":null},{"id":"node:1070156324","kind":"peak","name":"ex Gunung Maloko","lat":-6.428889,"lon":106.606111,"elevationM":null},{"id":"node:1070156506","kind":"peak","name":"Gunung Nguncung","lat":-6.765556,"lon":106.255,"elevationM":null},{"id":"node:1070156647","kind":"peak","name":"Gunung Gadog","lat":-6.980278,"lon":106.599167,"elevationM":null},{"id":"node:1070156648","kind":"peak","name":"Gunung Salak Dua","lat":-6.701667,"lon":106.727778,"elevationM":null},{"id":"node:1070156717","kind":"peak","name":"Gunung Jalupang","lat":-6.467778,"lon":106.299722,"elevationM":null},{"id":"node:1070156767","kind":"peak","name":"ex Gunung Heulang","lat":-6.421944,"lon":106.578611,"elevationM":189},{"id":"node:1070156823","kind":"peak","name":"Gunung Bancana","lat":-6.483056,"lon":106.959167,"elevationM":null},{"id":"node:1070156934","kind":"peak","name":"Gunung Halimun","lat":-6.830278,"lon":106.555278,"elevationM":null},{"id":"node:1070156950","kind":"peak","name":"Pasir Hontap","lat":-6.3425,"lon":106.294444,"elevationM":null},{"id":"node:1070157007","kind":"peak","name":"Pasir Munding","lat":-6.448889,"lon":106.420556,"elevationM":null},{"id":"node:1070157011","kind":"peak","name":"Gunung Kendeng","lat":-6.666667,"lon":106.333333,"elevationM":null},{"id":"node:1070157133","kind":"peak","name":"Pasir Batu","lat":-6.752222,"lon":106.661111,"elevationM":null},{"id":"node:1070157190","kind":"peak","name":"Pasir Rahong","lat":-6.439167,"lon":106.540278,"elevationM":null},{"id":"node:1070157304","kind":"peak","name":"Pasir Cicinta","lat":-6.435,"lon":106.433333,"elevationM":null},{"id":"node:1070157390","kind":"peak","name":"Gunung Jambumanis","lat":-6.588611,"lon":106.528889,"elevationM":null},{"id":"node:1070157414","kind":"peak","name":"Pasir Sangiang","lat":-6.408611,"lon":106.272222,"elevationM":null},{"id":"node:1070157857","kind":"peak","name":"Gunung Jayanti","lat":-6.972778,"lon":106.589722,"elevationM":null},{"id":"node:1070158434","kind":"peak","name":"Gunung Batu","lat":-6.615833,"lon":106.9175,"elevationM":null},{"id":"node:1070158908","kind":"peak","name":"Gunung Eusing","lat":-6.509167,"lon":106.630278,"elevationM":null},{"id":"node:1070158952","kind":"peak","name":"Pasir Tengah","lat":-6.416944,"lon":106.4375,"elevationM":null},{"id":"node:1070158956","kind":"peak","name":"Gunung Gede","lat":-6.543889,"lon":106.503056,"elevationM":null},{"id":"node:1070158957","kind":"peak","name":"Gunung Lame","lat":-6.63,"lon":106.6325,"elevationM":null},{"id":"node:1070158978","kind":"peak","name":"Pasir Bojongkalong","lat":-6.981667,"lon":106.928611,"elevationM":null},{"id":"node:1070159006","kind":"peak","name":"Pasir Cengal","lat":-6.924167,"lon":106.705833,"elevationM":null},{"id":"node:1070159056","kind":"peak","name":"Gunung Gede","lat":-6.783333,"lon":106.2,"elevationM":null},{"id":"node:1070159066","kind":"peak","name":"Gunung Kendang","lat":-6.7175,"lon":106.575556,"elevationM":null},{"id":"node:1070159091","kind":"peak","name":"Pasir Pecangan","lat":-6.4908,"lon":106.4911,"elevationM":null},{"id":"node:1070159176","kind":"peak","name":"Pasir Awi","lat":-6.461389,"lon":106.615833,"elevationM":null},{"id":"node:1070159247","kind":"peak","name":"Pasir Nunjang","lat":-6.833333,"lon":106.95,"elevationM":null},{"id":"node:1070159310","kind":"peak","name":"Pasir Jarang","lat":-6.468056,"lon":106.275833,"elevationM":null},{"id":"node:1070159349","kind":"peak","name":"Pasir Gebang","lat":-6.946111,"lon":106.738889,"elevationM":null},{"id":"node:1070159447","kind":"peak","name":"Pasir Shiheulang","lat":-6.465556,"lon":106.576667,"elevationM":null},{"id":"node:1070159720","kind":"peak","name":"Pasir Janggala","lat":-6.464722,"lon":106.353889,"elevationM":null},{"id":"node:1070159905","kind":"peak","name":"Pasir Lemahneundeut","lat":-6.970556,"lon":106.651944,"elevationM":null},{"id":"node:1070160010","kind":"peak","name":"Gunung Awi","lat":-6.683333,"lon":106.116667,"elevationM":null},{"id":"node:1070160128","kind":"peak","name":"Gunung Jayasempur","lat":-6.716667,"lon":106.366667,"elevationM":null},{"id":"node:1070160238","kind":"peak","name":"Pasir Batuakeup","lat":-6.475278,"lon":106.263611,"elevationM":null},{"id":"node:1070160345","kind":"peak","name":"Pasir Situhiang","lat":-6.865556,"lon":106.635833,"elevationM":null},{"id":"node:1070160352","kind":"peak","name":"Gunung Cabe","lat":-6.448611,"lon":106.612778,"elevationM":null},{"id":"node:1070160387","kind":"peak","name":"Gunung Kumbang","lat":-6.916667,"lon":106.3,"elevationM":null},{"id":"node:1070160632","kind":"peak","name":"Pasir Wayang","lat":-6.950556,"lon":106.655833,"elevationM":null},{"id":"node:1070160647","kind":"peak","name":"Gunung Batu","lat":-6.711111,"lon":106.621667,"elevationM":null},{"id":"node:1070160675","kind":"peak","name":"Gunung Cipocel","lat":-6.746944,"lon":106.595,"elevationM":null},{"id":"node:1070160687","kind":"peak","name":"Pasir Nangka","lat":-6.2375,"lon":106.268333,"elevationM":null},{"id":"node:1070160901","kind":"peak","name":"Gunung Pancar","lat":-6.591667,"lon":106.911944,"elevationM":855},{"id":"node:1070160905","kind":"peak","name":"Gunung Endut","lat":-6.617946,"lon":106.3608504,"elevationM":null},{"id":"node:1070160919","kind":"peak","name":"Pasir Ipis","lat":-6.486944,"lon":106.546111,"elevationM":null},{"id":"node:1070161099","kind":"peak","name":"Pasir Kemurang","lat":-6.181667,"lon":106.273889,"elevationM":null},{"id":"node:1070161108","kind":"peak","name":"Gunung Sumur","lat":-6.968611,"lon":106.990833,"elevationM":null},{"id":"node:1070161118","kind":"peak","name":"Gunung Sipugur","lat":-6.1181,"lon":106.0448,"elevationM":null},{"id":"node:1070161154","kind":"peak","name":"Gunung Tumbal","lat":-6.783333,"lon":106.366667,"elevationM":null},{"id":"node:1070161174","kind":"peak","name":"Pasir Wangun","lat":-6.491111,"lon":106.318333,"elevationM":null},{"id":"node:1070161176","kind":"peak","name":"Gunung Bitak","lat":-6.518333,"lon":106.515833,"elevationM":null},{"id":"node:1070161249","kind":"peak","name":"Gunung Joglok","lat":-6.7275,"lon":106.971667,"elevationM":null},{"id":"node:1070161353","kind":"peak","name":"Gunung Malang","lat":-6.627778,"lon":106.941111,"elevationM":null},{"id":"node:1070161473","kind":"peak","name":"Gunung Tenjoleat","lat":-6.541944,"lon":106.509444,"elevationM":null},{"id":"node:1070161496","kind":"peak","name":"Gunung Ciawitali","lat":-6.7,"lon":106.4,"elevationM":null},{"id":"node:1070161571","kind":"peak","name":"Pasir Balideug","lat":-6.471944,"lon":106.261389,"elevationM":null},{"id":"node:1070161684","kind":"peak","name":"Pasir Gebang","lat":-6.4607051,"lon":106.5910211,"elevationM":null},{"id":"node:1070161719","kind":"peak","name":"Gunung Batu","lat":-6.850278,"lon":106.521944,"elevationM":null},{"id":"node:1070161853","kind":"peak","name":"Pasir Tangkil","lat":-6.475833,"lon":106.917778,"elevationM":null},{"id":"node:1070161932","kind":"peak","name":"Gunung Luhur","lat":-6.665833,"lon":106.990833,"elevationM":null},{"id":"node:1070162004","kind":"peak","name":"Gunung Sedogan","lat":-6.955833,"lon":106.991111,"elevationM":null},{"id":"node:1070162108","kind":"peak","name":"Pasir Lajung","lat":-6.475833,"lon":106.311111,"elevationM":null},{"id":"node:1070162131","kind":"peak","name":"Gunung Tengah","lat":-6.1147,"lon":106.0388,"elevationM":null},{"id":"node:1070162161","kind":"peak","name":"Gunung Gantung","lat":-6.631944,"lon":106.551111,"elevationM":null},{"id":"node:1070162185","kind":"peak","name":"Pasir Luhur","lat":-6.451944,"lon":106.381667,"elevationM":null},{"id":"node:1070162257","kind":"peak","name":"Pasir Saga","lat":-6.483333,"lon":106.977222,"elevationM":null},{"id":"node:1070162456","kind":"peak","name":"Gunung Pakembaran","lat":-6.1052,"lon":106.0469,"elevationM":null},{"id":"node:1070162519","kind":"peak","name":"Gunung Jambu","lat":-6.555,"lon":106.606667,"elevationM":null},{"id":"node:1070162520","kind":"peak","name":"Pasir Gedogan","lat":-6.459722,"lon":106.94,"elevationM":null},{"id":"node:1070162988","kind":"peak","name":"Gunung Sanggabuwana","lat":-6.733889,"lon":106.433056,"elevationM":null},{"id":"node:1070163148","kind":"peak","name":"Gunung Handeuleum","lat":-6.9575,"lon":106.523889,"elevationM":null},{"id":"node:1070163387","kind":"peak","name":"Bunung Maleber","lat":-6.133333,"lon":106.033333,"elevationM":null},{"id":"node:1070163503","kind":"peak","name":"Pasir Manggu","lat":-6.390278,"lon":106.487222,"elevationM":null},{"id":"node:1070163527","kind":"peak","name":"Pasir Sireum","lat":-6.969722,"lon":106.682222,"elevationM":null},{"id":"node:1070163533","kind":"peak","name":"Gunung Walat","lat":-6.910833,"lon":106.826111,"elevationM":null},{"id":"node:1070163574","kind":"peak","name":"Gunung Walil","lat":-6.4625,"lon":106.366944,"elevationM":null},{"id":"node:1070163602","kind":"peak","name":"Pasir Cirawa","lat":-6.914167,"lon":106.698333,"elevationM":null},{"id":"node:1070163617","kind":"peak","name":"Pasir Cabe","lat":-6.4675,"lon":106.513056,"elevationM":null},{"id":"node:1070163710","kind":"peak","name":"Pasir Batang","lat":-6.1084,"lon":106.0272,"elevationM":null},{"id":"node:1070163825","kind":"peak","name":"Gunung Suling","lat":-6.5010156,"lon":106.610596,"elevationM":null},{"id":"node:1070163848","kind":"peak","name":"Pasir Nunggul","lat":-6.441944,"lon":106.3075,"elevationM":null},{"id":"node:1070163921","kind":"peak","name":"Pasir Pamogoran","lat":-6.4743137,"lon":106.5632022,"elevationM":null},{"id":"node:1070163976","kind":"peak","name":"Gunung Kepuh","lat":-6.431111,"lon":106.569444,"elevationM":null},{"id":"node:1070164169","kind":"peak","name":"Pasir Cagak","lat":-6.47,"lon":106.958333,"elevationM":null},{"id":"node:1070164223","kind":"peak","name":"ex Gunung Pengki","lat":-6.38,"lon":106.581111,"elevationM":null},{"id":"node:1070164258","kind":"peak","name":"Bukit Dago","lat":-6.385833,"lon":106.584722,"elevationM":null},{"id":"node:1070164275","kind":"peak","name":"Pasir Garehgeh","lat":-6.1143,"lon":106.016,"elevationM":null},{"id":"node:1070164340","kind":"peak","name":"Gunung Gagak","lat":-6.726389,"lon":106.656389,"elevationM":null},{"id":"node:1070164481","kind":"peak","name":"Gunung Kutawangsa","lat":-6.479722,"lon":106.961667,"elevationM":null},{"id":"node:1070164511","kind":"peak","name":"Gunung Muncang","lat":-6.596944,"lon":106.526944,"elevationM":null},{"id":"node:1070164521","kind":"peak","name":"Gunung Bongkok","lat":-6.647549,"lon":106.3036693,"elevationM":null},{"id":"node:1070164753","kind":"peak","name":"Gunung Endut","lat":-6.488611,"lon":106.575278,"elevationM":null},{"id":"node:1070164836","kind":"peak","name":"Gunung Buleud","lat":-6.648056,"lon":106.611111,"elevationM":null},{"id":"node:1070165091","kind":"peak","name":"Pasir Kavrungcaang","lat":-6.460833,"lon":106.283889,"elevationM":null},{"id":"node:1070165142","kind":"peak","name":"Gunung Kasur","lat":-6.941944,"lon":106.727778,"elevationM":null},{"id":"node:1070165720","kind":"peak","name":"Pasir Peupeuhwatu","lat":-6.498333,"lon":106.344167,"elevationM":null},{"id":"node:1070166383","kind":"peak","name":"Gunung Sumbul","lat":-6.709167,"lon":106.721944,"elevationM":null},{"id":"node:1070166732","kind":"peak","name":"Gunung Sulanjana","lat":-6.1239,"lon":106.0513,"elevationM":null},{"id":"node:1070166915","kind":"peak","name":"Gunung Nangerang","lat":-6.496111,"lon":106.291667,"elevationM":null},{"id":"node:1070166936","kind":"peak","name":"Gunung Eusing","lat":-6.5068644,"lon":106.6226431,"elevationM":null},{"id":"node:1070167156","kind":"peak","name":"Gunung Leulik","lat":-6.4806493,"lon":106.5104023,"elevationM":null},{"id":"node:1070167505","kind":"peak","name":"Gunung Karang","lat":-6.524167,"lon":106.983889,"elevationM":null},{"id":"node:1070167768","kind":"peak","name":"Gunung Garu","lat":-6.538611,"lon":106.5475,"elevationM":null},{"id":"node:1070168404","kind":"peak","name":"Gunung Paok","lat":-6.902778,"lon":106.593056,"elevationM":null},{"id":"node:1070168484","kind":"peak","name":"Gunung Kasur","lat":-6.771944,"lon":106.566389,"elevationM":null},{"id":"node:1070168518","kind":"peak","name":"Pasir Cipontit","lat":-6.441944,"lon":106.281944,"elevationM":null},{"id":"node:1070168553","kind":"peak","name":"Gunung Cisarua","lat":-6.860833,"lon":106.503889,"elevationM":null},{"id":"node:1070168721","kind":"peak","name":"Gunung Cilingcing","lat":-6.4275,"lon":106.668056,"elevationM":null},{"id":"node:1070168780","kind":"peak","name":"Pasir Kamuning","lat":-6.475833,"lon":106.928889,"elevationM":null},{"id":"node:1070168860","kind":"peak","name":"Pasir Sarab","lat":-6.562222,"lon":106.588056,"elevationM":null},{"id":"node:1070169176","kind":"peak","name":"Pasir Tomp","lat":-6.493889,"lon":106.440556,"elevationM":null},{"id":"node:1070169195","kind":"peak","name":"Gunung Langkarak","lat":-6.1165,"lon":106.0373,"elevationM":null},{"id":"node:1070169296","kind":"peak","name":"Gunung Gadung","lat":-6.493889,"lon":106.9575,"elevationM":null},{"id":"node:1070169407","kind":"peak","name":"Pasir Ujungsusi","lat":-6.4925,"lon":106.363611,"elevationM":null},{"id":"node:1070169795","kind":"peak","name":"Gunung Gede","lat":-6.5574232,"lon":106.4733918,"elevationM":1003},{"id":"node:1070169800","kind":"peak","name":"Pasir Pede","lat":-6.0768,"lon":106.0115,"elevationM":null},{"id":"node:1070169830","kind":"peak","name":"Gunung Gede","lat":-6.781667,"lon":106.871389,"elevationM":null},{"id":"node:1070169948","kind":"peak","name":"Gunung Marikangen","lat":-6.1,"lon":106.05,"elevationM":null},{"id":"node:1070170104","kind":"peak","name":"Gunung Ungkalmunding","lat":-6.533333,"lon":106.316667,"elevationM":null},{"id":"node:1070170215","kind":"peak","name":"Gunung Mangge","lat":-6.963889,"lon":106.561944,"elevationM":null},{"id":"node:1070170350","kind":"peak","name":"Pasir Turus","lat":-6.235,"lon":106.258056,"elevationM":null},{"id":"node:1070170437","kind":"peak","name":"Gunung Parungpung","lat":-6.599167,"lon":106.596944,"elevationM":null},{"id":"node:1070170530","kind":"peak","name":"Pasir Paku","lat":-6.75,"lon":106.233333,"elevationM":null},{"id":"node:1070170616","kind":"peak","name":"Pasir Naemangwangi","lat":-6.421389,"lon":106.280833,"elevationM":null},{"id":"node:1070170892","kind":"peak","name":"Gunung Jengkol","lat":-6.54,"lon":106.618889,"elevationM":null},{"id":"node:1070171309","kind":"peak","name":"Gunung Singa","lat":-6.639444,"lon":106.523333,"elevationM":null},{"id":"node:1070171647","kind":"peak","name":"Gunung Gedogan","lat":-6.933333,"lon":106.6175,"elevationM":null},{"id":"node:1070171660","kind":"peak","name":"Pasir Kalong","lat":-6.435,"lon":106.578889,"elevationM":null},{"id":"node:1070171708","kind":"peak","name":"Pasir Gelap","lat":-6.611944,"lon":106.603889,"elevationM":null},{"id":"node:1070171833","kind":"peak","name":"Pasir Jantungeun","lat":-6.434167,"lon":106.506111,"elevationM":null},{"id":"node:1070171886","kind":"peak","name":"Gunung Manapo","lat":-6.642778,"lon":106.506389,"elevationM":null},{"id":"node:1070172253","kind":"peak","name":"Gunung Bunder","lat":-6.618889,"lon":106.991944,"elevationM":null},{"id":"node:1070172268","kind":"peak","name":"Gunung Kuta","lat":-6.418056,"lon":106.288889,"elevationM":null},{"id":"node:1070172271","kind":"peak","name":"Gunung Tela","lat":-6.5274516,"lon":106.5465092,"elevationM":751},{"id":"node:1070172340","kind":"peak","name":"Pasir Bali","lat":-6.461667,"lon":106.936389,"elevationM":null},{"id":"node:1070172371","kind":"peak","name":"Gunung Batu","lat":-6.915833,"lon":106.541667,"elevationM":null},{"id":"node:1070172495","kind":"peak","name":"Gunung Pangubutan","lat":-6.633333,"lon":106.983333,"elevationM":null},{"id":"node:1070172672","kind":"peak","name":"Gunung Angsana","lat":-6.4605,"lon":106.4675,"elevationM":null},{"id":"node:1070172851","kind":"peak","name":"Gunung Bapang","lat":-6.7,"lon":106.3,"elevationM":null},{"id":"node:1070172904","kind":"peak","name":"Pasir Gombong","lat":-6.969167,"lon":106.693611,"elevationM":null},{"id":"node:1070172912","kind":"peak","name":"Pasir Masigit","lat":-6.895278,"lon":106.658889,"elevationM":null},{"id":"node:1070172924","kind":"peak","name":"Pasir Meong","lat":-6.422222,"lon":106.345556,"elevationM":null},{"id":"node:1070173315","kind":"peak","name":"Pasir Suren","lat":-6.9925,"lon":106.628889,"elevationM":null},{"id":"node:1070173442","kind":"peak","name":"Gunung Puyuh","lat":-6.478611,"lon":106.619444,"elevationM":null},{"id":"node:1070173448","kind":"peak","name":"Gunung Sumpung","lat":-6.5168587,"lon":106.6242333,"elevationM":null},{"id":"node:1070173465","kind":"peak","name":"Gunung Soge","lat":-6.75,"lon":106.316667,"elevationM":null},{"id":"node:1070173500","kind":"volcano","name":"Gunung Pangrango","lat":-6.7698136,"lon":106.9640294,"elevationM":3019},{"id":"node:1070173521","kind":"peak","name":"Gunung Doho","lat":-6.609167,"lon":106.591667,"elevationM":null},{"id":"node:1070173621","kind":"peak","name":"Gunung Kasur","lat":-6.719167,"lon":106.663056,"elevationM":null},{"id":"node:1070173685","kind":"peak","name":"Gunung Putri","lat":-6.755556,"lon":106.680556,"elevationM":null},{"id":"node:1070173737","kind":"peak","name":"Gunung Peuteuy","lat":-6.687778,"lon":106.674722,"elevationM":null},{"id":"node:1070173764","kind":"peak","name":"Pasir Handiwung","lat":-6.493333,"lon":106.331667,"elevationM":null},{"id":"node:1070173982","kind":"peak","name":"Gunung Brengbeng","lat":-6.839167,"lon":106.545556,"elevationM":null},{"id":"node:1070174029","kind":"peak","name":"Pasir Pakel","lat":-6.441667,"lon":106.299444,"elevationM":null},{"id":"node:1070174206","kind":"peak","name":"Gunung Wayang","lat":-6.7825,"lon":106.664167,"elevationM":null},{"id":"node:1070174290","kind":"peak","name":"Pasir Datar","lat":-6.917778,"lon":106.74,"elevationM":null},{"id":"node:1070174406","kind":"peak","name":"Gunung Bingung","lat":-6.978889,"lon":106.578056,"elevationM":null},{"id":"node:1070175247","kind":"peak","name":"Pasir Gunung","lat":-6.441667,"lon":106.369444,"elevationM":null},{"id":"node:1070175280","kind":"peak","name":"Pasir Pamatangbunut","lat":-6.4816,"lon":106.134,"elevationM":null},{"id":"node:1070176228","kind":"peak","name":"Pasir Sereh","lat":-6.435556,"lon":106.543889,"elevationM":null},{"id":"node:1070176308","kind":"peak","name":"Gunung Talaga","lat":-6.852222,"lon":106.545833,"elevationM":null},{"id":"node:1070176508","kind":"peak","name":"Gunung Citiu","lat":-6.0917,"lon":106.0552,"elevationM":null},{"id":"node:1070176609","kind":"peak","name":"Puncak Rarata","lat":-6.512222,"lon":106.730278,"elevationM":null},{"id":"node:1070176746","kind":"peak","name":"Gunung Bedil","lat":-6.979444,"lon":106.938333,"elevationM":null},{"id":"node:1070176801","kind":"peak","name":"Puncak Kapur Ciampea","lat":-6.5531404,"lon":106.680083,"elevationM":null},{"id":"node:1070176812","kind":"peak","name":"Pasir Kutamaneuh-Kulon","lat":-6.933333,"lon":106.866667,"elevationM":null},{"id":"node:1070176818","kind":"peak","name":"Pasir Gegerbentang","lat":-6.734722,"lon":106.986111,"elevationM":1990},{"id":"node:1070177083","kind":"peak","name":"Gunung Masigit","lat":-6.668333,"lon":106.586389,"elevationM":null},{"id":"node:1070177133","kind":"peak","name":"Gunung Putri","lat":-6.459722,"lon":106.890833,"elevationM":null},{"id":"node:1070177292","kind":"peak","name":"Gunung Kendeng","lat":-6.762222,"lon":106.524722,"elevationM":null},{"id":"node:1070177357","kind":"peak","name":"Gunung Simeut","lat":-6.604722,"lon":106.995556,"elevationM":null},{"id":"node:1070177526","kind":"peak","name":"Pasir Walang","lat":-6.492222,"lon":106.271389,"elevationM":null},{"id":"node:1070177542","kind":"peak","name":"Pasir Eunyeun","lat":-6.428889,"lon":106.623889,"elevationM":null},{"id":"node:1070177712","kind":"peak","name":"Pasir Leles","lat":-6.448611,"lon":106.317778,"elevationM":null},{"id":"node:1070177801","kind":"peak","name":"Gunung Panenjoan","lat":-6.663056,"lon":106.522222,"elevationM":null},{"id":"node:1070177810","kind":"peak","name":"Pasir Areuy","lat":-6.489722,"lon":106.284722,"elevationM":null},{"id":"node:1070177880","kind":"peak","name":"Pasir Bungur","lat":-6.450556,"lon":106.299167,"elevationM":null},{"id":"node:1070178106","kind":"peak","name":"Pasir Peuteuy","lat":-6.633333,"lon":106.2,"elevationM":null},{"id":"node:1070178129","kind":"peak","name":"Gunung Buleud","lat":-6.978056,"lon":106.583056,"elevationM":null},{"id":"node:1070178178","kind":"peak","name":"Gunung Lingkung","lat":-6.761389,"lon":106.932778,"elevationM":null},{"id":"node:1070178207","kind":"peak","name":"Bukit Rumpin","lat":-6.455865,"lon":106.6458955,"elevationM":null},{"id":"node:1070178493","kind":"peak","name":"Gunung Bancet","lat":-6.8425,"lon":106.574444,"elevationM":null},{"id":"node:1070178560","kind":"peak","name":"Gunung Pongkor","lat":-6.668611,"lon":106.557222,"elevationM":null},{"id":"node:1070178573","kind":"peak","name":"Gunung Masagpangan","lat":-6.0974,"lon":106.0569,"elevationM":null},{"id":"node:1070178800","kind":"peak","name":"Pasir Kemang","lat":-6.452778,"lon":106.550833,"elevationM":null},{"id":"node:1070178929","kind":"peak","name":"Pasir Gohong","lat":-6.489444,"lon":106.307222,"elevationM":null},{"id":"node:1070178975","kind":"peak","name":"Gunung Dango","lat":-6.616667,"lon":106.565,"elevationM":null},{"id":"node:1070179246","kind":"peak","name":"Gunung Cibugis","lat":-6.491667,"lon":106.558056,"elevationM":null},{"id":"node:1070179340","kind":"peak","name":"Pasir Batutumpang","lat":-6.988889,"lon":106.654722,"elevationM":null},{"id":"node:1070179380","kind":"peak","name":"Gunung Guha","lat":-6.988611,"lon":106.870833,"elevationM":null},{"id":"node:1070179390","kind":"peak","name":"Gunung Tenjolaut","lat":-6.1214,"lon":106.0375,"elevationM":null},{"id":"node:1070179453","kind":"peak","name":"Gunung Sitomo","lat":-6.541389,"lon":106.521389,"elevationM":null},{"id":"node:1070179461","kind":"peak","name":"Gunung Kencana","lat":-6.659167,"lon":106.979444,"elevationM":null},{"id":"node:1070179526","kind":"peak","name":"Gunung Goha","lat":-6.608056,"lon":106.562222,"elevationM":null},{"id":"node:1070179651","kind":"peak","name":"Pasir Peda","lat":-6.0827,"lon":106.0402,"elevationM":null},{"id":"node:1070179775","kind":"peak","name":"Puncak Pilar","lat":-6.4758529,"lon":106.5991562,"elevationM":512},{"id":"node:1070179838","kind":"peak","name":"Gunung Handarusa","lat":-6.4997,"lon":106.3943,"elevationM":null},{"id":"node:1070179931","kind":"peak","name":"Pasir Tugu","lat":-6.949167,"lon":106.662222,"elevationM":null},{"id":"node:1070180008","kind":"peak","name":"Gunung Bodas","lat":-6.842222,"lon":106.506944,"elevationM":null},{"id":"node:1070180157","kind":"peak","name":"Pasir Cikoneng","lat":-6.358611,"lon":106.449722,"elevationM":null},{"id":"node:1070180253","kind":"peak","name":"Gunung Taman","lat":-6.5083437,"lon":106.6097327,"elevationM":552},{"id":"node:1070180396","kind":"peak","name":"Gunung Bunut","lat":-6.4454113,"lon":106.6279133,"elevationM":null},{"id":"node:1070180436","kind":"peak","name":"Gunung Tapos","lat":-6.401111,"lon":106.696389,"elevationM":null},{"id":"node:1070180452","kind":"peak","name":"Gunung Limbung","lat":-6.5770482,"lon":106.4562656,"elevationM":781},{"id":"node:1070180510","kind":"peak","name":"Pasir Kerak","lat":-6.454444,"lon":106.375,"elevationM":null},{"id":"node:1070180602","kind":"peak","name":"Gunung Pondokwalanda","lat":-6.634167,"lon":106.963889,"elevationM":null},{"id":"node:1070180730","kind":"peak","name":"Pasir Muncang","lat":-6.981111,"lon":106.6825,"elevationM":null},{"id":"node:1070180871","kind":"peak","name":"Gunung Sipayung","lat":-6.1062,"lon":106.0438,"elevationM":null},{"id":"node:1070181040","kind":"peak","name":"Pasir Walen","lat":-6.493333,"lon":106.266944,"elevationM":null},{"id":"node:1070181053","kind":"peak","name":"Pasir Gintung","lat":-6.356667,"lon":106.523889,"elevationM":null},{"id":"node:1070181084","kind":"peak","name":"Gunung Manangal","lat":-6.961111,"lon":106.586111,"elevationM":null},{"id":"node:1070181159","kind":"peak","name":"Gunung Mas","lat":-6.705278,"lon":106.991389,"elevationM":null},{"id":"node:1070181426","kind":"peak","name":"Gunung Pinang","lat":-6.0605,"lon":106.1009,"elevationM":null},{"id":"node:1070181443","kind":"peak","name":"Gunung Menir","lat":-6.695833,"lon":106.666944,"elevationM":null},{"id":"node:1070181484","kind":"peak","name":"Gunung Paok","lat":-6.511389,"lon":106.707222,"elevationM":null},{"id":"node:1070181776","kind":"peak","name":"Pasir Sireum","lat":-6.473611,"lon":106.538611,"elevationM":null},{"id":"node:1070181856","kind":"peak","name":"Pasir Bakudieun","lat":-6.4825,"lon":106.260833,"elevationM":null},{"id":"node:1070181963","kind":"peak","name":"Pasir Sinagar","lat":-6.769167,"lon":106.7175,"elevationM":null},{"id":"node:1070181978","kind":"peak","name":"Gunung Salak Satu","lat":-6.7160355,"lon":106.7335779,"elevationM":2211},{"id":"node:1070182032","kind":"peak","name":"Pasir Kareo","lat":-6.386111,"lon":106.473611,"elevationM":null},{"id":"node:1070182038","kind":"peak","name":"Gunung Suban Satu","lat":-6.517778,"lon":106.526389,"elevationM":null},{"id":"node:1070182083","kind":"peak","name":"Gunung Malang","lat":-6.716667,"lon":106.2,"elevationM":null},{"id":"node:1070182303","kind":"peak","name":"Pasir Sipedeng","lat":-6.462778,"lon":106.299722,"elevationM":null},{"id":"node:1070182678","kind":"peak","name":"Gunung Pandjang","lat":-6.429722,"lon":106.695,"elevationM":null},{"id":"node:1070182687","kind":"peak","name":"Gunung Kutabodas","lat":-6.478889,"lon":106.967778,"elevationM":null},{"id":"node:1070182759","kind":"peak","name":"Gunung Kepuh","lat":-6.476944,"lon":106.638056,"elevationM":null},{"id":"node:1070182882","kind":"peak","name":"Gunung Panunggangan","lat":-6.4949637,"lon":106.5865638,"elevationM":null},{"id":"node:1070182929","kind":"peak","name":"Gunung Masigit","lat":-6.789722,"lon":106.950833,"elevationM":null},{"id":"node:1070183057","kind":"peak","name":"Gunung Palasari","lat":-6.624167,"lon":106.545833,"elevationM":null},{"id":"node:1070183086","kind":"peak","name":"Gunung Malas","lat":-6.616389,"lon":106.574167,"elevationM":null},{"id":"node:1070183089","kind":"peak","name":"Gunung Sukaro","lat":-6.797222,"lon":106.996944,"elevationM":null},{"id":"node:1070183337","kind":"peak","name":"Pasir Karamat","lat":-6.884444,"lon":106.639444,"elevationM":null},{"id":"node:1070183353","kind":"peak","name":"Gunung Pangkulahan","lat":-6.8,"lon":106.516667,"elevationM":null},{"id":"node:1070183445","kind":"peak","name":"Pasir Peundeuy","lat":-6.468333,"lon":106.311944,"elevationM":null},{"id":"node:1070183532","kind":"peak","name":"Gunung Halimun","lat":-6.7108302,"lon":106.4516375,"elevationM":1929},{"id":"node:1070183550","kind":"peak","name":"Pasir Eundeur","lat":-6.450833,"lon":106.620833,"elevationM":null},{"id":"node:1070183569","kind":"peak","name":"Pasir Haludalean","lat":-6.4541,"lon":106.2355,"elevationM":null},{"id":"node:1070183656","kind":"peak","name":"Gunung Mokol","lat":-6.489444,"lon":106.321389,"elevationM":null},{"id":"node:1070184119","kind":"peak","name":"Gunung Masigit","lat":-6.934722,"lon":106.585556,"elevationM":null},{"id":"node:1070184168","kind":"peak","name":"Pasir Purugleuleuy","lat":-6.429444,"lon":106.3,"elevationM":null},{"id":"node:1070184470","kind":"peak","name":"Gunung Galuga","lat":-6.569444,"lon":106.644722,"elevationM":null},{"id":"node:1070185374","kind":"peak","name":"Gunung Endut","lat":-6.780556,"lon":106.678333,"elevationM":null},{"id":"node:1070186241","kind":"peak","name":"Gunung Sanggar","lat":-6.600833,"lon":106.996111,"elevationM":null},{"id":"node:1070186275","kind":"peak","name":"Pasir Talaga","lat":-6.404722,"lon":106.549444,"elevationM":null},{"id":"node:1070186342","kind":"peak","name":"Gunung Walang","lat":-6.968333,"lon":106.850833,"elevationM":null},{"id":"node:1070186402","kind":"peak","name":"Gunung Monyet","lat":-6.92,"lon":106.562778,"elevationM":null},{"id":"node:1070186463","kind":"peak","name":"Gunung Raganis","lat":-6.472778,"lon":106.521111,"elevationM":null},{"id":"node:1070186511","kind":"peak","name":"Gunung Sicereme","lat":-6.0819,"lon":106.0508,"elevationM":null},{"id":"node:1070186650","kind":"peak","name":"Gunung Putri","lat":-6.6175,"lon":106.558056,"elevationM":null},{"id":"node:1070186896","kind":"peak","name":"Pasir Seuseupan","lat":-6.943889,"lon":106.698056,"elevationM":null},{"id":"node:1070186969","kind":"peak","name":"Gunung Andam","lat":-6.851667,"lon":106.591667,"elevationM":null},{"id":"node:1070187050","kind":"peak","name":"Pasir Cipencil","lat":-6.436944,"lon":106.284722,"elevationM":null},{"id":"node:1070187085","kind":"peak","name":"Pasir Leuweunglarangan","lat":-6.4641,"lon":106.2356,"elevationM":null},{"id":"node:1070187151","kind":"peak","name":"Gunung Malang","lat":-6.852222,"lon":106.606111,"elevationM":null},{"id":"node:1070187224","kind":"peak","name":"Pasir Nawunglidang","lat":-6.463333,"lon":106.294444,"elevationM":null},{"id":"node:1070187228","kind":"peak","name":"Gunung Gandaria","lat":-6.996111,"lon":106.693611,"elevationM":null},{"id":"node:1070187262","kind":"peak","name":"Gunung Sikepuh","lat":-6.1089,"lon":106.0407,"elevationM":null},{"id":"node:1070187407","kind":"peak","name":"Gunung Panenjoan","lat":-6.821667,"lon":106.522222,"elevationM":null},{"id":"node:1070187577","kind":"peak","name":"Gunung Gedongan","lat":-6.650278,"lon":106.975,"elevationM":null},{"id":"node:1070187744","kind":"peak","name":"Pasir Kiaraberes","lat":-6.770278,"lon":106.663611,"elevationM":null},{"id":"node:1070187769","kind":"peak","name":"Gunung Kuksumpung","lat":-6.5139751,"lon":106.6152155,"elevationM":null},{"id":"node:1070187889","kind":"peak","name":"Gunung Buleud","lat":-6.966944,"lon":106.590278,"elevationM":null},{"id":"node:1070188186","kind":"peak","name":"Pasir Congkrang","lat":-6.490278,"lon":106.533333,"elevationM":null},{"id":"node:1070188200","kind":"peak","name":"Gunung Sosondahan","lat":-6.0983,"lon":106.0867,"elevationM":null},{"id":"node:1070188249","kind":"peak","name":"Gunung Cariuh","lat":-6.518889,"lon":106.531389,"elevationM":null},{"id":"node:1070188335","kind":"peak","name":"Pasir Gadung","lat":-6.4124,"lon":106.3854,"elevationM":null},{"id":"node:1070188377","kind":"peak","name":"Pasir Jengkol","lat":-6.540556,"lon":106.598333,"elevationM":null},{"id":"node:1070188630","kind":"peak","name":"Pasir Bayur","lat":-6.486944,"lon":106.956389,"elevationM":null},{"id":"node:1070188659","kind":"peak","name":"Gunung Hambalang","lat":-6.549444,"lon":106.898889,"elevationM":null},{"id":"node:1070188660","kind":"peak","name":"Gunung Batukarut","lat":-6.4913,"lon":106.3978,"elevationM":null},{"id":"node:1070188669","kind":"peak","name":"ex Gunung Panema","lat":-6.424722,"lon":106.6125,"elevationM":null},{"id":"node:1070188753","kind":"peak","name":"Pasir Leuweungcimanggu","lat":-6.436944,"lon":106.262778,"elevationM":null},{"id":"node:1070188846","kind":"peak","name":"Pasir Sawiwi","lat":-6.425556,"lon":106.289722,"elevationM":null},{"id":"node:1070188977","kind":"peak","name":"Gunung Astana","lat":-6.713056,"lon":106.503333,"elevationM":null},{"id":"node:1070188986","kind":"peak","name":"Gunung Garungsang","lat":-6.628333,"lon":106.930278,"elevationM":null},{"id":"node:1070189033","kind":"peak","name":"Gunung Awibengkok","lat":-6.733333,"lon":106.666667,"elevationM":null},{"id":"node:1070189115","kind":"peak","name":"Pasir Kiarapandak","lat":-6.928611,"lon":106.691944,"elevationM":null},{"id":"node:1070189537","kind":"peak","name":"Gunung Malang","lat":-6.685,"lon":106.500556,"elevationM":null},{"id":"node:1070189539","kind":"peak","name":"Gunung Payung","lat":-6.15,"lon":106.083333,"elevationM":null},{"id":"node:1070189635","kind":"peak","name":"Gunung Bilul","lat":-6.583333,"lon":106.066667,"elevationM":null},{"id":"node:1070189909","kind":"peak","name":"Gunung Salak","lat":-6.424722,"lon":106.554722,"elevationM":null},{"id":"node:1070189922","kind":"peak","name":"Gunung Kojo","lat":-6.623611,"lon":106.557778,"elevationM":null},{"id":"node:1070190140","kind":"peak","name":"Pasir Cangkal","lat":-6.453889,"lon":106.525,"elevationM":null},{"id":"node:1070190218","kind":"peak","name":"Pasir Curuglalay","lat":-6.429722,"lon":106.299722,"elevationM":null},{"id":"node:1070190343","kind":"peak","name":"Gunung Tangkil","lat":-6.685833,"lon":106.600556,"elevationM":null},{"id":"node:1070190606","kind":"peak","name":"Gunung Halimun","lat":-6.636944,"lon":106.978056,"elevationM":null},{"id":"node:1070190641","kind":"peak","name":"Gunung Sikapol","lat":-6.1165,"lon":106.0631,"elevationM":null},{"id":"node:1070190837","kind":"peak","name":"Gunung Gumuruh","lat":-6.798611,"lon":106.985833,"elevationM":null},{"id":"node:1070191147","kind":"peak","name":"Pasir Cikadongdong","lat":-6.426944,"lon":106.28,"elevationM":null},{"id":"node:1070191506","kind":"peak","name":"Gunung Koneng","lat":-6.882222,"lon":106.545556,"elevationM":null},{"id":"node:1070191589","kind":"peak","name":"Pasir Bali","lat":-6.482778,"lon":106.946111,"elevationM":null},{"id":"node:1070191627","kind":"peak","name":"Pasir Cijegkol","lat":-6.430556,"lon":106.2625,"elevationM":null},{"id":"node:1070191765","kind":"peak","name":"Gunung Sijebi","lat":-6.494444,"lon":106.98,"elevationM":null},{"id":"node:1070192368","kind":"peak","name":"Gunung Pamatangcihangasa","lat":-6.904722,"lon":106.508056,"elevationM":null},{"id":"node:1070192502","kind":"peak","name":"Pasir Peudjeuh","lat":-6.2225,"lon":106.264167,"elevationM":null},{"id":"node:1070192655","kind":"peak","name":"Gunung Dahu","lat":-6.598889,"lon":106.583333,"elevationM":null},{"id":"node:1070192804","kind":"peak","name":"Gunung Batu","lat":-6.631944,"lon":106.606111,"elevationM":null},{"id":"node:1070192818","kind":"peak","name":"Pasir Leutik","lat":-6.49,"lon":106.933611,"elevationM":null},{"id":"node:1070193060","kind":"peak","name":"Gunung Tumpeng","lat":-6.934167,"lon":106.535556,"elevationM":null},{"id":"node:1070193078","kind":"peak","name":"Pasir Sandahan","lat":-6.0905,"lon":106.0799,"elevationM":null},{"id":"node:1070193217","kind":"peak","name":"Paseban","lat":-6.634444,"lon":106.949167,"elevationM":null},{"id":"node:1070193302","kind":"peak","name":"Gunung Tatarsunda","lat":-6.5507423,"lon":106.6673068,"elevationM":null},{"id":"node:1070193459","kind":"peak","name":"Gunung Suren","lat":-6.4903,"lon":106.4105,"elevationM":null},{"id":"node:1070193675","kind":"peak","name":"Gunung Mahal","lat":-6.4699992,"lon":106.6271986,"elevationM":null},{"id":"node:1070193781","kind":"peak","name":"Gunung Basar","lat":-6.865278,"lon":106.561389,"elevationM":null},{"id":"node:1070194142","kind":"peak","name":"Gunung Kelipirbatuputih","lat":-6.1033,"lon":106.0549,"elevationM":null},{"id":"node:1070194439","kind":"peak","name":"Pasir Bojongjawang","lat":-6.460556,"lon":106.271111,"elevationM":null},{"id":"node:1070194506","kind":"peak","name":"Gunung Talaga","lat":-6.867778,"lon":106.502222,"elevationM":null},{"id":"node:1070194523","kind":"peak","name":"Gunung Sura","lat":-6.935,"lon":106.571111,"elevationM":null},{"id":"node:1070194525","kind":"peak","name":"Gunung Kutapareang","lat":-6.516667,"lon":106.95,"elevationM":null},{"id":"node:1070194530","kind":"peak","name":"Gunung Wiru","lat":-6.660556,"lon":106.557778,"elevationM":null},{"id":"node:1070194778","kind":"peak","name":"Pasir Wuni","lat":-6.426389,"lon":106.374722,"elevationM":null},{"id":"node:1070194811","kind":"peak","name":"Gunung Suban Dua","lat":-6.524167,"lon":106.525556,"elevationM":null},{"id":"node:1070194922","kind":"peak","name":"Gunung Kramat","lat":-6.481389,"lon":106.971389,"elevationM":null},{"id":"node:1070194928","kind":"peak","name":"Pasir Muncang","lat":-6.361667,"lon":106.311389,"elevationM":null},{"id":"node:1070195085","kind":"peak","name":"Pasir Sela","lat":-6.960556,"lon":106.703611,"elevationM":null},{"id":"node:1070195143","kind":"peak","name":"Gunung Tenbang","lat":-6.15,"lon":106.066667,"elevationM":null},{"id":"node:1070195148","kind":"peak","name":"Pasir Kepuh","lat":-6.373333,"lon":106.576667,"elevationM":null},{"id":"node:1070195288","kind":"peak","name":"Pasir Jengkol","lat":-6.620556,"lon":106.619167,"elevationM":null},{"id":"node:1070195319","kind":"peak","name":"Gunung Malang","lat":-6.0843,"lon":106.0597,"elevationM":null},{"id":"node:1070195446","kind":"peak","name":"Gunung Batu","lat":-6.962778,"lon":106.808611,"elevationM":null},{"id":"node:1070195764","kind":"peak","name":"Gunung Sodong","lat":-6.5575,"lon":106.623889,"elevationM":null},{"id":"node:1070195875","kind":"peak","name":"Gunung Bitung","lat":-6.503333,"lon":106.517222,"elevationM":null},{"id":"node:1070195900","kind":"peak","name":"Gunung Belata","lat":-6.921667,"lon":106.621667,"elevationM":null},{"id":"node:1070196388","kind":"peak","name":"Gunung Paok","lat":-6.931667,"lon":106.575833,"elevationM":null},{"id":"node:1070196503","kind":"peak","name":"Gunung Serengseng","lat":-6.629444,"lon":106.656111,"elevationM":null},{"id":"node:1070196793","kind":"peak","name":"Gunung Cabe","lat":-6.497222,"lon":106.288333,"elevationM":null},{"id":"node:1070196812","kind":"peak","name":"Pasir Tegal","lat":-6.394444,"lon":106.308056,"elevationM":null},{"id":"node:1070196942","kind":"peak","name":"Gunung Panggulan","lat":-6.624167,"lon":106.535833,"elevationM":null},{"id":"node:1070197123","kind":"peak","name":"Gunung Peuteuy","lat":-6.514444,"lon":106.520278,"elevationM":null},{"id":"node:2285856108","kind":"peak","name":"Puncak Gunung Gede","lat":-6.7898841,"lon":106.9831941,"elevationM":null},{"id":"node:9126238041","kind":"peak","name":"G. Gedongan","lat":-6.6436905,"lon":106.9760398,"elevationM":1688},{"id":"node:9258618410","kind":"volcano","name":"Gunung Karang","lat":-6.2731994,"lon":106.0468065,"elevationM":1778},{"id":"node:10132874190","kind":"peak","name":"Gunung Ciung","lat":-6.6220173,"lon":106.9158418,"elevationM":null},{"id":"node:11976848945","kind":"peak","name":"Gunung Menyan","lat":-6.625882,"lon":106.6664551,"elevationM":null},{"id":"node:12015230688","kind":"peak","name":"Gunung Luhur","lat":-6.7426187,"lon":106.3318364,"elevationM":null},{"id":"node:12064901186","kind":"peak","name":"Gunung Ciwalang","lat":-6.4982618,"lon":106.64197,"elevationM":null},{"id":"node:12064917596","kind":"peak","name":"Gunung Simbangpelem","lat":-6.4921037,"lon":106.6241948,"elevationM":null},{"id":"node:12064917600","kind":"peak","name":"Gunung Urug","lat":-6.4925766,"lon":106.6328218,"elevationM":null},{"id":"node:12064917602","kind":"peak","name":"Gunung Suling","lat":-6.4808875,"lon":106.6296728,"elevationM":null},{"id":"node:12111921675","kind":"peak","name":"Bukit Panggo","lat":-6.5421395,"lon":106.414009,"elevationM":311},{"id":"node:12111921676","kind":"peak","name":"Bukit Jaya","lat":-6.5590707,"lon":106.4131338,"elevationM":444},{"id":"node:12111921679","kind":"peak","name":"Bukit Aseupan","lat":-6.573412,"lon":106.4918902,"elevationM":540},{"id":"node:12121538143","kind":"peak","name":"Bukit Cabe Dago","lat":-6.3825121,"lon":106.5876697,"elevationM":null},{"id":"node:12468836558","kind":"peak","name":"Pasir Pete","lat":-6.6061544,"lon":106.9298177,"elevationM":768},{"id":"node:12468836564","kind":"peak","name":"Pasir Jambe","lat":-6.606115,"lon":106.9354796,"elevationM":850},{"id":"node:12468836577","kind":"peak","name":"Pasir Kumis","lat":-6.6112448,"lon":106.9305208,"elevationM":840},{"id":"node:12468836579","kind":"peak","name":"Pasir Limo","lat":-6.6178755,"lon":106.9381655,"elevationM":1075},{"id":"node:12468836580","kind":"peak","name":"Pasir Teh","lat":-6.6125973,"lon":106.9299378,"elevationM":915},{"id":"node:12497481871","kind":"peak","name":"Pasir Ceri","lat":-6.609013,"lon":106.9289103,"elevationM":792},{"id":"node:12497481872","kind":"peak","name":"Pasir Ipis","lat":-6.6092035,"lon":106.9274208,"elevationM":null},{"id":"node:12497481873","kind":"peak","name":"Gunung Silalangit","lat":-6.6205345,"lon":106.9264724,"elevationM":1025},{"id":"node:12497481874","kind":"peak","name":"Gunung Batu Tapa","lat":-6.6210066,"lon":106.9229366,"elevationM":985},{"id":"node:12852304771","kind":"peak","name":"Puncak Lalana","lat":-6.5531952,"lon":106.6835124,"elevationM":null},{"id":"node:12852304773","kind":"peak","name":"Puncak Batu Roti","lat":-6.553642,"lon":106.691631,"elevationM":null},{"id":"node:12892668856","kind":"peak","name":"Bukit Hanjawong","lat":-6.5884653,"lon":106.9909163,"elevationM":974},{"id":"node:12892682126","kind":"peak","name":"Bukit Butik","lat":-6.6043163,"lon":106.9913473,"elevationM":1250},{"id":"node:13423576641","kind":"peak","name":"Gunung Haur","lat":-6.5035311,"lon":106.6391581,"elevationM":null}]}