{"tileKey":"la_m1_lo_m91","version":"v1-1775891056926","entries":[{"id":"node:249409678","kind":"peak","name":"Cerro Crocker","lat":-0.6425588,"lon":-90.3256001,"elevationM":864},{"id":"node:249410766","kind":"volcano","name":"Volcán Santiago","lat":-0.2059672,"lon":-90.7840393,"elevationM":907},{"id":"node:271134998","kind":"volcano","name":"Isla Rábida","lat":-0.414269,"lon":-90.7087547,"elevationM":null},{"id":"node:271137937","kind":"volcano","name":"Daphne Major","lat":-0.4220662,"lon":-90.3717288,"elevationM":120},{"id":"node:271138731","kind":"volcano","name":"Isla Bartolomé","lat":-0.2850497,"lon":-90.5497639,"elevationM":null},{"id":"node:1074577952","kind":"peak","name":"Cerro Mesa","lat":-0.6420168,"lon":-90.2855812,"elevationM":485},{"id":"node:2351270842","kind":"peak","name":"Cerro Cartago","lat":-0.6248665,"lon":-90.9741105,"elevationM":null},{"id":"node:2351346343","kind":"peak","name":"Pináculo","lat":-0.2847349,"lon":-90.5570326,"elevationM":null},{"id":"node:10287543672","kind":"peak","name":"\"Monje\"","lat":-0.1625617,"lon":-90.8286495,"elevationM":null}]}