{"tileKey":"la_m38_lo_p148","version":"v1-1775891056926","entries":[{"id":"node:701677371","kind":"peak","name":"Mount Bowen","lat":-37.1758101,"lon":148.5946588,"elevationM":1250},{"id":"node:702361112","kind":"peak","name":"Mount Murrungowar","lat":-37.5448563,"lon":148.7252903,"elevationM":819},{"id":"node:1210126771","kind":"peak","name":"Mount Tara","lat":-37.5691185,"lon":148.2042679,"elevationM":608},{"id":"node:1210350675","kind":"peak","name":"Mount Nowa Nowa","lat":-37.6917431,"lon":148.0911881,"elevationM":354},{"id":"node:2115201799","kind":"peak","name":"Mount Raymond","lat":-37.7118233,"lon":148.5999042,"elevationM":null},{"id":"node:2490516944","kind":"peak","name":"Campbell Knob","lat":-37.211448,"lon":148.3522957,"elevationM":null},{"id":"node:2795802486","kind":"peak","name":"Mount Tower","lat":-37.1420525,"lon":148.5871567,"elevationM":null},{"id":"node:2795802490","kind":"peak","name":"Mount Richardson","lat":-37.1520034,"lon":148.6048121,"elevationM":null},{"id":"node:2795805379","kind":"peak","name":"Monkey Top","lat":-37.2323101,"lon":148.5944974,"elevationM":1205},{"id":"node:2795841999","kind":"peak","name":"Rich Knob","lat":-37.249191,"lon":148.5215327,"elevationM":null},{"id":"node:2795842000","kind":"peak","name":"Mount Joan","lat":-37.2456963,"lon":148.4808619,"elevationM":null},{"id":"node:2797963537","kind":"peak","name":"Mount Gelantipy","lat":-37.1610736,"lon":148.4246406,"elevationM":null},{"id":"node:2797963549","kind":"peak","name":"Mount Deddick","lat":-37.1115361,"lon":148.4714978,"elevationM":null},{"id":"node:2797967127","kind":"peak","name":"Rocky Peak","lat":-37.1189417,"lon":148.4375549,"elevationM":null},{"id":"node:2797967128","kind":"peak","name":"The Sugarloaf","lat":-37.1197492,"lon":148.4129698,"elevationM":610},{"id":"node:2849819160","kind":"peak","name":"Forlorn Hope","lat":-37.0075514,"lon":148.0785441,"elevationM":null},{"id":"node:2849821217","kind":"peak","name":"Sugarloaf","lat":-37.0270864,"lon":148.2062494,"elevationM":null},{"id":"node:2849823311","kind":"peak","name":"Mount Seldom Seen","lat":-37.097391,"lon":148.1929886,"elevationM":null},{"id":"node:2850316349","kind":"peak","name":"Outlook Knob","lat":-37.0027227,"lon":148.3241188,"elevationM":null},{"id":"node:2850349880","kind":"peak","name":"Mount Hamilton","lat":-37.0060641,"lon":148.2934772,"elevationM":null},{"id":"node:3008338686","kind":"peak","name":"Bald Mount","lat":-37.53351,"lon":148.759,"elevationM":null},{"id":"node:3008338691","kind":"peak","name":"Basalt Hill","lat":-37.0828,"lon":148.5764,"elevationM":null},{"id":"node:3008338699","kind":"peak","name":"Bee Tree Hill","lat":-37.47508,"lon":148.7762,"elevationM":null},{"id":"node:3008338935","kind":"peak","name":"Brown Mountain","lat":-37.2576213,"lon":148.7449675,"elevationM":null},{"id":"node:3008338960","kind":"peak","name":"Cobb Hill","lat":-37.30434,"lon":148.83313,"elevationM":null},{"id":"node:3008339056","kind":"peak","name":"Jungle Hill","lat":-37.57855,"lon":148.77574,"elevationM":null},{"id":"node:3008339121","kind":"peak","name":"Mount Bendoc","lat":-37.15217,"lon":148.94693,"elevationM":null},{"id":"node:3008339129","kind":"peak","name":"Mount Buck","lat":-37.58746,"lon":148.48476,"elevationM":null},{"id":"node:3008339334","kind":"peak","name":"Mount Bulla Bulla","lat":-37.05895,"lon":148.41744,"elevationM":null},{"id":"node:3008339343","kind":"peak","name":"Mount Cann","lat":-37.64682,"lon":148.97894,"elevationM":530},{"id":"node:3008339360","kind":"peak","name":"Mount Dawson","lat":-37.41701,"lon":148.16539,"elevationM":null},{"id":"node:3008339361","kind":"peak","name":"Mount Deception","lat":-37.12553,"lon":148.03081,"elevationM":null},{"id":"node:3008339362","kind":"peak","name":"Mount Delegate","lat":-37.1129,"lon":148.89902,"elevationM":1308},{"id":"node:3008339378","kind":"peak","name":"Mount Elephant","lat":-37.33101,"lon":148.19294,"elevationM":760},{"id":"node:3008339400","kind":"peak","name":"Mount Jack","lat":-37.51855,"lon":148.70285,"elevationM":null},{"id":"node:3008339401","kind":"peak","name":"Mount Jersey","lat":-37.33147,"lon":148.6687,"elevationM":670},{"id":"node:3008339404","kind":"peak","name":"Mount Johnston","lat":-37.47686,"lon":148.08929,"elevationM":614},{"id":"node:3008339409","kind":"peak","name":"Mount Koolabbra","lat":-37.1687078,"lon":148.7549999,"elevationM":1097},{"id":"node:3008339411","kind":"peak","name":"Mount Kuark","lat":-37.5449445,"lon":148.7475535,"elevationM":null},{"id":"node:3008339413","kind":"peak","name":"Mount Little Bill","lat":-37.24245,"lon":148.74707,"elevationM":null},{"id":"node:3008339431","kind":"peak","name":"Mount McLeod","lat":-37.456,"lon":148.25009,"elevationM":null},{"id":"node:3008339548","kind":"peak","name":"Mount Pinnak","lat":-37.51697,"lon":148.42311,"elevationM":null},{"id":"node:3008339559","kind":"peak","name":"Mount Puggaree","lat":-37.54287,"lon":148.8658,"elevationM":null},{"id":"node:3008339569","kind":"peak","name":"Mount Rosendale","lat":-37.07064,"lon":148.61275,"elevationM":null},{"id":"node:3008339572","kind":"peak","name":"Mount Sardine","lat":-37.48758,"lon":148.48123,"elevationM":null},{"id":"node:3008339580","kind":"peak","name":"Mount Statham","lat":-37.17168,"lon":148.1958,"elevationM":null},{"id":"node:3008339583","kind":"peak","name":"Mount Stewart","lat":-37.23703,"lon":148.12742,"elevationM":null},{"id":"node:3008339588","kind":"peak","name":"Mount Tabby","lat":-37.42935,"lon":148.36285,"elevationM":480},{"id":"node:3008339605","kind":"peak","name":"Mount Victoria","lat":-37.44045,"lon":148.10879,"elevationM":null},{"id":"node:3008339613","kind":"peak","name":"Mount Watt","lat":-37.55097,"lon":148.49666,"elevationM":null},{"id":"node:3008339616","kind":"peak","name":"Mount Wheeler","lat":-37.0681,"lon":148.36856,"elevationM":null},{"id":"node:3008339618","kind":"peak","name":"Mount Whittakers","lat":-37.0211,"lon":148.57976,"elevationM":null},{"id":"node:3008339653","kind":"peak","name":"Pike Hill","lat":-37.53031,"lon":148.79874,"elevationM":null},{"id":"node:3008339678","kind":"peak","name":"Round Hill","lat":-37.0934,"lon":148.28497,"elevationM":null},{"id":"node:3008339681","kind":"peak","name":"Round Top","lat":-37.58083,"lon":148.84834,"elevationM":null},{"id":"node:3008339708","kind":"peak","name":"Spanker Knob","lat":-37.60472,"lon":148.01979,"elevationM":null},{"id":"node:3008339720","kind":"peak","name":"Stringer Knob","lat":-37.61726,"lon":148.27001,"elevationM":null},{"id":"node:3008339721","kind":"peak","name":"Sturgess Knob","lat":-37.49687,"lon":148.75732,"elevationM":null},{"id":"node:3008339734","kind":"peak","name":"Tara Tower","lat":-37.57985,"lon":148.19679,"elevationM":null},{"id":"node:3008339749","kind":"peak","name":"The Pinnacle","lat":-37.13878,"lon":148.55598,"elevationM":1170},{"id":"node:3008339766","kind":"peak","name":"Tommy Roundhead Hill","lat":-37.38243,"lon":148.87768,"elevationM":370},{"id":"node:3008339769","kind":"peak","name":"Trapyard Hill","lat":-37.1879,"lon":148.65156,"elevationM":null},{"id":"node:3243419039","kind":"peak","name":"Black Mountain","lat":-37.0687695,"lon":148.3292153,"elevationM":null},{"id":"node:3243419040","kind":"peak","name":"Turnback Peak","lat":-37.0794439,"lon":148.3897212,"elevationM":null},{"id":"node:3248777858","kind":"peak","name":"The Citadel Rocks","lat":-37.4467481,"lon":148.2140637,"elevationM":null},{"id":"node:3248777859","kind":"peak","name":"World Hill","lat":-37.424358,"lon":148.2573246,"elevationM":null},{"id":"node:3837257646","kind":"peak","name":"Mount Ellery","lat":-37.3938094,"lon":148.7786503,"elevationM":1291},{"id":"node:11228351036","kind":"peak","name":"Pretty Sally","lat":-37.6743358,"lon":148.0303385,"elevationM":null},{"id":"node:11228513637","kind":"peak","name":"Red Knob","lat":-37.6903673,"lon":148.0403092,"elevationM":null},{"id":"node:11382934384","kind":"peak","name":"Mount Jersey West","lat":-37.3112248,"lon":148.6507792,"elevationM":null},{"id":"node:11891341552","kind":"peak","name":"Moon Hill","lat":-37.4909104,"lon":148.1660888,"elevationM":null},{"id":"node:11891341553","kind":"peak","name":"Sunny Point","lat":-37.493729,"lon":148.1816244,"elevationM":null},{"id":"node:11891341554","kind":"peak","name":"The Pinnacle","lat":-37.4896429,"lon":148.2021594,"elevationM":null},{"id":"node:11891341555","kind":"peak","name":"Rocky Knob","lat":-37.4925686,"lon":148.2469689,"elevationM":null},{"id":"node:11891341556","kind":"peak","name":"Lights Hill","lat":-37.6538154,"lon":148.4292671,"elevationM":null},{"id":"node:11891341557","kind":"peak","name":"Cherry Tree Hill","lat":-37.6097903,"lon":148.4178249,"elevationM":null},{"id":"node:11891341558","kind":"peak","name":"Frying Pan Hill","lat":-37.6017515,"lon":148.4160131,"elevationM":null},{"id":"node:11891341559","kind":"peak","name":"Silver Top Hill","lat":-37.5808013,"lon":148.4122461,"elevationM":null},{"id":"node:11891341560","kind":"peak","name":"Mount Rich","lat":-37.548633,"lon":148.5942754,"elevationM":null},{"id":"node:11891341561","kind":"peak","name":"Wiebens Hill","lat":-37.5876217,"lon":148.7634312,"elevationM":null},{"id":"node:11891341562","kind":"peak","name":"Arnold Hill","lat":-37.5651914,"lon":148.7849879,"elevationM":null},{"id":"node:11891341563","kind":"peak","name":"Pyramid Hill","lat":-37.5192273,"lon":148.9903167,"elevationM":null},{"id":"node:12063052905","kind":"peak","name":"Peppermint Hill","lat":-37.190183,"lon":148.2822113,"elevationM":null},{"id":"node:12063052906","kind":"peak","name":"Dingo Hill","lat":-37.2196261,"lon":148.2814115,"elevationM":null},{"id":"node:12063094282","kind":"peak","name":"Mount Murrindal","lat":-37.3452148,"lon":148.2237895,"elevationM":null},{"id":"node:12063101062","kind":"peak","name":"Lookout Top","lat":-37.4010626,"lon":148.1802192,"elevationM":null},{"id":"node:12063101063","kind":"peak","name":"Gil Groggin","lat":-37.3980184,"lon":148.0453007,"elevationM":null},{"id":"node:12063101064","kind":"peak","name":"The Volcano (Big Hill)","lat":-37.3258498,"lon":148.0879463,"elevationM":null},{"id":"node:12063104282","kind":"peak","name":"Brumby Point","lat":-37.053479,"lon":148.0788561,"elevationM":null},{"id":"node:12063104711","kind":"peak","name":"Saint Georges Point","lat":-37.2515742,"lon":148.14625,"elevationM":null},{"id":"node:12063104712","kind":"peak","name":"Green Hill","lat":-37.275216,"lon":148.1091974,"elevationM":null}]}