{"tileKey":"la_m13_lo_m39","version":"v1-1775891056926","entries":[{"id":"node:619056593","kind":"peak","name":"Monte Gordo","lat":-12.6444565,"lon":-38.0831671,"elevationM":null},{"id":"node:1185031663","kind":"peak","name":"Alto da Mira","lat":-12.6407334,"lon":-38.096703,"elevationM":65},{"id":"node:1193565513","kind":"peak","name":"Alto do Andú","lat":-12.9523304,"lon":-38.4240878,"elevationM":null},{"id":"node:1977536774","kind":"peak","name":"Bimbarras","lat":-12.7133055,"lon":-38.6345109,"elevationM":109},{"id":"node:1977536793","kind":"peak","name":"Bambual","lat":-12.8045176,"lon":-38.6369488,"elevationM":114},{"id":"node:1977536876","kind":"peak","name":"Godolo","lat":-12.8535729,"lon":-38.8013332,"elevationM":122},{"id":"node:2916733106","kind":"peak","name":"Morro Jagaroba","lat":-12.7326127,"lon":-38.5306456,"elevationM":52},{"id":"node:2916733107","kind":"peak","name":"Morro Outeiro da Areia","lat":-12.784989,"lon":-38.5248685,"elevationM":105},{"id":"node:2916733108","kind":"peak","name":"Morro Santa Tereza","lat":-12.740333,"lon":-38.497818,"elevationM":80},{"id":"node:2916733109","kind":"peak","name":"Morro da Conceição","lat":-12.9992389,"lon":-38.6828544,"elevationM":95},{"id":"node:2916733111","kind":"peak","name":"Morro do Oratório","lat":-12.7616797,"lon":-38.5194706,"elevationM":80},{"id":"node:2916733112","kind":"peak","name":"Morro do Pão de Açúcar","lat":-12.8324002,"lon":-38.8637389,"elevationM":159},{"id":"node:2916733113","kind":"peak","name":"Morro do Tobar","lat":-12.799735,"lon":-38.6352718,"elevationM":108},{"id":"node:2916733115","kind":"peak","name":"Outeiro Tapurandé","lat":-12.8337802,"lon":-38.8637779,"elevationM":149},{"id":"node:4736511582","kind":"peak","name":"Decolagem Teodoro Sampaio (voo Livre","lat":-12.2771097,"lon":-38.6198943,"elevationM":195},{"id":"node:11027439066","kind":"peak","name":"Monte Cristo","lat":-12.8378497,"lon":-38.8302112,"elevationM":null},{"id":"node:11081390072","kind":"peak","name":"Alto da Saldanha","lat":-12.9889499,"lon":-38.4766316,"elevationM":null}]}