{"tileKey":"la_m8_lo_m36","version":"v1-1775891056926","entries":[{"id":"node:2596009047","kind":"peak","name":"Morro do Sino","lat":-7.2199492,"lon":-35.4051344,"elevationM":354},{"id":"node:2673028504","kind":"peak","name":"Pedra Bico","lat":-7.4666697,"lon":-35.5251012,"elevationM":null},{"id":"node:2673028505","kind":"peak","name":"Pico Stant","lat":-7.4663123,"lon":-35.5270685,"elevationM":null},{"id":"node:3709498576","kind":"peak","name":"Pico da Serra do Trapuã","lat":-7.8242615,"lon":-35.2254564,"elevationM":250},{"id":"node:4575186673","kind":"peak","name":"Cruzeiro de Ingá","lat":-7.2918794,"lon":-35.5987756,"elevationM":null},{"id":"node:5567907904","kind":"peak","name":"Serra da Raposa","lat":-7.868362,"lon":-35.4504988,"elevationM":280},{"id":"node:5567909478","kind":"peak","name":"Pedra do Urubu","lat":-7.8649128,"lon":-35.4474435,"elevationM":230},{"id":"node:5567909578","kind":"peak","name":"Mirante do Redentor","lat":-7.8749019,"lon":-35.4566969,"elevationM":260},{"id":"node:5698358746","kind":"peak","name":"Pedra do Sono","lat":-7.8336273,"lon":-35.4495274,"elevationM":null},{"id":"node:6580751559","kind":"peak","name":"Boa Vista","lat":-7.0863812,"lon":-35.7241595,"elevationM":531},{"id":"node:8176935512","kind":"peak","name":"Serra do Boqueirão","lat":-7.1934018,"lon":-35.4072619,"elevationM":353},{"id":"node:11806328704","kind":"peak","name":"Serra da Margarida","lat":-7.4075399,"lon":-35.3825963,"elevationM":378},{"id":"node:11806328705","kind":"peak","name":"Serra do Cajá","lat":-7.3969438,"lon":-35.3432332,"elevationM":327}]}