{"tileKey":"la_m13_lo_p15","version":"v1-1775891056926","entries":[{"id":"node:1092662376","kind":"peak","name":"Monte Pomumo","lat":-12.7529704,"lon":15.2954728,"elevationM":null},{"id":"node:1092662712","kind":"peak","name":"Monte Jamba","lat":-12.8656623,"lon":15.3375328,"elevationM":null},{"id":"node:1093755360","kind":"peak","name":"Camunda","lat":-12.6027144,"lon":15.3857974,"elevationM":null},{"id":"node:1093755514","kind":"peak","name":"Monte Luela","lat":-12.6741831,"lon":15.3282801,"elevationM":null},{"id":"node:1093755589","kind":"peak","name":"Monte Lucossi","lat":-12.59,"lon":15.383889,"elevationM":null},{"id":"node:1093755768","kind":"peak","name":"Monte Lossengue","lat":-12.6864522,"lon":15.3794165,"elevationM":null},{"id":"node:1093756223","kind":"peak","name":"Monte Munana","lat":-12.653234,"lon":15.2902509,"elevationM":null},{"id":"node:1093756472","kind":"peak","name":"Serra Tchilono","lat":-12.557146,"lon":15.3032126,"elevationM":null},{"id":"node:1093756615","kind":"peak","name":"Serra Lembe-Lembe","lat":-12.6407816,"lon":15.2697769,"elevationM":null},{"id":"node:1093756662","kind":"peak","name":"Sembué","lat":-12.605833,"lon":15.322778,"elevationM":null},{"id":"node:1093756713","kind":"peak","name":"Monte Uengo","lat":-12.6187943,"lon":15.2663239,"elevationM":null},{"id":"node:1093756795","kind":"peak","name":"Serra Cacuco","lat":-12.703643,"lon":15.3284043,"elevationM":null},{"id":"node:1093756927","kind":"peak","name":"Monte Tchiungue","lat":-12.5732255,"lon":15.2935462,"elevationM":null},{"id":"node:1093757008","kind":"peak","name":"Monte Luponde","lat":-12.5779905,"lon":15.3948146,"elevationM":null},{"id":"node:1093757046","kind":"peak","name":"Monte Ungungi","lat":-12.7138545,"lon":15.3588985,"elevationM":null},{"id":"node:1093782057","kind":"peak","name":"Monte Candjangui","lat":-12.5985493,"lon":15.4880113,"elevationM":null},{"id":"node:1093782095","kind":"peak","name":"Monte Canhanela","lat":-12.6486591,"lon":15.4691852,"elevationM":null},{"id":"node:1093782123","kind":"peak","name":"Monte Tchila","lat":-12.6950828,"lon":15.4167788,"elevationM":null},{"id":"node:1093782125","kind":"peak","name":"Monte Bundo","lat":-12.5543163,"lon":15.5387552,"elevationM":null},{"id":"node:1093782141","kind":"peak","name":"Monte Canhamia","lat":-12.619709,"lon":15.4258478,"elevationM":null},{"id":"node:1093782147","kind":"peak","name":"Monte Nunda","lat":-12.6955851,"lon":15.4671669,"elevationM":null},{"id":"node:1093782185","kind":"peak","name":"Monte Cassuma","lat":-12.6110967,"lon":15.5602285,"elevationM":null},{"id":"node:1093782188","kind":"peak","name":"Monte Casseque","lat":-12.6458448,"lon":15.5151848,"elevationM":null},{"id":"node:1093782203","kind":"peak","name":"Monte Combeu","lat":-12.6564453,"lon":15.4844884,"elevationM":null},{"id":"node:1093782208","kind":"peak","name":"Monte Sacotiquite","lat":-12.7120338,"lon":15.4017872,"elevationM":null},{"id":"node:1093782213","kind":"peak","name":"Monte Capacata","lat":-12.5690903,"lon":15.4907631,"elevationM":null},{"id":"node:1093782256","kind":"peak","name":"Monte Dunda","lat":-12.6510413,"lon":15.4351703,"elevationM":null},{"id":"node:1093782278","kind":"peak","name":"Vilulo","lat":-12.5488521,"lon":15.5483144,"elevationM":null},{"id":"node:1093782372","kind":"peak","name":"Monte Mbuindo","lat":-12.6705491,"lon":15.4065945,"elevationM":null},{"id":"node:1093782378","kind":"peak","name":"Monte Catuco","lat":-12.6088917,"lon":15.5768209,"elevationM":null},{"id":"node:1093810192","kind":"peak","name":"Monte Cassongo","lat":-12.6421364,"lon":15.6347344,"elevationM":null},{"id":"node:1093810245","kind":"peak","name":"Monte Calóco-Toco","lat":-12.6124454,"lon":15.7238121,"elevationM":null},{"id":"node:1093810353","kind":"peak","name":"Monte Tchilengue","lat":-12.6394407,"lon":15.733597,"elevationM":null},{"id":"node:1093867909","kind":"peak","name":"Serra Cassoco","lat":-12.4704089,"lon":15.5964103,"elevationM":null},{"id":"node:1093868251","kind":"peak","name":"Monte Tchiongo","lat":-12.5314649,"lon":15.6103546,"elevationM":null},{"id":"node:1094243852","kind":"peak","name":"Monte Hucongo","lat":-12.5400212,"lon":15.5297553,"elevationM":null},{"id":"node:1094244285","kind":"peak","name":"Serra Malica","lat":-12.5340125,"lon":15.2848247,"elevationM":null},{"id":"node:1094245204","kind":"peak","name":"Serra do Môco","lat":-12.4577534,"lon":15.1717169,"elevationM":null},{"id":"node:1094771878","kind":"peak","name":"Serra Humbi","lat":-12.17001,"lon":15.4205013,"elevationM":null},{"id":"node:2135000629","kind":"peak","name":"Etena","lat":-12.8,"lon":15.15,"elevationM":null},{"id":"node:2135000630","kind":"peak","name":"Gungue","lat":-12.783333,"lon":15.1,"elevationM":null},{"id":"node:2163764575","kind":"peak","name":"Caué","lat":-12.046668,"lon":15.220643,"elevationM":null},{"id":"node:2163764588","kind":"peak","name":"Lombuale","lat":-12.240589,"lon":15.151252,"elevationM":null},{"id":"node:2163764591","kind":"peak","name":"Mbala","lat":-12.221599,"lon":15.156491,"elevationM":null},{"id":"node:11373384176","kind":"peak","name":"Monte Livuili","lat":-12.1444443,"lon":15.4931538,"elevationM":null},{"id":"node:13072250772","kind":"peak","name":"Monte Morro de Moco","lat":-12.4628656,"lon":15.1735575,"elevationM":2620}]}