{"tileKey":"la_m23_lo_p131","version":"v1-1775891056926","entries":[{"id":"node:3020052480","kind":"peak","name":"Bundarunganu Hill","lat":-22.19869,"lon":131.81065,"elevationM":730},{"id":"node:3020052517","kind":"peak","name":"Central Mount Wedge","lat":-22.85415,"lon":131.82898,"elevationM":1095},{"id":"node:3020052614","kind":"peak","name":"Djabangardi Hill","lat":-22.63563,"lon":131.70688,"elevationM":675},{"id":"node:3020052615","kind":"peak","name":"Djagamara Peak","lat":-22.24486,"lon":131.30671,"elevationM":814},{"id":"node:3020052619","kind":"peak","name":"Djuburula Peak","lat":-22.29783,"lon":131.7042,"elevationM":null},{"id":"node:3020053142","kind":"peak","name":"Mount Allan","lat":-22.33825,"lon":131.97657,"elevationM":null},{"id":"node:3020053382","kind":"peak","name":"Mount Doreen","lat":-22.08902,"lon":131.42205,"elevationM":860},{"id":"node:3020053390","kind":"peak","name":"Mount Eclipse","lat":-22.32432,"lon":131.64174,"elevationM":826},{"id":"node:3020053580","kind":"peak","name":"Mount Hardy","lat":-22.13194,"lon":131.52204,"elevationM":null},{"id":"node:3020054102","kind":"peak","name":"Pyramid Hill","lat":-22.08667,"lon":131.08674,"elevationM":690},{"id":"node:3020054132","kind":"peak","name":"Rock Hill","lat":-22.15029,"lon":131.81553,"elevationM":null},{"id":"node:3020054450","kind":"peak","name":"Wanberiki Hill","lat":-22.13289,"lon":131.06761,"elevationM":null},{"id":"node:3020054490","kind":"peak","name":"White Point","lat":-22.30333,"lon":131.71369,"elevationM":null},{"id":"node:3020054517","kind":"peak","name":"Wolfram Hill","lat":-22.038,"lon":131.33074,"elevationM":null}]}