{"tileKey":"la_m25_lo_p26","version":"v1-1775891056926","entries":[{"id":"node:6253202021","kind":"peak","name":"Tshukudutshojwe","lat":-24.7525,"lon":26.0142,"elevationM":1362},{"id":"node:6255303775","kind":"peak","name":"Tshwene-Tshwene","lat":-24.7458,"lon":26.2808,"elevationM":1324},{"id":"node:6255303778","kind":"peak","name":"Tlhaapitse","lat":-24.8325,"lon":26.5583,"elevationM":1241},{"id":"node:7206136544","kind":"peak","name":"ABJATERSKOP","lat":-24.816513,"lon":26.165672,"elevationM":1380},{"id":"node:11541045327","kind":"peak","name":"Abjaterskop","lat":-24.8165282,"lon":26.1657145,"elevationM":1378}]}