{"tileKey":"la_m24_lo_p30","version":"v1-1775891056926","entries":[{"id":"node:345446890","kind":"peak","name":"Carroll's Peak","lat":-23.9497222,"lon":30.5230556,"elevationM":null},{"id":"node:597543027","kind":"peak","name":"Spitskop","lat":-23.9640991,"lon":30.6036843,"elevationM":null},{"id":"node:597543064","kind":"peak","name":"Bluejacket","lat":-23.9540446,"lon":30.6290164,"elevationM":null},{"id":"node:4412034317","kind":"peak","name":"Pypkop","lat":-23.7856308,"lon":30.0044154,"elevationM":null},{"id":"node:6251177530","kind":"peak","name":"Luonde","lat":-23.06,"lon":30.1158,"elevationM":1433},{"id":"node:6251177538","kind":"peak","name":"Mangombe","lat":-23.2958,"lon":30.7475,"elevationM":839},{"id":"node:6251177580","kind":"peak","name":"Ka-Khuweni","lat":-23.9567,"lon":30.3258,"elevationM":1003},{"id":"node:6253204788","kind":"peak","name":"Kgwekgwe","lat":-23.6408,"lon":30.3217,"elevationM":1148},{"id":"node:6253204819","kind":"peak","name":"Maimele","lat":-23.9683,"lon":30.23,"elevationM":1068},{"id":"node:6255303708","kind":"peak","name":"Sionwe","lat":-23.3683,"lon":30.4075,"elevationM":869},{"id":"node:6255303713","kind":"peak","name":"Lebaka","lat":-23.425,"lon":30.3383,"elevationM":861},{"id":"node:6255303721","kind":"peak","name":"Lwaji","lat":-23.3817,"lon":30.715,"elevationM":678},{"id":"node:6255303747","kind":"peak","name":"Ga-Tswale","lat":-23.5158,"lon":30.11,"elevationM":1010},{"id":"node:6255303750","kind":"peak","name":"Mmanopi","lat":-23.955,"lon":30.3983,"elevationM":964},{"id":"node:6255303752","kind":"peak","name":"Tlatsa","lat":-23.5717,"lon":30.3083,"elevationM":1160},{"id":"node:6255303759","kind":"peak","name":"Piesangkop","lat":-23.6967,"lon":30.1042,"elevationM":1436},{"id":"node:6255303764","kind":"peak","name":"Taulome","lat":-23.515,"lon":30.5517,"elevationM":742},{"id":"node:6255303765","kind":"peak","name":"Kasteelkoppies","lat":-23.8533,"lon":30.7875,"elevationM":719},{"id":"node:6255303768","kind":"peak","name":"La France","lat":-23.9417,"lon":30.6867,"elevationM":762}]}