{"tileKey":"la_m2_lo_p123","version":"v1-1775891056926","entries":[{"id":"node:1070156968","kind":"peak","name":"Bungkuko Tomusi","lat":-1.4088,"lon":123.4009,"elevationM":610},{"id":"node:1070159226","kind":"peak","name":"Bungkuko Sesemban","lat":-1.5595,"lon":123.5243,"elevationM":173},{"id":"node:1070161451","kind":"peak","name":"Bungkuko Tilean","lat":-1.3288,"lon":123.3057,"elevationM":448},{"id":"node:1070162093","kind":"peak","name":"Bukit Kalabuh","lat":-1.0269,"lon":123.2659,"elevationM":null},{"id":"node:1070162813","kind":"peak","name":"Bungkuko Lomotunu","lat":-1.4265,"lon":123.5024,"elevationM":255},{"id":"node:1070164352","kind":"peak","name":"Bungkuko Saguadi","lat":-1.4305,"lon":123.3824,"elevationM":532},{"id":"node:1070164921","kind":"peak","name":"Bungkuko Labotanpondingponding","lat":-1.2831,"lon":123.373,"elevationM":308},{"id":"node:1070167121","kind":"peak","name":"Gunung Tinankong","lat":-1.405556,"lon":123.271389,"elevationM":429},{"id":"node:1070168589","kind":"peak","name":"Bungkuko Padanglaya","lat":-1.6581,"lon":123.5757,"elevationM":346},{"id":"node:1070169161","kind":"peak","name":"Bukit Kamota","lat":-1.0336,"lon":123.3305,"elevationM":null},{"id":"node:1070169277","kind":"peak","name":"Bukit Kokapi","lat":-1.0286,"lon":123.3422,"elevationM":null},{"id":"node:1070169553","kind":"peak","name":"Bungkuko Tatandak","lat":-1.4,"lon":123.2782,"elevationM":410},{"id":"node:1070170994","kind":"peak","name":"Bungkuko Tinalong","lat":-1.3577,"lon":123.4416,"elevationM":362},{"id":"node:1070174019","kind":"peak","name":"Bungkuko Lumadang","lat":-1.6953,"lon":123.542,"elevationM":362},{"id":"node:1070175901","kind":"peak","name":"Bungkuko Mandoni","lat":-1.4019,"lon":123.3722,"elevationM":510},{"id":"node:1070177796","kind":"peak","name":"Bungkuko Meusean","lat":-1.3875,"lon":123.1868,"elevationM":405},{"id":"node:1070178966","kind":"peak","name":"Bungkoko Tompulaan","lat":-1.3253,"lon":123.5421,"elevationM":305},{"id":"node:1070181986","kind":"peak","name":"Bungkuko Tangkilong","lat":-1.4571,"lon":123.3868,"elevationM":512},{"id":"node:1070182593","kind":"peak","name":"Bungkuko Bonggon","lat":-1.3239,"lon":123.4213,"elevationM":298},{"id":"node:1070182956","kind":"peak","name":"Bungkuko Angatan","lat":-1.40063,"lon":123.18931,"elevationM":465},{"id":"node:1070187176","kind":"peak","name":"Bungkuko Labue","lat":-1.6616,"lon":123.5518,"elevationM":355},{"id":"node:1070187903","kind":"peak","name":"Bungkuko Ndondokunu","lat":-1.3028,"lon":123.4498,"elevationM":255},{"id":"node:1070188458","kind":"peak","name":"Bungkuko Siosiok","lat":-1.3401,"lon":123.372,"elevationM":530},{"id":"node:1070189563","kind":"peak","name":"Buuna Kodilok","lat":-1.0009,"lon":123.2645,"elevationM":null}]}