{"tileKey":"la_m41_lo_p173","version":"v1-1775891056926","entries":[{"id":"node:3334855094","kind":"peak","name":"Mount Drew","lat":-40.985585,"lon":173.8848355,"elevationM":661},{"id":"node:3334855095","kind":"peak","name":"Cone Peak","lat":-40.9779924,"lon":173.8854038,"elevationM":565},{"id":"node:3334855096","kind":"peak","name":"Turner Peak","lat":-40.9372791,"lon":173.9360812,"elevationM":683},{"id":"node:3334855097","kind":"peak","name":"Crichtons Hill","lat":-40.9054373,"lon":173.9683349,"elevationM":443},{"id":"node:3344569162","kind":"peak","name":"Mistaken Mount","lat":-40.7779954,"lon":173.9883416,"elevationM":128},{"id":"node:3344569163","kind":"peak","name":"Mount Ears","lat":-40.801198,"lon":173.922242,"elevationM":463},{"id":"node:3344569164","kind":"peak","name":"Mount Woore","lat":-40.8151999,"lon":173.8431955,"elevationM":693},{"id":"node:3344569165","kind":"peak","name":"Mount Jackson","lat":-40.835218,"lon":173.821875,"elevationM":465},{"id":"node:3344569166","kind":"peak","name":"Takapōtaka / Attempt Hill","lat":-40.8540052,"lon":173.8674207,"elevationM":729},{"id":"node:3344569167","kind":"peak","name":"Remarkable Cone","lat":-40.8667834,"lon":173.9084415,"elevationM":176},{"id":"node:3344569168","kind":"peak","name":"Wells Peak","lat":-40.8887457,"lon":173.8251224,"elevationM":574},{"id":"node:3344569169","kind":"peak","name":"Manakau Hill","lat":-40.930128,"lon":173.778668,"elevationM":216},{"id":"node:3344569170","kind":"peak","name":"Hippolites Hill","lat":-40.9374813,"lon":173.7878994,"elevationM":130},{"id":"node:3344569171","kind":"peak","name":"Mount Pleasant","lat":-40.9327708,"lon":173.8435727,"elevationM":202},{"id":"node:6562995183","kind":"peak","name":"Okuri Hill","lat":-40.999639,"lon":173.7716651,"elevationM":529},{"id":"node:6564086014","kind":"peak","name":"Whakatari","lat":-40.7520473,"lon":173.993611,"elevationM":225},{"id":"node:6564285510","kind":"peak","name":"Rātā Hill","lat":-40.9696342,"lon":173.005439,"elevationM":582},{"id":"node:6564285511","kind":"peak","name":"Tonga Hill","lat":-40.90033,"lon":173.0308585,"elevationM":458},{"id":"node:10007546796","kind":"peak","name":"Adele","lat":-40.9813397,"lon":173.0561356,"elevationM":119},{"id":"node:10680003232","kind":"peak","name":"George Hill","lat":-40.954814,"lon":173.016258,"elevationM":489},{"id":"node:10680003233","kind":"peak","name":"Bare Knob","lat":-40.930656,"lon":173.036113,"elevationM":314},{"id":"node:10680003234","kind":"peak","name":"County Boundary","lat":-40.942064,"lon":173.054376,"elevationM":null},{"id":"node:10680003235","kind":"peak","name":"Cairn Hill","lat":-40.955686,"lon":173.066093,"elevationM":58},{"id":"node:10680003236","kind":"peak","name":"Basin Point","lat":-40.90239,"lon":173.003074,"elevationM":519},{"id":"node:10680003246","kind":"peak","name":"Waiharakeke Bay","lat":-40.854684,"lon":173.016828,"elevationM":192},{"id":"node:10680003247","kind":"peak","name":"Mount Rollinson","lat":-40.867293,"lon":173.024445,"elevationM":228},{"id":"node:10680003248","kind":"peak","name":"Stony Hill","lat":-40.885028,"lon":173.02908,"elevationM":394},{"id":"node:10680003249","kind":"peak","name":"Able Head","lat":-40.861178,"lon":173.05011,"elevationM":null},{"id":"node:10680003250","kind":"peak","name":"Awaroa Head","lat":-40.8520738,"lon":173.0454213,"elevationM":null},{"id":"node:10680003251","kind":"peak","name":"Tōtaranui","lat":-40.814063,"lon":173.011908,"elevationM":141},{"id":"node:10680017139","kind":"peak","name":"Saddle Hill","lat":-40.977167,"lon":173.822917,"elevationM":null},{"id":"node:10680017140","kind":"peak","name":"Malvern Hill","lat":-40.968996,"lon":173.792921,"elevationM":163},{"id":"node:10680017141","kind":"peak","name":"Waikawa","lat":-40.953974,"lon":173.80798,"elevationM":68},{"id":"node:10680017142","kind":"peak","name":"Mineral Belt","lat":-40.906435,"lon":173.813317,"elevationM":458},{"id":"node:10680017143","kind":"peak","name":"Hope","lat":-40.868717,"lon":173.778313,"elevationM":275},{"id":"node:10680017144","kind":"peak","name":"Pascoe","lat":-40.755081,"lon":173.946295,"elevationM":359},{"id":"node:10680017145","kind":"peak","name":"Cannon Hill","lat":-40.933046,"lon":173.967752,"elevationM":239},{"id":"node:10680017146","kind":"peak","name":"Orr Hill","lat":-40.996639,"lon":173.793722,"elevationM":null}]}