{"tileKey":"la_m40_lo_p176","version":"v1-1775891056926","entries":[{"id":"node:606172228","kind":"peak","name":"Kahurānaki","lat":-39.7953555,"lon":176.8727158,"elevationM":645},{"id":"node:606172229","kind":"peak","name":"Te Mata-o-Rongokako / Te Mata Peak","lat":-39.7018276,"lon":176.909684,"elevationM":399},{"id":"node:1936718276","kind":"peak","name":"Tūrangakumu Summit","lat":-39.1058826,"lon":176.5975671,"elevationM":null},{"id":"node:2640297283","kind":"peak","name":"Kuripapango Hill","lat":-39.357861,"lon":176.3439126,"elevationM":1250},{"id":"node:2932064869","kind":"peak","name":"Hikurangi","lat":-39.7967911,"lon":176.0911001,"elevationM":1710},{"id":"node:2932064871","kind":"peak","name":"Iron Peg","lat":-39.8270773,"lon":176.084372,"elevationM":1703},{"id":"node:2932064876","kind":"peak","name":"Mangahuia","lat":-39.9018588,"lon":176.0522392,"elevationM":1583},{"id":"node:2932064877","kind":"peak","name":"Mangaweka","lat":-39.8177827,"lon":176.0854377,"elevationM":1731},{"id":"node:2932065420","kind":"peak","name":"Otumore","lat":-39.9393375,"lon":176.1092792,"elevationM":1519},{"id":"node:2932065427","kind":"peak","name":"Te Hekenga","lat":-39.8827298,"lon":176.1033028,"elevationM":1695},{"id":"node:2932065432","kind":"peak","name":"Wooden Peg","lat":-39.8294477,"lon":176.0776947,"elevationM":1672},{"id":"node:3276318900","kind":"peak","name":"Te Ahimanawa","lat":-39.4357633,"lon":176.2189442,"elevationM":750},{"id":"node:3276344559","kind":"peak","name":"Komata","lat":-39.4744529,"lon":176.2914868,"elevationM":1083},{"id":"node:3302077824","kind":"peak","name":"Tarapōnui","lat":-39.1337287,"lon":176.7396329,"elevationM":1308},{"id":"node:4112896219","kind":"peak","name":"Venison Top","lat":-39.250328,"lon":176.3211319,"elevationM":1490},{"id":"node:4945139260","kind":"peak","name":"Tauwhare Papauma","lat":-39.2120399,"lon":176.6852636,"elevationM":762},{"id":"node:4945145381","kind":"peak","name":"Ōtangihia","lat":-39.0956952,"lon":176.6061262,"elevationM":843},{"id":"node:4945145382","kind":"peak","name":"Wharangi","lat":-39.0380917,"lon":176.5591489,"elevationM":890},{"id":"node:4945145383","kind":"peak","name":"Tunurangi","lat":-39.0463179,"lon":176.494587,"elevationM":1251},{"id":"node:4945145384","kind":"peak","name":"Tataraakina","lat":-39.0517171,"lon":176.6343645,"elevationM":1130},{"id":"node:4945150869","kind":"peak","name":"Kaimatangi","lat":-39.0058781,"lon":176.507035,"elevationM":1035},{"id":"node:4948671762","kind":"peak","name":"Te Pohatu","lat":-39.9977651,"lon":176.092871,"elevationM":1132},{"id":"node:4948682580","kind":"peak","name":"Toka","lat":-39.9871214,"lon":176.0594586,"elevationM":1519},{"id":"node:5793274582","kind":"peak","name":"Ohutu","lat":-39.6005309,"lon":176.1294632,"elevationM":1288},{"id":"node:5793274583","kind":"peak","name":"Mangaohane","lat":-39.5460157,"lon":176.1791184,"elevationM":1372},{"id":"node:5793274584","kind":"peak","name":"Tūpari","lat":-39.6790096,"lon":176.1921175,"elevationM":1527},{"id":"node:5793274585","kind":"peak","name":"Rangiwhakamataku / Te Rangiwhakamatuku","lat":-39.6788543,"lon":176.1722734,"elevationM":1505},{"id":"node:5793274586","kind":"peak","name":"Mākirikiri","lat":-39.6145811,"lon":176.1807492,"elevationM":1233},{"id":"node:5793274587","kind":"peak","name":"Otupae","lat":-39.5030134,"lon":176.1920788,"elevationM":1401},{"id":"node:5793274588","kind":"peak","name":"Pōtae","lat":-39.6484955,"lon":176.1651967,"elevationM":1312},{"id":"node:5793284274","kind":"peak","name":"Wakaari","lat":-39.2052582,"lon":176.1860664,"elevationM":1216},{"id":"node:5793284275","kind":"peak","name":"Tutu Peak","lat":-39.209513,"lon":176.1521504,"elevationM":1270},{"id":"node:5793284276","kind":"peak","name":"Te Pukeohikarua","lat":-39.1876976,"lon":176.2755277,"elevationM":1506},{"id":"node:5793284277","kind":"peak","name":"Owhaoko","lat":-39.3705045,"lon":176.0988259,"elevationM":953},{"id":"node:5793284278","kind":"peak","name":"Tawake Tohunga","lat":-39.2752224,"lon":176.0913115,"elevationM":1577},{"id":"node:5793284279","kind":"peak","name":"Prominent Cone","lat":-39.2609374,"lon":176.033423,"elevationM":1494},{"id":"node:5793284280","kind":"peak","name":"Te Ruatakaikare","lat":-39.210858,"lon":176.2172744,"elevationM":1471},{"id":"node:5793288499","kind":"peak","name":"Whangatikitiki","lat":-39.0255174,"lon":176.1698061,"elevationM":1318},{"id":"node:5793288501","kind":"peak","name":"Manawaruruku","lat":-39.1216279,"lon":176.114956,"elevationM":1436},{"id":"node:5793288502","kind":"peak","name":"Pikiawatea","lat":-39.0941333,"lon":176.1138831,"elevationM":1373},{"id":"node:5793288503","kind":"peak","name":"Mount Dowding","lat":-39.1214215,"lon":176.0942751,"elevationM":1567},{"id":"node:5793288505","kind":"peak","name":"Maungaorangi","lat":-39.0784956,"lon":176.1727243,"elevationM":1436},{"id":"node:5937827326","kind":"peak","name":"Whetū","lat":-39.2424895,"lon":176.3798666,"elevationM":1650},{"id":"node:5937827327","kind":"peak","name":"Manson","lat":-39.2767517,"lon":176.2577725,"elevationM":1448},{"id":"node:5937827328","kind":"peak","name":"Ahurua","lat":-39.2251078,"lon":176.3151138,"elevationM":1434},{"id":"node:5937827329","kind":"peak","name":"Mad Dog Hill","lat":-39.2945873,"lon":176.3694382,"elevationM":1631},{"id":"node:5937827330","kind":"peak","name":"North Kaweka","lat":-39.2695732,"lon":176.3867642,"elevationM":1707},{"id":"node:5937827331","kind":"peak","name":"Kaiārahi","lat":-39.3126192,"lon":176.3632584,"elevationM":1507},{"id":"node:5937827332","kind":"peak","name":"Ngākawekaiti","lat":-39.2259722,"lon":176.2903088,"elevationM":1436},{"id":"node:5937827333","kind":"peak","name":"The Tits","lat":-39.3222459,"lon":176.36284,"elevationM":1418},{"id":"node:5937827334","kind":"peak","name":"Kaweka","lat":-39.2827947,"lon":176.3793104,"elevationM":1724},{"id":"node:6200523079","kind":"peak","name":"Arapuke","lat":-39.7121303,"lon":176.9597042,"elevationM":334},{"id":"node:6280161746","kind":"peak","name":"Bluff Hill","lat":-39.4788919,"lon":176.9172861,"elevationM":101},{"id":"node:6280161747","kind":"peak","name":"Hospital Hill","lat":-39.4894477,"lon":176.8975706,"elevationM":68},{"id":"node:6280164727","kind":"peak","name":"Roys Hill","lat":-39.6169802,"lon":176.7271406,"elevationM":134},{"id":"node:6280164728","kind":"peak","name":"Kōhinerākau / Kohinurākau","lat":-39.739815,"lon":176.8410316,"elevationM":490},{"id":"node:6280164729","kind":"peak","name":"Matangi","lat":-39.7339038,"lon":176.8691601,"elevationM":317},{"id":"node:6280164730","kind":"peak","name":"Puketapu","lat":-39.5925507,"lon":176.7616419,"elevationM":77},{"id":"node:6280164735","kind":"peak","name":"Sugar Loaf","lat":-39.5232667,"lon":176.8393876,"elevationM":144},{"id":"node:6280164736","kind":"peak","name":"Rorookuri / Te Roro-o-Kurī","lat":-39.4341875,"lon":176.8569102,"elevationM":71},{"id":"node:6280164737","kind":"peak","name":"Taputerangi","lat":-39.468287,"lon":176.8434301,"elevationM":25},{"id":"node:6295635587","kind":"peak","name":"Te Atuaoparapara","lat":-39.7966637,"lon":176.1444308,"elevationM":1687},{"id":"node:6336681293","kind":"peak","name":"Pakipaki","lat":-39.7082424,"lon":176.7796347,"elevationM":206},{"id":"node:6336681294","kind":"peak","name":"Washpool","lat":-39.6697884,"lon":176.7129146,"elevationM":125},{"id":"node:7886422696","kind":"peak","name":"Te Manihi","lat":-39.3788299,"lon":176.3178314,"elevationM":1099},{"id":"node:7889902222","kind":"peak","name":"Te Iringa","lat":-39.3771555,"lon":176.2825841,"elevationM":1324},{"id":"node:7894953321","kind":"peak","name":"Cattle Hill","lat":-39.4359705,"lon":176.379557,"elevationM":995},{"id":"node:7896210770","kind":"peak","name":"Kohinga / Bonny Mary","lat":-39.4158792,"lon":176.3512544,"elevationM":1009},{"id":"node:7901164709","kind":"peak","name":"Maungamahue","lat":-39.8777321,"lon":176.0639335,"elevationM":1661},{"id":"node:7901164717","kind":"peak","name":"Pourangaki","lat":-39.866739,"lon":176.0532035,"elevationM":1539},{"id":"node:7929671069","kind":"peak","name":"Ikawetea","lat":-39.5890928,"lon":176.2430697,"elevationM":1413},{"id":"node:7929772084","kind":"peak","name":"Rocky Knob","lat":-39.9618714,"lon":176.1205678,"elevationM":1226},{"id":"node:7929797166","kind":"peak","name":"Ōhawai","lat":-39.5968558,"lon":176.2665736,"elevationM":null},{"id":"node:7929811729","kind":"peak","name":"Taumatataua","lat":-39.9153863,"lon":176.1087518,"elevationM":1415},{"id":"node:7929811757","kind":"peak","name":"Tīraha","lat":-39.8869597,"lon":176.1170697,"elevationM":1668},{"id":"node:7929811779","kind":"peak","name":"Ōhuinga","lat":-39.8616955,"lon":176.127755,"elevationM":1686},{"id":"node:7929818598","kind":"peak","name":"Paemutu","lat":-39.8426957,"lon":176.1286184,"elevationM":1682},{"id":"node:7929818678","kind":"peak","name":"Maropea","lat":-39.7445766,"lon":176.1762991,"elevationM":1481},{"id":"node:7929818687","kind":"peak","name":"Orupū","lat":-39.7329216,"lon":176.1729839,"elevationM":1475},{"id":"node:7929818694","kind":"peak","name":"Maroparea","lat":-39.7184084,"lon":176.1678729,"elevationM":1511},{"id":"node:7929818699","kind":"peak","name":"Te Atua Mahuru","lat":-39.7114649,"lon":176.1795744,"elevationM":1534},{"id":"node:7929818710","kind":"peak","name":"Ina Rock","lat":-39.693294,"lon":176.1827502,"elevationM":1439},{"id":"node:7929818736","kind":"peak","name":"Piopio","lat":-39.6544154,"lon":176.2102657,"elevationM":1437},{"id":"node:7934006840","kind":"peak","name":"Tunupō","lat":-39.967047,"lon":176.0716384,"elevationM":1568},{"id":"node:8026373038","kind":"peak","name":"Makorako","lat":-39.1568869,"lon":176.0441638,"elevationM":1726},{"id":"node:8026373039","kind":"peak","name":"Te Kohatuakaiuru","lat":-39.1076529,"lon":176.0348028,"elevationM":1450},{"id":"node:8026373040","kind":"peak","name":"Waingakia","lat":-39.1383418,"lon":176.0862121,"elevationM":1617},{"id":"node:8026373041","kind":"peak","name":"Toatoa a Tamakaitangi","lat":-39.14361,"lon":176.1077167,"elevationM":1285},{"id":"node:8201602531","kind":"peak","name":"Te Waka","lat":-39.2288835,"lon":176.6574064,"elevationM":1021},{"id":"node:8566708398","kind":"peak","name":"Te Apunga","lat":-39.2281891,"lon":176.0477032,"elevationM":1289},{"id":"node:9034559705","kind":"peak","name":"Pukekotare","lat":-39.1274469,"lon":176.1535844,"elevationM":1266},{"id":"node:9232600175","kind":"peak","name":"Taumataomekura / Te Taumata-a-Mekura","lat":-39.890591,"lon":176.1103809,"elevationM":1682},{"id":"node:9780417617","kind":"peak","name":"Tapuiomaruahine","lat":-39.146571,"lon":176.1610499,"elevationM":1330},{"id":"node:9802923040","kind":"peak","name":"Pūrahoitangihia","lat":-39.2545341,"lon":176.8164152,"elevationM":631},{"id":"node:9889282709","kind":"peak","name":"Rangioteatua / Te Ranga-a-te-Atua","lat":-39.8241396,"lon":176.1373095,"elevationM":1704},{"id":"node:9889326866","kind":"peak","name":"Pātiki","lat":-39.7769978,"lon":176.1804311,"elevationM":1370},{"id":"node:9889334635","kind":"peak","name":"Piringa","lat":-39.732236,"lon":176.1225949,"elevationM":1317},{"id":"node:9889377041","kind":"peak","name":"Puketaramea","lat":-39.7167628,"lon":176.1260087,"elevationM":1338},{"id":"node:9909547869","kind":"peak","name":"Paemahi","lat":-39.0893064,"lon":176.2058648,"elevationM":1309},{"id":"node:10152328598","kind":"peak","name":"Te Wetenga","lat":-39.1480434,"lon":176.0447879,"elevationM":1666},{"id":"node:10152350302","kind":"peak","name":"Te More","lat":-39.129279,"lon":176.0173518,"elevationM":1455},{"id":"node:10152369221","kind":"peak","name":"Te Piri","lat":-39.1781988,"lon":176.0888819,"elevationM":1457},{"id":"node:10152388920","kind":"peak","name":"Whakamarumaru","lat":-39.2339316,"lon":176.0187127,"elevationM":1609},{"id":"node:10167873873","kind":"peak","name":"Mokototara","lat":-39.7355093,"lon":176.9342978,"elevationM":275},{"id":"node:10243780749","kind":"peak","name":"Rākaitā","lat":-39.0217511,"lon":176.8539143,"elevationM":548},{"id":"node:10243794581","kind":"peak","name":"Te Ipuohape","lat":-39.0063841,"lon":176.8352742,"elevationM":588},{"id":"node:10243794629","kind":"peak","name":"Taumatakaiamu","lat":-39.0167186,"lon":176.9188457,"elevationM":520},{"id":"node:10243794971","kind":"peak","name":"Rongomaipāpā","lat":-39.0478729,"lon":176.9908542,"elevationM":534},{"id":"node:10243805192","kind":"peak","name":"Te Kooti's Lookout","lat":-39.0089601,"lon":176.8044365,"elevationM":733},{"id":"node:10252313179","kind":"peak","name":"Opitoturi","lat":-39.1021424,"lon":176.2422922,"elevationM":923},{"id":"node:10252317344","kind":"peak","name":"Te Kaitetara","lat":-39.1597365,"lon":176.187981,"elevationM":1178},{"id":"node:10252324073","kind":"peak","name":"Pukekokaho","lat":-39.0157322,"lon":176.1257205,"elevationM":1137},{"id":"node:10252338821","kind":"peak","name":"Rouiti","lat":-39.0691922,"lon":176.2303103,"elevationM":1295},{"id":"node:10254575682","kind":"peak","name":"Te Rakaunuiakura","lat":-39.6232338,"lon":176.1520633,"elevationM":1313},{"id":"node:10254576508","kind":"peak","name":"Toimaru","lat":-39.561375,"lon":176.2017258,"elevationM":1005},{"id":"node:10254635001","kind":"peak","name":"Titapu","lat":-39.6510526,"lon":176.1051617,"elevationM":1346},{"id":"node:10254679278","kind":"peak","name":"Rākautaonga","lat":-39.5675165,"lon":176.3039209,"elevationM":1119},{"id":"node:10254715003","kind":"peak","name":"Whanawhana / The Fort","lat":-39.5341322,"lon":176.4096499,"elevationM":562},{"id":"node:10254718191","kind":"peak","name":"Tauwharepōkoru","lat":-39.5854334,"lon":176.2352276,"elevationM":1403},{"id":"node:10258198927","kind":"peak","name":"Remutupo","lat":-39.7083434,"lon":176.1611854,"elevationM":1529},{"id":"node:10258266888","kind":"peak","name":"Waikamaka","lat":-39.6987831,"lon":176.146443,"elevationM":1437},{"id":"node:10267125740","kind":"peak","name":"Mokai Patea","lat":-39.6938998,"lon":176.060106,"elevationM":1210},{"id":"node:10267125741","kind":"peak","name":"Colenso","lat":-39.7389837,"lon":176.0544354,"elevationM":1408},{"id":"node:10267125742","kind":"peak","name":"Rongotea","lat":-39.7638068,"lon":176.1127873,"elevationM":1568},{"id":"node:10267125743","kind":"peak","name":"Awarua","lat":-39.6680645,"lon":176.0325971,"elevationM":452},{"id":"node:10267125744","kind":"peak","name":"Pukerimu","lat":-39.5883081,"lon":176.0303728,"elevationM":830},{"id":"node:10270903770","kind":"peak","name":"Rangipuketū","lat":-39.1207529,"lon":176.4434561,"elevationM":1128},{"id":"node:10270945599","kind":"peak","name":"Te Papakōpuru","lat":-39.1280371,"lon":176.3822595,"elevationM":952},{"id":"node:10270956375","kind":"peak","name":"Panemanga","lat":-39.061633,"lon":176.4200724,"elevationM":1014},{"id":"node:10552749840","kind":"peak","name":"Tāhau","lat":-39.1306536,"lon":176.5647774,"elevationM":794},{"id":"node:10599374717","kind":"peak","name":"Patikiakai","lat":-39.1546817,"lon":176.7834167,"elevationM":724},{"id":"node:10679856725","kind":"peak","name":"Wharerangi","lat":-39.4745176,"lon":176.8171731,"elevationM":105},{"id":"node:10703879306","kind":"peak","name":"Moturoa","lat":-39.862306,"lon":176.643917,"elevationM":121},{"id":"node:10703879307","kind":"peak","name":"Waipawa Hill","lat":-39.912583,"lon":176.570028,"elevationM":null},{"id":"node:10703879308","kind":"peak","name":"Mount Vernon","lat":-39.968372,"lon":176.551437,"elevationM":null},{"id":"node:10703879309","kind":"peak","name":"San Hill","lat":-39.987167,"lon":176.501972,"elevationM":null},{"id":"node:10703879325","kind":"peak","name":"Rangitoto","lat":-39.930395,"lon":176.701928,"elevationM":null},{"id":"node:10703879326","kind":"peak","name":"Te Atua","lat":-39.991611,"lon":176.80925,"elevationM":null},{"id":"node:10703879329","kind":"peak","name":"Waimoana","lat":-39.917936,"lon":176.912499,"elevationM":null},{"id":"node:10703879330","kind":"peak","name":"Marokotia","lat":-39.874325,"lon":176.962282,"elevationM":null},{"id":"node:10703879331","kind":"peak","name":"Ngapuke te tua","lat":-39.659889,"lon":176.676889,"elevationM":98},{"id":"node:10703879332","kind":"peak","name":"Matapiro","lat":-39.601472,"lon":176.634417,"elevationM":null},{"id":"node:10703879333","kind":"peak","name":"Puketautahi","lat":-39.500574,"lon":176.666807,"elevationM":353},{"id":"node:10703879334","kind":"peak","name":"Ben Lomond","lat":-39.691727,"lon":176.529785,"elevationM":390},{"id":"node:10703879335","kind":"peak","name":"Salisbury","lat":-39.685915,"lon":176.474361,"elevationM":null},{"id":"node:10703879336","kind":"peak","name":"Lookout Hill","lat":-39.646327,"lon":176.494965,"elevationM":358},{"id":"node:10703879337","kind":"peak","name":"Breakheart Peak","lat":-39.679045,"lon":176.356874,"elevationM":null},{"id":"node:10703879338","kind":"peak","name":"Briens","lat":-39.6715633,"lon":176.3447476,"elevationM":null},{"id":"node:10703879339","kind":"peak","name":"Mount Mary","lat":-39.644625,"lon":176.342872,"elevationM":597},{"id":"node:10703879340","kind":"peak","name":"Three Fingers","lat":-39.613545,"lon":176.29441,"elevationM":1264},{"id":"node:10703879341","kind":"peak","name":"Lessong Monument","lat":-39.553327,"lon":176.292591,"elevationM":1205},{"id":"node:10703879342","kind":"peak","name":"Tikorangi","lat":-39.569645,"lon":176.3113,"elevationM":1061},{"id":"node:10703879343","kind":"peak","name":"Desolation Peak","lat":-39.539008,"lon":176.3542795,"elevationM":731},{"id":"node:10703879344","kind":"peak","name":"Big Hill","lat":-39.573639,"lon":176.371472,"elevationM":745},{"id":"node:10703879345","kind":"peak","name":"Pohatuhaha","lat":-39.658336,"lon":176.262998,"elevationM":1368},{"id":"node:10703879346","kind":"peak","name":"Rocky Knoll","lat":-39.668625,"lon":176.271172,"elevationM":978},{"id":"node:10703879347","kind":"peak","name":"Bald Hill","lat":-39.713167,"lon":176.311111,"elevationM":884},{"id":"node:10703879348","kind":"peak","name":"Poutaki","lat":-39.728775,"lon":176.312938,"elevationM":null},{"id":"node:10703879349","kind":"peak","name":"Crag Peak","lat":-39.740173,"lon":176.317894,"elevationM":992},{"id":"node:10703879350","kind":"peak","name":"Sugar Loaf Peak","lat":-39.743036,"lon":176.327255,"elevationM":960},{"id":"node:10703879351","kind":"peak","name":"Pound Hill","lat":-39.755346,"lon":176.296739,"elevationM":null},{"id":"node:10703879352","kind":"peak","name":"The Tump Peak","lat":-39.774247,"lon":176.315807,"elevationM":770},{"id":"node:10703879353","kind":"peak","name":"Pebbly Hill","lat":-39.810046,"lon":176.249374,"elevationM":715},{"id":"node:10703902805","kind":"peak","name":"Whakaterehu","lat":-39.104861,"lon":176.641083,"elevationM":739},{"id":"node:10703902806","kind":"peak","name":"Parahakipaku","lat":-39.158515,"lon":176.556012,"elevationM":844},{"id":"node:10703902807","kind":"peak","name":"Hukanui","lat":-39.247099,"lon":176.543257,"elevationM":null},{"id":"node:10703902808","kind":"peak","name":"End","lat":-39.282606,"lon":176.498212,"elevationM":643},{"id":"node:10703902809","kind":"peak","name":"Baldy","lat":-39.284194,"lon":176.466389,"elevationM":805},{"id":"node:10703902810","kind":"peak","name":"Ngahere Hill","lat":-39.289525,"lon":176.422532,"elevationM":1114},{"id":"node:10703902811","kind":"peak","name":"Māminga","lat":-39.276462,"lon":176.340586,"elevationM":1472},{"id":"node:10703902812","kind":"peak","name":"Bare Top","lat":-39.18375,"lon":176.235,"elevationM":1366},{"id":"node:10703902813","kind":"peak","name":"Ngatira","lat":-39.128722,"lon":176.281194,"elevationM":1230},{"id":"node:10703902814","kind":"peak","name":"Ahikaeaea","lat":-39.119043,"lon":176.322955,"elevationM":1242},{"id":"node:10703902815","kind":"peak","name":"Kakarikihutia","lat":-39.145983,"lon":176.378311,"elevationM":936},{"id":"node:10703902816","kind":"peak","name":"Coopers Peak Taumatakareturetu","lat":-39.16855,"lon":176.360875,"elevationM":1240},{"id":"node:10703902817","kind":"peak","name":"Te Matai","lat":-39.116386,"lon":176.416714,"elevationM":1235},{"id":"node:10703902818","kind":"peak","name":"Big Ben","lat":-39.084224,"lon":176.386533,"elevationM":1115},{"id":"node:10703902822","kind":"peak","name":"Don Juan","lat":-39.33573,"lon":176.464838,"elevationM":null},{"id":"node:10703902823","kind":"peak","name":"Boar Hill","lat":-39.388016,"lon":176.424796,"elevationM":705},{"id":"node:10703902824","kind":"peak","name":"Rocky Point","lat":-39.329139,"lon":176.253083,"elevationM":1158},{"id":"node:10703902825","kind":"peak","name":"Te Whata","lat":-39.420444,"lon":176.266639,"elevationM":null},{"id":"node:10703902826","kind":"peak","name":"Dunmore","lat":-39.303094,"lon":176.566484,"elevationM":702},{"id":"node:10703902827","kind":"peak","name":"Mount Cameron","lat":-39.452833,"lon":176.659167,"elevationM":null},{"id":"node:10703902828","kind":"peak","name":"McNeill","lat":-39.443514,"lon":176.695006,"elevationM":351},{"id":"node:10703902829","kind":"peak","name":"Apley","lat":-39.465306,"lon":176.746694,"elevationM":null},{"id":"node:10703902830","kind":"peak","name":"Puketapu","lat":-39.4199094,"lon":176.7640268,"elevationM":371},{"id":"node:10703902831","kind":"peak","name":"Mataruahou","lat":-39.4899929,"lon":176.9016567,"elevationM":null},{"id":"node:10703902832","kind":"peak","name":"The Dome","lat":-39.345444,"lon":176.671028,"elevationM":null},{"id":"node:10703902833","kind":"peak","name":"Ahu-o-te-Atua","lat":-39.148465,"lon":176.735115,"elevationM":null},{"id":"node:10703902834","kind":"peak","name":"Kōpua","lat":-39.162896,"lon":176.706542,"elevationM":null},{"id":"node:10703902835","kind":"peak","name":"Wakaateo","lat":-39.191994,"lon":176.6998934,"elevationM":null},{"id":"node:10703902842","kind":"peak","name":"Kōmataoneone","lat":-39.0145,"lon":176.967722,"elevationM":447},{"id":"node:10703902843","kind":"peak","name":"Kotoko","lat":-39.093389,"lon":176.981333,"elevationM":null},{"id":"node:10703902847","kind":"peak","name":"Patuwahine","lat":-39.070088,"lon":176.845364,"elevationM":null},{"id":"node:10703902848","kind":"peak","name":"Heruotureia","lat":-39.055058,"lon":176.872223,"elevationM":null},{"id":"node:10703902849","kind":"peak","name":"Kokohitoa","lat":-39.027746,"lon":176.89674,"elevationM":null},{"id":"node:10703902850","kind":"peak","name":"Kingma Peak","lat":-39.032159,"lon":176.797584,"elevationM":null},{"id":"node:10705914930","kind":"peak","name":"Pukeokahu","lat":-39.639321,"lon":176.015209,"elevationM":983},{"id":"node:10705914931","kind":"peak","name":"Aorangi","lat":-39.616389,"lon":176.080639,"elevationM":null},{"id":"node:10705914932","kind":"peak","name":"The Narrows","lat":-39.601833,"lon":176.049778,"elevationM":559},{"id":"node:10705914933","kind":"peak","name":"Mangahoata","lat":-39.575384,"lon":176.038361,"elevationM":793},{"id":"node:10705914934","kind":"peak","name":"Pokopoko","lat":-39.5805,"lon":176.077944,"elevationM":939},{"id":"node:10705914935","kind":"peak","name":"Three Johns Peak","lat":-39.812451,"lon":176.156234,"elevationM":1569},{"id":"node:10705914936","kind":"peak","name":"Cone","lat":-39.970667,"lon":176.035833,"elevationM":1157},{"id":"node:10705914956","kind":"peak","name":"Makokomiko","lat":-39.535995,"lon":176.027944,"elevationM":783},{"id":"node:10705914957","kind":"peak","name":"Moemoe","lat":-39.546472,"lon":176.099361,"elevationM":null},{"id":"node:10705914958","kind":"peak","name":"The Peak Hill","lat":-39.555114,"lon":176.115131,"elevationM":1145},{"id":"node:10705914959","kind":"peak","name":"Taruarau Hill","lat":-39.444688,"lon":176.201169,"elevationM":981},{"id":"node:10705914960","kind":"peak","name":"Mataipuku","lat":-39.444579,"lon":176.185647,"elevationM":975},{"id":"node:10705914961","kind":"peak","name":"Hiwiopapakai","lat":-39.45733,"lon":176.106053,"elevationM":963},{"id":"node:10705914963","kind":"peak","name":"Pukenui","lat":-39.919857,"lon":176.198173,"elevationM":784},{"id":"node:10705914964","kind":"peak","name":"Folgers Hill","lat":-39.860333,"lon":176.228667,"elevationM":730},{"id":"node:10705953776","kind":"peak","name":"Oheikura","lat":-39.177472,"lon":176.167556,"elevationM":1195},{"id":"node:10705953777","kind":"peak","name":"Makokomiko","lat":-39.174526,"lon":176.131771,"elevationM":1454},{"id":"node:10705953778","kind":"peak","name":"Golden Hills","lat":-39.220505,"lon":176.183121,"elevationM":1405},{"id":"node:10705953779","kind":"peak","name":"Mount Meany","lat":-39.305417,"lon":176.21825,"elevationM":null},{"id":"node:10705953780","kind":"peak","name":"Hogget","lat":-39.372183,"lon":176.223026,"elevationM":1287},{"id":"node:10705953781","kind":"peak","name":"Black Basin","lat":-39.369743,"lon":176.191423,"elevationM":1009},{"id":"node:10705953782","kind":"peak","name":"Pukewharariki","lat":-39.390017,"lon":176.163966,"elevationM":1014},{"id":"node:10705953783","kind":"peak","name":"Te Turiokanawha","lat":-39.420876,"lon":176.205774,"elevationM":1060},{"id":"node:10705953784","kind":"peak","name":"Tikitiki","lat":-39.403278,"lon":176.032167,"elevationM":1169},{"id":"node:10705953786","kind":"peak","name":"Tauranga","lat":-39.285244,"lon":176.010216,"elevationM":1065},{"id":"node:10705973009","kind":"peak","name":"Ahipaepae","lat":-39.025374,"lon":176.108169,"elevationM":1193},{"id":"node:10705973010","kind":"peak","name":"Pukehuia","lat":-39.016337,"lon":176.070342,"elevationM":1014},{"id":"node:10705973011","kind":"peak","name":"Ngapuketurua","lat":-39.077626,"lon":176.032108,"elevationM":1510}]}