{"tileKey":"la_m4_lo_p11","version":"v1-1775891056926","entries":[{"id":"node:3323402246","kind":"peak","name":"Mont Kouri","lat":-3.4295124,"lon":11.5273219,"elevationM":354},{"id":"node:3323402248","kind":"peak","name":"Mont Mavende","lat":-3.5927981,"lon":11.6017993,"elevationM":null},{"id":"node:3323402250","kind":"peak","name":"Mont Monguidou","lat":-3.5318981,"lon":11.5489471,"elevationM":673},{"id":"node:3323402251","kind":"peak","name":"Mont Neri","lat":-3.5252187,"lon":11.3871676,"elevationM":null},{"id":"node:3323402258","kind":"peak","name":"Mont Serre","lat":-3.4685161,"lon":11.8099265,"elevationM":413},{"id":"node:3323402259","kind":"peak","name":"Mont Yana","lat":-3.3744057,"lon":11.45638,"elevationM":453},{"id":"node:3323402368","kind":"peak","name":"Monts de Kouboula","lat":-3.8036596,"lon":11.5877233,"elevationM":null},{"id":"node:3323402380","kind":"peak","name":"Mt Binta","lat":-3.1770992,"lon":11.9261388,"elevationM":null},{"id":"node:3611858721","kind":"peak","name":"Mont Yenze","lat":-3.4001822,"lon":11.5169011,"elevationM":168},{"id":"node:3611892114","kind":"peak","name":"Mont Mpélé","lat":-3.3151701,"lon":11.4297779,"elevationM":263},{"id":"node:3611897226","kind":"peak","name":"Mont Kouri","lat":-3.3448841,"lon":11.5842403,"elevationM":155},{"id":"node:3613980714","kind":"peak","name":"Mont Mounga","lat":-3.0749128,"lon":11.019456,"elevationM":571},{"id":"node:3815821087","kind":"peak","name":"Mont Saki","lat":-3.4190188,"lon":11.878553,"elevationM":414},{"id":"node:13100547636","kind":"peak","name":"Mont Saki","lat":-3.3732427,"lon":11.9411987,"elevationM":525}]}