{"tileKey":"la_m14_lo_m39","version":"v1-1775891056926","entries":[{"id":"node:2069358150","kind":"peak","name":"Morro do Taipu","lat":-13.952891,"lon":-38.9405207,"elevationM":51},{"id":"node:2916733110","kind":"peak","name":"Morro de Santo Amaro","lat":-13.0199169,"lon":-38.7693895,"elevationM":150},{"id":"node:11026791978","kind":"peak","name":"Morro de Sâo Paulo","lat":-13.3760926,"lon":-38.9157415,"elevationM":null},{"id":"node:11028624969","kind":"peak","name":"Morro do Clemente","lat":-13.0014216,"lon":-38.5302222,"elevationM":49},{"id":"node:11056383648","kind":"peak","name":"Morro do Cavalcante","lat":-13.4057713,"lon":-38.9797136,"elevationM":52}]}