{"tileKey":"la_m16_lo_p144","version":"v1-1775891056926","entries":[{"id":"node:2842152263","kind":"peak","name":"Mount Amy","lat":-15.9938889,"lon":144.9936111,"elevationM":null},{"id":"node:2842152270","kind":"peak","name":"Mount Atlas","lat":-15.9930556,"lon":144.3275,"elevationM":null},{"id":"node:2842152622","kind":"peak","name":"Mount Earl","lat":-15.8838889,"lon":144.915,"elevationM":null},{"id":"node:2842152631","kind":"peak","name":"Mount Emma","lat":-15.9694444,"lon":144.1088889,"elevationM":null},{"id":"node:2842152635","kind":"peak","name":"Mount Eykin","lat":-15.9505556,"lon":144.9297222,"elevationM":null},{"id":"node:2842152653","kind":"peak","name":"Mount Gibson","lat":-15.9925,"lon":144.9091667,"elevationM":null},{"id":"node:2842152673","kind":"peak","name":"Mount Jack","lat":-15.1761111,"lon":144.6725,"elevationM":171},{"id":"node:2842152675","kind":"peak","name":"Mount Janet","lat":-15.8961111,"lon":144.7119444,"elevationM":null},{"id":"node:2842152690","kind":"peak","name":"Mount Lukin","lat":-15.9130556,"lon":144.6747222,"elevationM":764},{"id":"node:2842152905","kind":"peak","name":"Mount Mccormack","lat":-15.5861111,"lon":144.9783333,"elevationM":null},{"id":"node:2842152910","kind":"peak","name":"Mount Mclean","lat":-15.9016667,"lon":144.8380556,"elevationM":null},{"id":"node:2842152926","kind":"peak","name":"Mount Murray","lat":-15.955,"lon":144.7763889,"elevationM":602},{"id":"node:2842152963","kind":"peak","name":"Mount Sellheim","lat":-15.7527778,"lon":144.9583333,"elevationM":null},{"id":"node:2842152979","kind":"peak","name":"Mount Taylor","lat":-15.9769444,"lon":144.0511111,"elevationM":null},{"id":"node:2842153021","kind":"peak","name":"Red Bluff","lat":-15.75,"lon":144.2833333,"elevationM":null},{"id":"node:2842153037","kind":"peak","name":"Shields Sugarloaf","lat":-15.7166667,"lon":144.9666667,"elevationM":null}]}