{"tileKey":"la_m1_lo_p127","version":"v1-1775891056926","entries":[{"id":"node:448464302","kind":"volcano","name":"Bukit Amasing","lat":-0.5247662,"lon":127.5025749,"elevationM":1030},{"id":"node:1070156374","kind":"peak","name":"Buku Kailaka","lat":-0.416667,"lon":127.5,"elevationM":null},{"id":"node:1070156498","kind":"peak","name":"Gunung Bungali","lat":-0.016667,"lon":127.45,"elevationM":null},{"id":"node:1070157242","kind":"peak","name":"Buku Urijawa","lat":-0.533333,"lon":127.433333,"elevationM":null},{"id":"node:1070157357","kind":"peak","name":"Buku Amasing","lat":-0.583333,"lon":127.483333,"elevationM":null},{"id":"node:1070158092","kind":"peak","name":"Buku Caka","lat":-0.6,"lon":127.583333,"elevationM":null},{"id":"node:1070159762","kind":"peak","name":"Buku Silang","lat":-0.85,"lon":127.733333,"elevationM":null},{"id":"node:1070160120","kind":"peak","name":"Buku Gigima","lat":-0.033333,"lon":127.816667,"elevationM":null},{"id":"node:1070160460","kind":"peak","name":"Buku Pasegal","lat":-0.316667,"lon":127.8,"elevationM":null},{"id":"node:1070160575","kind":"peak","name":"Buku Gamknora","lat":-0.466667,"lon":127.6,"elevationM":null},{"id":"node:1070160720","kind":"peak","name":"Buku Wayakuba","lat":-0.866667,"lon":127.766667,"elevationM":null},{"id":"node:1070162005","kind":"peak","name":"Gunung Sibela","lat":-0.766667,"lon":127.516667,"elevationM":null},{"id":"node:1070162132","kind":"peak","name":"Buku Goheba","lat":-0.433333,"lon":127.55,"elevationM":null},{"id":"node:1070162950","kind":"peak","name":"Buku Pasirputih","lat":-0.233333,"lon":127.7,"elevationM":null},{"id":"node:1070163070","kind":"peak","name":"Buku Tenang","lat":-0.583333,"lon":127.383333,"elevationM":null},{"id":"node:1070164487","kind":"peak","name":"Buku Gorogoro","lat":-0.416667,"lon":127.55,"elevationM":null},{"id":"node:1070168061","kind":"peak","name":"Buku Langgar","lat":-0.516667,"lon":127.4,"elevationM":null},{"id":"node:1070168837","kind":"peak","name":"Buku Gaku","lat":-0.633333,"lon":127.25,"elevationM":null},{"id":"node:1070170763","kind":"peak","name":"Buku Gabijapan","lat":-0.45,"lon":127.233333,"elevationM":null},{"id":"node:1070172421","kind":"peak","name":"Buku Kusukusu","lat":-0.1,"lon":127.833333,"elevationM":null},{"id":"node:1070173257","kind":"peak","name":"Buku Durian","lat":-0.25,"lon":127.716667,"elevationM":null},{"id":"node:1070173292","kind":"peak","name":"Gunung Bastiung","lat":-0.433333,"lon":127.916667,"elevationM":null},{"id":"node:1070173491","kind":"peak","name":"Buku Cukur","lat":-0.483333,"lon":127.183333,"elevationM":null},{"id":"node:1070173513","kind":"peak","name":"Buku Siperak","lat":-0.566667,"lon":127.483333,"elevationM":null},{"id":"node:1070173992","kind":"peak","name":"Buku Korojoo","lat":-0.6,"lon":127.466667,"elevationM":null},{"id":"node:1070175941","kind":"peak","name":"Buku Tutupa","lat":-0.733333,"lon":127.816667,"elevationM":null},{"id":"node:1070176019","kind":"peak","name":"Buku Yaba","lat":-0.466667,"lon":127.45,"elevationM":null},{"id":"node:1070176777","kind":"peak","name":"Buku Disana","lat":-0.466667,"lon":127.533333,"elevationM":null},{"id":"node:1070176895","kind":"peak","name":"Buku Kambing","lat":-0.416667,"lon":127.216667,"elevationM":null},{"id":"node:1070177773","kind":"peak","name":"Buku Rogirogi","lat":-0.2658945,"lon":127.756845,"elevationM":1220},{"id":"node:1070178024","kind":"peak","name":"Buku Rica","lat":-0.483333,"lon":127.6,"elevationM":null},{"id":"node:1070178069","kind":"peak","name":"Buku Sabatang","lat":-0.466667,"lon":127.633333,"elevationM":null},{"id":"node:1070178291","kind":"peak","name":"Buku Parabesi","lat":-0.6,"lon":127.4,"elevationM":null},{"id":"node:1070178418","kind":"peak","name":"Buku Jojame","lat":-0.45,"lon":127.416667,"elevationM":null},{"id":"node:1070179393","kind":"peak","name":"Buku Tutupa","lat":-0.766667,"lon":127.8,"elevationM":null},{"id":"node:1070179680","kind":"peak","name":"Buku Gohauku","lat":-0.25,"lon":127.783333,"elevationM":null},{"id":"node:1070179875","kind":"peak","name":"Buku Ligua","lat":-0.733333,"lon":127.166667,"elevationM":null},{"id":"node:1070180064","kind":"peak","name":"Buku Cengo","lat":-0.333333,"lon":127.833333,"elevationM":null},{"id":"node:1070181133","kind":"peak","name":"Buku Dufadufa","lat":-0.466667,"lon":127.15,"elevationM":null},{"id":"node:1070181360","kind":"peak","name":"Buku Wayakuba","lat":-0.816667,"lon":127.85,"elevationM":null},{"id":"node:1070181422","kind":"peak","name":"Buku Airpanas","lat":-0.8,"lon":127.666667,"elevationM":null},{"id":"node:1070182660","kind":"peak","name":"Buku Batudulang","lat":-0.533333,"lon":127.383333,"elevationM":null},{"id":"node:1070184307","kind":"peak","name":"Buku Guguse","lat":-0.583333,"lon":127.433333,"elevationM":null},{"id":"node:1070186123","kind":"peak","name":"Buku Jere","lat":-0.766667,"lon":127.666667,"elevationM":null},{"id":"node:1070186150","kind":"peak","name":"Buku Raroang","lat":-0.516667,"lon":127.616667,"elevationM":null},{"id":"node:1070186441","kind":"peak","name":"Buku Uwatcain","lat":-0.283333,"lon":127.766667,"elevationM":null},{"id":"node:1070186684","kind":"peak","name":"Buku Inggoi","lat":-0.6,"lon":127.516667,"elevationM":null},{"id":"node:1070187289","kind":"peak","name":"Buku Liaro","lat":-0.866667,"lon":127.8,"elevationM":null},{"id":"node:1070187332","kind":"peak","name":"Buku Indari","lat":-0.466667,"lon":127.316667,"elevationM":null},{"id":"node:1070187568","kind":"peak","name":"Buku Lansa","lat":-0.733333,"lon":127.65,"elevationM":null},{"id":"node:1070187619","kind":"peak","name":"Bintik Berbentuk Batu Gundul","lat":-0.433333,"lon":127.266667,"elevationM":null},{"id":"node:1070188278","kind":"peak","name":"Buku Bosoboso","lat":-0.833333,"lon":127.666667,"elevationM":null},{"id":"node:1070189504","kind":"peak","name":"Buku Parapara","lat":-0.566667,"lon":127.433333,"elevationM":null},{"id":"node:1070190184","kind":"peak","name":"Buku Tawa","lat":-0.4,"lon":127.5,"elevationM":null},{"id":"node:1070190202","kind":"peak","name":"Buku Jikolamo","lat":-0.866667,"lon":127.7,"elevationM":null},{"id":"node:1070191371","kind":"peak","name":"Buku Genem","lat":-0.666667,"lon":127.6,"elevationM":null},{"id":"node:1070191464","kind":"peak","name":"Gunung Marigandum","lat":-0.4,"lon":127.883333,"elevationM":null},{"id":"node:1070191598","kind":"peak","name":"Bukuo Racaksela","lat":-0.5,"lon":127.366667,"elevationM":null},{"id":"node:1070192365","kind":"peak","name":"Buku Suanggi","lat":-0.6,"lon":127.566667,"elevationM":null},{"id":"node:1070192571","kind":"peak","name":"Buku Bibinoi","lat":-0.783333,"lon":127.716667,"elevationM":null},{"id":"node:1070194087","kind":"peak","name":"Buku Kabau","lat":-0.366667,"lon":127.166667,"elevationM":null},{"id":"node:1070195191","kind":"peak","name":"Buku Topa","lat":-0.35,"lon":127.35,"elevationM":null},{"id":"node:3891185609","kind":"volcano","name":"Amasing","lat":-0.53,"lon":127.48,"elevationM":null},{"id":"node:3891185619","kind":"volcano","name":"Bibinoi","lat":-0.77,"lon":127.72,"elevationM":null},{"id":"node:5819827218","kind":"volcano","name":"Buku Sibela","lat":-0.7370252,"lon":127.5243634,"elevationM":2111},{"id":"node:5819827219","kind":"peak","name":"Buku Rica","lat":-0.4921516,"lon":127.6118574,"elevationM":1127}]}