{"tileKey":"la_m36_lo_p139","version":"v1-1775891056926","entries":[{"id":"node:3008902093","kind":"peak","name":"Crotty Knob","lat":-35.76139,"lon":139.72129,"elevationM":null},{"id":"node:3008902109","kind":"peak","name":"Disher Hill","lat":-35.05427,"lon":139.06845,"elevationM":275},{"id":"node:3008902256","kind":"peak","name":"Gifford Hill","lat":-35.15237,"lon":139.21696,"elevationM":159},{"id":"node:3008902290","kind":"peak","name":"Harriott Hill","lat":-35.22746,"lon":139.08484,"elevationM":116},{"id":"node:3008902329","kind":"peak","name":"Jacks Hill","lat":-35.55977,"lon":139.61058,"elevationM":101},{"id":"node:3008902453","kind":"peak","name":"Ki Ki Hill","lat":-35.59124,"lon":139.84762,"elevationM":73},{"id":"node:3008902500","kind":"peak","name":"Mason Lookout","lat":-35.48602,"lon":139.44249,"elevationM":null},{"id":"node:3008902503","kind":"peak","name":"McDougall Hill","lat":-35.47877,"lon":139.36044,"elevationM":8},{"id":"node:3008902509","kind":"peak","name":"Meningie Hill","lat":-35.67713,"lon":139.4014,"elevationM":32},{"id":"node:3008902536","kind":"peak","name":"Mount Anderson","lat":-35.8119,"lon":139.29119,"elevationM":null},{"id":"node:3008902540","kind":"peak","name":"Mount Barlas","lat":-35.77697,"lon":139.39137,"elevationM":32},{"id":"node:3008902548","kind":"peak","name":"Mount Boothby","lat":-35.85698,"lon":139.76896,"elevationM":129},{"id":"node:3008902690","kind":"peak","name":"Mount Murray","lat":-35.88096,"lon":139.37224,"elevationM":30},{"id":"node:3008902693","kind":"peak","name":"Mount Mysery","lat":-35.52539,"lon":139.35728,"elevationM":null},{"id":"node:3008902728","kind":"peak","name":"Mount Russell","lat":-35.42343,"lon":139.71605,"elevationM":null},{"id":"node:3008902731","kind":"peak","name":"Mount Sandy","lat":-35.73063,"lon":139.31019,"elevationM":38},{"id":"node:3008902873","kind":"peak","name":"Mt Hannah","lat":-35.47455,"lon":139.65593,"elevationM":null},{"id":"node:3008903110","kind":"peak","name":"Round Hill","lat":-35.82549,"lon":139.38463,"elevationM":28},{"id":"node:3008903119","kind":"peak","name":"Sandy Point","lat":-35.59978,"lon":139.51303,"elevationM":51},{"id":"node:3008903567","kind":"peak","name":"Square Sand Hill","lat":-35.68422,"lon":139.12001,"elevationM":null},{"id":"node:3008903619","kind":"peak","name":"The Monolith","lat":-35.90599,"lon":139.83734,"elevationM":null},{"id":"node:3008903655","kind":"peak","name":"Two Sisters","lat":-35.5065,"lon":139.57704,"elevationM":79},{"id":"node:3008903690","kind":"peak","name":"Weerimbrook Hill","lat":-35.49993,"lon":139.62701,"elevationM":89}]}