{"tileKey":"la_m34_lo_p23","version":"v1-1775891056926","entries":[{"id":"node:345446969","kind":"peak","name":"Haarlempiek","lat":-33.7622343,"lon":23.3461594,"elevationM":1322},{"id":"node:345446998","kind":"peak","name":"Lotteringpieke","lat":-33.9194444,"lon":23.6783333,"elevationM":862},{"id":"node:345447035","kind":"peak","name":"Stormsrivierpiek","lat":-33.9480556,"lon":23.8930556,"elevationM":1017},{"id":"node:345447069","kind":"peak","name":"Thumb Peak","lat":-33.8411111,"lon":23.6202778,"elevationM":1424},{"id":"node:773000034","kind":"peak","name":"Suurberg","lat":-33.3608227,"lon":23.4090129,"elevationM":1124},{"id":"node:773004056","kind":"peak","name":"Leeukop","lat":-33.9525795,"lon":23.9627712,"elevationM":989},{"id":"node:773004062","kind":"peak","name":"Grasnekkop","lat":-33.9509796,"lon":23.9936784,"elevationM":1137},{"id":"node:2619374365","kind":"peak","name":"Rondekop","lat":-33.7949264,"lon":23.1261795,"elevationM":null},{"id":"node:6147062281","kind":"peak","name":"Witberg","lat":-33.0622893,"lon":23.7179598,"elevationM":1560},{"id":"node:6147068646","kind":"peak","name":"Formosa Peak","lat":-33.8643661,"lon":23.7027674,"elevationM":1675},{"id":"node:6147189576","kind":"peak","name":"Smutsberg","lat":-33.6386766,"lon":23.8021738,"elevationM":1758},{"id":"node:6147315424","kind":"peak","name":"Goedgegund","lat":-33.7926833,"lon":23.3950193,"elevationM":1618},{"id":"node:6147319498","kind":"peak","name":"Niekerksberg","lat":-33.7759658,"lon":23.4146886,"elevationM":1595},{"id":"node:6147451889","kind":"peak","name":"Zwartberg","lat":-33.4132194,"lon":23.015234,"elevationM":1629},{"id":"node:6147523944","kind":"peak","name":"Antoniesberg","lat":-33.4480389,"lon":23.4676415,"elevationM":1720},{"id":"node:6149412833","kind":"peak","name":"Hoopsberg","lat":-33.6564299,"lon":23.2860207,"elevationM":1705},{"id":"node:6149598524","kind":"peak","name":"Aasvoëlberg","lat":-33.2349264,"lon":23.4592322,"elevationM":1409},{"id":"node:6151111778","kind":"peak","name":"Kouga Bronnen","lat":-33.621248,"lon":23.5314378,"elevationM":1714},{"id":"node:6250429655","kind":"peak","name":"Platboshoogte","lat":-33.8633,"lon":23.0842,"elevationM":955},{"id":"node:6250429900","kind":"peak","name":"Hoëkop","lat":-33.8617,"lon":23.7767,"elevationM":1475},{"id":"node:6250429913","kind":"peak","name":"Trompettersberg","lat":-33.1767,"lon":23.565,"elevationM":1114},{"id":"node:6250429918","kind":"peak","name":"Resbosrant","lat":-33.3883,"lon":23.2967,"elevationM":1417},{"id":"node:6250429930","kind":"peak","name":"Grenadier's Cap","lat":-33.9225,"lon":23.7117,"elevationM":947},{"id":"node:6253198974","kind":"peak","name":"Klein-Spitskop","lat":-33.1783,"lon":23.5192,"elevationM":1153},{"id":"node:6253198976","kind":"peak","name":"Witberg","lat":-33.365,"lon":23.5242,"elevationM":1339},{"id":"node:6253199010","kind":"peak","name":"Nartjieskloofberg","lat":-33.5933,"lon":23.3733,"elevationM":1414},{"id":"node:6253199013","kind":"peak","name":"Witberg","lat":-33.6083,"lon":23.1883,"elevationM":1201},{"id":"node:6253199017","kind":"peak","name":"George Kop","lat":-33.7842,"lon":23.1875,"elevationM":1058},{"id":"node:6253199019","kind":"peak","name":"Gatberg","lat":-33.7517,"lon":23.0667,"elevationM":1207},{"id":"node:6253199022","kind":"peak","name":"Kleinrivierberg","lat":-33.6617,"lon":23.1975,"elevationM":1418},{"id":"node:6253199026","kind":"peak","name":"Dwaasberg","lat":-33.5408,"lon":23.4008,"elevationM":1258},{"id":"node:6253199028","kind":"peak","name":"Skrikrivierberg","lat":-33.715,"lon":23.9867,"elevationM":1296},{"id":"node:6253199035","kind":"peak","name":"Saptou Kop","lat":-33.645,"lon":23.5367,"elevationM":1673},{"id":"node:6255272188","kind":"peak","name":"Losberg","lat":-33.0708,"lon":23.48,"elevationM":940},{"id":"node:6255272196","kind":"peak","name":"Bezuidenhoutsberg","lat":-33.4667,"lon":23.84,"elevationM":1604},{"id":"node:6255272274","kind":"peak","name":"Spitskop","lat":-33.9008,"lon":23.4,"elevationM":613},{"id":"node:6255272281","kind":"peak","name":"Jonkersberg","lat":-33.935,"lon":23.0983,"elevationM":859},{"id":"node:6255272295","kind":"peak","name":"Benekop","lat":-33.8917,"lon":23.7025,"elevationM":1161},{"id":"node:6255272297","kind":"peak","name":"Spitskop","lat":-33.8767,"lon":23.7467,"elevationM":1367},{"id":"node:6255272301","kind":"peak","name":"Suurberg","lat":-33.8417,"lon":23.6975,"elevationM":1354},{"id":"node:6905170922","kind":"peak","name":"Bosberg","lat":-33.8056121,"lon":23.0552148,"elevationM":1059},{"id":"node:6905170923","kind":"peak","name":"Gert Sass se Berg","lat":-33.801636,"lon":23.0224704,"elevationM":1038},{"id":"node:6905744981","kind":"peak","name":"Weskutsberg","lat":-33.6654812,"lon":23.2276093,"elevationM":1440},{"id":"node:6905770186","kind":"peak","name":"Bloukop","lat":-33.6183867,"lon":23.4079273,"elevationM":1519},{"id":"node:6905806871","kind":"peak","name":"Slypsteenberg","lat":-33.3798956,"lon":23.2101943,"elevationM":1394},{"id":"node:6905806874","kind":"peak","name":"Witrant","lat":-33.3655006,"lon":23.2041662,"elevationM":922},{"id":"node:6905806875","kind":"peak","name":"Kasrant","lat":-33.3673002,"lon":23.1924608,"elevationM":946},{"id":"node:7311172088","kind":"peak","name":"Ouberg","lat":-33.7717865,"lon":23.8943383,"elevationM":679},{"id":"node:7312082101","kind":"peak","name":"Sappers' Hill","lat":-33.9913234,"lon":23.4823689,"elevationM":217},{"id":"node:7598924721","kind":"peak","name":"Sepreekop","lat":-33.6514954,"lon":23.5565195,"elevationM":null},{"id":"node:7784338421","kind":"peak","name":"Witberg","lat":-33.8949991,"lon":23.5124881,"elevationM":1134},{"id":"node:7784338423","kind":"peak","name":"Sinterklaasneus","lat":-33.9133264,"lon":23.5224881,"elevationM":886},{"id":"node:7784338427","kind":"peak","name":"Malvarug","lat":-33.8921213,"lon":23.3678876,"elevationM":515},{"id":"node:7784338433","kind":"peak","name":"Douwurmkop","lat":-33.9735622,"lon":23.5739382,"elevationM":null},{"id":"node:7784338434","kind":"peak","name":"Die Toring","lat":-33.9122971,"lon":23.3239794,"elevationM":235},{"id":"node:7784338435","kind":"peak","name":"Christiaanskop","lat":-33.9505162,"lon":23.4472008,"elevationM":225},{"id":"node:7784338437","kind":"peak","name":"Boom se Berg","lat":-33.7957422,"lon":23.5166238,"elevationM":1245},{"id":"node:7784338438","kind":"peak","name":"Bloukrans","lat":-33.9214209,"lon":23.6167084,"elevationM":749},{"id":"node:7784338439","kind":"peak","name":"Bakenkop","lat":-33.9235941,"lon":23.6649946,"elevationM":783}]}