{"tileKey":"la_m42_lo_p147","version":"v1-1775891056926","entries":[{"id":"node:329963298","kind":"peak","name":"Brown Mountain","lat":-41.2857548,"lon":147.1481828,"elevationM":null},{"id":"node:1796961655","kind":"peak","name":"Mount Victoria","lat":-41.332993,"lon":147.8406169,"elevationM":1213},{"id":"node:1969405216","kind":"peak","name":"Deadmans Knob","lat":-41.4624712,"lon":147.1047259,"elevationM":null},{"id":"node:2360043363","kind":"peak","name":"Circinus Peaks","lat":-41.52431,"lon":147.60493,"elevationM":1469},{"id":"node:2360049181","kind":"peak","name":"Coalmine Crag","lat":-41.54598,"lon":147.64493,"elevationM":1486},{"id":"node:2360049182","kind":"peak","name":"Giblin Peak","lat":-41.53444,"lon":147.65615,"elevationM":1569},{"id":"node:2360049580","kind":"peak","name":"Hamilton Crags","lat":-41.52802,"lon":147.6755,"elevationM":1540},{"id":"node:2360064004","kind":"peak","name":"Legges Tor","lat":-41.53204,"lon":147.65834,"elevationM":1572},{"id":"node:2360116936","kind":"peak","name":"Markham Heights","lat":-41.51298,"lon":147.65108,"elevationM":1542},{"id":"node:2360116944","kind":"peak","name":"Misery Bluff","lat":-41.51492,"lon":147.64343,"elevationM":1510},{"id":"node:2360118748","kind":"peak","name":"Old Bills Monument","lat":-41.51854,"lon":147.62417,"elevationM":1480},{"id":"node:2360118752","kind":"peak","name":"Stein Crags","lat":-41.52842,"lon":147.59454,"elevationM":1350},{"id":"node:2360129733","kind":"peak","name":"Whymper Crag","lat":-41.51324,"lon":147.6693,"elevationM":1442},{"id":"node:2360132756","kind":"peak","name":"Bent Bluff","lat":-41.60656,"lon":147.74839,"elevationM":1340},{"id":"node:2360132757","kind":"peak","name":"Broken Bluff","lat":-41.60047,"lon":147.75,"elevationM":1340},{"id":"node:2360133706","kind":"peak","name":"Byatts Razorback","lat":-41.57327,"lon":147.81523,"elevationM":1018},{"id":"node:2360143931","kind":"peak","name":"The Knuckle","lat":-41.60406,"lon":147.73846,"elevationM":1400},{"id":"node:2360149341","kind":"peak","name":"Pavement Bluff","lat":-41.59652,"lon":147.74833,"elevationM":1330},{"id":"node:2360159795","kind":"peak","name":"Sphinx Bluff","lat":-41.61252,"lon":147.73921,"elevationM":1369},{"id":"node:2360170061","kind":"peak","name":"Storys Bluff","lat":-41.60974,"lon":147.72232,"elevationM":1380},{"id":"node:2360178771","kind":"peak","name":"Tower Hill (East Tower)","lat":-41.54751,"lon":147.85334,"elevationM":1122},{"id":"node:2360180166","kind":"peak","name":"Tower Hill (West Tower)","lat":-41.5409,"lon":147.83263,"elevationM":1110},{"id":"node:2360181086","kind":"peak","name":"Three O'Clock Hill","lat":-41.58976,"lon":147.80218,"elevationM":960},{"id":"node:2362599350","kind":"peak","name":"Asgard Crag","lat":-41.61357,"lon":147.67105,"elevationM":1390},{"id":"node:2362599351","kind":"peak","name":"Denison Crag","lat":-41.61921,"lon":147.69926,"elevationM":1458},{"id":"node:2362599432","kind":"peak","name":"Dogshead Crag","lat":-41.60808,"lon":147.62119,"elevationM":1070},{"id":"node:2362599433","kind":"peak","name":"Heimdall Crag","lat":-41.61069,"lon":147.65482,"elevationM":1380},{"id":"node:2362600053","kind":"peak","name":"Magnet Crag","lat":-41.55512,"lon":147.63028,"elevationM":1464},{"id":"node:2362600054","kind":"peak","name":"Mensa Moor","lat":-41.5832,"lon":147.64273,"elevationM":1365},{"id":"node:2362600528","kind":"peak","name":"Ossians Throne","lat":-41.55174,"lon":147.69176,"elevationM":1498},{"id":"node:2362600529","kind":"peak","name":"Ragged Jack","lat":-41.55481,"lon":147.58566,"elevationM":1369},{"id":"node:2362600530","kind":"peak","name":"Stacks Bluff","lat":-41.6261112,"lon":147.6883382,"elevationM":1528},{"id":"node:2362601304","kind":"peak","name":"Fishers Tier","lat":-41.6114,"lon":147.57285,"elevationM":998},{"id":"node:2362601305","kind":"peak","name":"Wilmot Bluff","lat":-41.61965,"lon":147.68552,"elevationM":1480},{"id":"node:2362601420","kind":"peak","name":"Midday Hill","lat":-41.62767,"lon":147.57876,"elevationM":947},{"id":"node:2362782753","kind":"peak","name":"Ben Nevis","lat":-41.409747,"lon":147.6261095,"elevationM":1368},{"id":"node:2362996807","kind":"peak","name":"Mount Albert","lat":-41.34889,"lon":147.87184,"elevationM":1120},{"id":"node:2363005664","kind":"peak","name":"Edwards Peak","lat":-41.35261,"lon":147.90936,"elevationM":740},{"id":"node:2363007461","kind":"peak","name":"Mount Young","lat":-41.36024,"lon":147.95723,"elevationM":894},{"id":"node:2363010587","kind":"peak","name":"Mount Blackboy","lat":-41.40167,"lon":147.87804,"elevationM":882},{"id":"node:2363010588","kind":"peak","name":"Mount Saddleback","lat":-41.3980441,"lon":147.7603648,"elevationM":1256},{"id":"node:2368129842","kind":"peak","name":"Henrys Bluff","lat":-41.93906,"lon":147.13993,"elevationM":1040},{"id":"node:2368129843","kind":"peak","name":"Millers Bluff","lat":-41.93542,"lon":147.17273,"elevationM":1211},{"id":"node:2368129844","kind":"peak","name":"Molly Yorks Nightcap","lat":-41.96889,"lon":147.19105,"elevationM":1110},{"id":"node:2368129845","kind":"peak","name":"Parson and Clerk Mountain","lat":-41.91914,"lon":147.04812,"elevationM":1210},{"id":"node:2368129846","kind":"peak","name":"Snowy Knob","lat":-41.94653,"lon":147.01255,"elevationM":1095},{"id":"node:2368129847","kind":"peak","name":"Stevensons Lookout","lat":-41.96978,"lon":147.13397,"elevationM":1045},{"id":"node:2402131352","kind":"peak","name":"Cowies Bluff","lat":-41.76433,"lon":147.9427,"elevationM":826},{"id":"node:2402131355","kind":"peak","name":"Mount Foster","lat":-41.73316,"lon":147.88705,"elevationM":1012},{"id":"node:2402131357","kind":"peak","name":"Mount Rex","lat":-41.70595,"lon":147.67598,"elevationM":800},{"id":"node:2402131359","kind":"peak","name":"Mount Slaughter","lat":-41.7602,"lon":147.9181,"elevationM":834},{"id":"node:2402131360","kind":"peak","name":"Mount St Peter","lat":-41.77507,"lon":147.8105,"elevationM":780},{"id":"node:2402131361","kind":"peak","name":"St Pauls Dome","lat":-41.76832,"lon":147.8343,"elevationM":1027},{"id":"node:2407546513","kind":"peak","name":"Mount Arthur","lat":-41.2776661,"lon":147.2897417,"elevationM":1188},{"id":"node:2408666514","kind":"peak","name":"Mount Barrow","lat":-41.376244,"lon":147.4180724,"elevationM":1414},{"id":"node:2408666515","kind":"peak","name":"Mount Edgecombe","lat":-41.38632,"lon":147.27437,"elevationM":475},{"id":"node:2408666516","kind":"peak","name":"South Barrow","lat":-41.3915429,"lon":147.4273843,"elevationM":1381},{"id":"node:2410682867","kind":"peak","name":"Mount Maurice","lat":-41.30516,"lon":147.58707,"elevationM":1121},{"id":"node:2425008206","kind":"peak","name":"Mount Henry","lat":-41.83978,"lon":147.99421,"elevationM":675},{"id":"node:2490517420","kind":"peak","name":"String Bark Tier","lat":-41.53737,"lon":147.39873,"elevationM":780},{"id":"node:2521784195","kind":"peak","name":"Cuckoo Hill","lat":-41.23716,"lon":147.63724,"elevationM":733},{"id":"node:2521784197","kind":"peak","name":"Mount Helen","lat":-41.26889,"lon":147.52496,"elevationM":690},{"id":"node:2521784198","kind":"peak","name":"Peddles Hill","lat":-41.25121,"lon":147.66948,"elevationM":690},{"id":"node:2531571663","kind":"peak","name":"Snow Hill","lat":-41.91624,"lon":147.83622,"elevationM":971},{"id":"node:3008756400","kind":"peak","name":"Adams Hill","lat":-41.55295,"lon":147.52332,"elevationM":null},{"id":"node:3008756410","kind":"peak","name":"Badger Hill","lat":-41.10215,"lon":147.4775,"elevationM":null},{"id":"node:3008756412","kind":"peak","name":"Ballroom Hill","lat":-41.51061,"lon":147.4094,"elevationM":null},{"id":"node:3008756416","kind":"peak","name":"Barra Barra","lat":-41.97786,"lon":147.23974,"elevationM":450},{"id":"node:3008756427","kind":"peak","name":"Bells Hill","lat":-41.22325,"lon":147.82964,"elevationM":null},{"id":"node:3008756430","kind":"peak","name":"Ben Stewart","lat":-41.76567,"lon":147.58459,"elevationM":null},{"id":"node:3008756432","kind":"peak","name":"Bendover Hill","lat":-41.29185,"lon":147.92661,"elevationM":790},{"id":"node:3008759536","kind":"peak","name":"Big Boomer","lat":-41.4087797,"lon":147.2326672,"elevationM":431},{"id":"node:3008759547","kind":"peak","name":"Big Sugarloaf","lat":-41.93444,"lon":147.21403,"elevationM":null},{"id":"node:3008759564","kind":"peak","name":"Blumont","lat":-41.18872,"lon":147.40726,"elevationM":null},{"id":"node:3008759566","kind":"peak","name":"Bomford Crag","lat":-41.70378,"lon":147.62205,"elevationM":null},{"id":"node:3008759567","kind":"peak","name":"Bonners Hill","lat":-41.26144,"lon":147.48793,"elevationM":647},{"id":"node:3008759569","kind":"peak","name":"Bostock Hill","lat":-41.77752,"lon":147.42339,"elevationM":303},{"id":"node:3008759585","kind":"peak","name":"Browns Hill","lat":-41.27342,"lon":147.20078,"elevationM":547},{"id":"node:3008759586","kind":"peak","name":"Bucklands Hill","lat":-41.58655,"lon":147.86198,"elevationM":null},{"id":"node:3008759590","kind":"peak","name":"Burburys Sugarloaf","lat":-41.99499,"lon":147.39167,"elevationM":null},{"id":"node:3008759593","kind":"peak","name":"Burnt Hill","lat":-41.89635,"lon":147.79652,"elevationM":null},{"id":"node:3008759596","kind":"peak","name":"Campbell Town Mountain","lat":-41.88155,"lon":147.63724,"elevationM":null},{"id":"node:3008759597","kind":"peak","name":"Campbells Hill","lat":-41.88908,"lon":147.81962,"elevationM":null},{"id":"node:3008759602","kind":"peak","name":"Castle Cary","lat":-41.72866,"lon":147.71611,"elevationM":null},{"id":"node:3008759603","kind":"peak","name":"Castle Hill","lat":-41.52257,"lon":147.48528,"elevationM":699},{"id":"node:3008759621","kind":"peak","name":"Cocked Hat Hill","lat":-41.517968,"lon":147.1942684,"elevationM":221},{"id":"node:3008759631","kind":"peak","name":"Coxs Hill","lat":-41.51185,"lon":147.46056,"elevationM":null},{"id":"node:3008759642","kind":"peak","name":"Den Hill","lat":-41.8571,"lon":147.64186,"elevationM":null},{"id":"node:3008759649","kind":"peak","name":"Diabobble Hill","lat":-41.51339,"lon":147.3658,"elevationM":null},{"id":"node:3008759650","kind":"peak","name":"Dido Hill","lat":-41.3861279,"lon":147.2253474,"elevationM":444},{"id":"node:3008759652","kind":"peak","name":"Doctor Levers Head","lat":-41.87673,"lon":147.73859,"elevationM":null},{"id":"node:3008759663","kind":"peak","name":"Duncraggen Hill","lat":-41.06707,"lon":147.40329,"elevationM":null},{"id":"node:3008759670","kind":"peak","name":"Emu Hill","lat":-41.16168,"lon":147.95371,"elevationM":null},{"id":"node:3008759671","kind":"peak","name":"Ewe Run Hill","lat":-41.85275,"lon":147.5852,"elevationM":null},{"id":"node:3008759677","kind":"peak","name":"Flat Top","lat":-41.46739,"lon":147.2633,"elevationM":null},{"id":"node:3008759679","kind":"peak","name":"Foons Hill","lat":-41.40037,"lon":147.34605,"elevationM":905},{"id":"node:3008759680","kind":"peak","name":"Fordon Bluff","lat":-41.65475,"lon":147.44401,"elevationM":null},{"id":"node:3008759683","kind":"peak","name":"Frome Hill","lat":-41.13973,"lon":147.93587,"elevationM":569},{"id":"node:3008759684","kind":"peak","name":"Front Rocky Hill","lat":-41.88017,"lon":147.56939,"elevationM":null},{"id":"node:3008759688","kind":"peak","name":"Gaunts Hill","lat":-41.30594,"lon":147.01197,"elevationM":143},{"id":"node:3008759691","kind":"peak","name":"Gelignite Hill","lat":-41.61632,"lon":147.42087,"elevationM":null},{"id":"node:3008759693","kind":"peak","name":"Gibbet Hill","lat":-41.55883,"lon":147.17356,"elevationM":null},{"id":"node:3008759694","kind":"peak","name":"Gibsons Hill","lat":-41.90185,"lon":147.73928,"elevationM":null},{"id":"node:3008759716","kind":"peak","name":"Hampden Bluff","lat":-41.64076,"lon":147.43986,"elevationM":null},{"id":"node:3008759718","kind":"peak","name":"Hardmans Hill","lat":-41.11555,"lon":147.78096,"elevationM":310},{"id":"node:3008760036","kind":"peak","name":"Hogg Hill","lat":-41.68001,"lon":147.94691,"elevationM":null},{"id":"node:3008760049","kind":"peak","name":"Island Hill","lat":-41.98217,"lon":147.77185,"elevationM":null},{"id":"node:3008760052","kind":"peak","name":"Jacobs Ladder","lat":-41.51319,"lon":147.65417,"elevationM":null},{"id":"node:3008760053","kind":"peak","name":"Jacobs Sugarloaf","lat":-41.94255,"lon":147.30879,"elevationM":610},{"id":"node:3008760062","kind":"peak","name":"Kearneys Hill","lat":-41.91374,"lon":147.62278,"elevationM":null},{"id":"node:3008760076","kind":"peak","name":"Lewis Hill","lat":-41.86923,"lon":147.93627,"elevationM":null},{"id":"node:3008760078","kind":"peak","name":"Little Billopp","lat":-41.82374,"lon":147.03249,"elevationM":null},{"id":"node:3008760082","kind":"peak","name":"Little Mount Horror","lat":-41.00822,"lon":147.81075,"elevationM":289},{"id":"node:3008760083","kind":"peak","name":"Little Sugarloaf","lat":-41.95125,"lon":147.23189,"elevationM":null},{"id":"node:3008760089","kind":"peak","name":"Longford East Base","lat":-41.6523651,"lon":147.0961858,"elevationM":171},{"id":"node:3008760093","kind":"peak","name":"Lowes Mount","lat":-41.57835,"lon":147.39632,"elevationM":null},{"id":"node:3008760103","kind":"peak","name":"MacLanachan Sugarloaf","lat":-41.9383,"lon":147.11393,"elevationM":650},{"id":"node:3008760106","kind":"peak","name":"Massey Hill","lat":-41.71381,"lon":147.52431,"elevationM":497},{"id":"node:3008760127","kind":"peak","name":"Mount Arnon","lat":-41.5191538,"lon":147.1110514,"elevationM":315},{"id":"node:3008760129","kind":"peak","name":"Mount Augusta","lat":-41.98315,"lon":147.49674,"elevationM":328},{"id":"node:3008760348","kind":"peak","name":"Mount Christie","lat":-41.74287,"lon":147.67352,"elevationM":null},{"id":"node:3008760349","kind":"peak","name":"Mount Clara","lat":-41.65952,"lon":147.85691,"elevationM":null},{"id":"node:3008760357","kind":"peak","name":"Mount Direction","lat":-41.24125,"lon":147.03311,"elevationM":368},{"id":"node:3008760360","kind":"peak","name":"Mount Dismal","lat":-41.24477,"lon":147.10327,"elevationM":null},{"id":"node:3008760367","kind":"peak","name":"Mount Edgecombe","lat":-41.6738,"lon":147.93519,"elevationM":null},{"id":"node:3008760385","kind":"peak","name":"Mount Horror","lat":-41.0670421,"lon":147.7337685,"elevationM":675},{"id":"node:3008760395","kind":"peak","name":"Mount Kingstone","lat":-41.89089,"lon":147.18522,"elevationM":null},{"id":"node:3008760404","kind":"peak","name":"Mount Littlechild","lat":-41.20332,"lon":147.97342,"elevationM":890},{"id":"node:3008760410","kind":"peak","name":"Mount Malcolm","lat":-41.67248,"lon":147.99841,"elevationM":null},{"id":"node:3008760428","kind":"peak","name":"Mount Paris","lat":-41.21152,"lon":147.77659,"elevationM":627},{"id":"node:3008760452","kind":"peak","name":"Mount Stronach","lat":-41.17403,"lon":147.56579,"elevationM":497},{"id":"node:3008760461","kind":"peak","name":"Mount Wilson","lat":-41.17416,"lon":147.2851,"elevationM":null},{"id":"node:3008760479","kind":"peak","name":"O'COnnOrs Peak","lat":-41.85985,"lon":147.0943,"elevationM":615},{"id":"node:3008760480","kind":"peak","name":"Oakmount","lat":-41.55497,"lon":147.1408,"elevationM":272},{"id":"node:3008760484","kind":"peak","name":"Olivers Hill","lat":-41.30057,"lon":147.74999,"elevationM":756},{"id":"node:3008760493","kind":"peak","name":"Peacock Hill","lat":-41.84854,"lon":147.56127,"elevationM":null},{"id":"node:3008760500","kind":"peak","name":"Peppermint Hill","lat":-41.52286,"lon":147.74019,"elevationM":null},{"id":"node:3008760508","kind":"peak","name":"Pinchgut Hill","lat":-41.54591,"lon":147.46385,"elevationM":null},{"id":"node:3008760516","kind":"peak","name":"Pratts Hill","lat":-41.77849,"lon":147.97326,"elevationM":null},{"id":"node:3008760524","kind":"peak","name":"Rattler Hill","lat":-41.23327,"lon":147.87334,"elevationM":915},{"id":"node:3008760528","kind":"peak","name":"Red Rock","lat":-41.79803,"lon":147.97325,"elevationM":null},{"id":"node:3008760532","kind":"peak","name":"River Hill","lat":-41.58538,"lon":147.50642,"elevationM":690},{"id":"node:3008760636","kind":"peak","name":"Robins Lawn Hill","lat":-41.84876,"lon":147.82624,"elevationM":null},{"id":"node:3008760638","kind":"peak","name":"Rose Brae","lat":-41.93428,"lon":147.65893,"elevationM":null},{"id":"node:3008760645","kind":"peak","name":"Saddle Hill","lat":-41.95813,"lon":147.29225,"elevationM":null},{"id":"node:3008760662","kind":"peak","name":"Skyline Tor","lat":-41.30985,"lon":147.28238,"elevationM":null},{"id":"node:3008760677","kind":"peak","name":"Stag Hill","lat":-41.89482,"lon":147.76516,"elevationM":null},{"id":"node:3008760691","kind":"peak","name":"Stromboli","lat":-41.50047,"lon":147.33652,"elevationM":null},{"id":"node:3008760692","kind":"peak","name":"Strongs Battery","lat":-41.93307,"lon":147.35506,"elevationM":null},{"id":"node:3008760705","kind":"peak","name":"Teatree Hill","lat":-41.96717,"lon":147.74243,"elevationM":null},{"id":"node:3008760706","kind":"peak","name":"Temple Bar","lat":-41.54297,"lon":147.38067,"elevationM":716},{"id":"node:3008760715","kind":"peak","name":"The Pinnacles","lat":-41.9681,"lon":147.61878,"elevationM":659},{"id":"node:3008760718","kind":"peak","name":"The Retreat","lat":-41.67276,"lon":147.45844,"elevationM":null},{"id":"node:3008760726","kind":"peak","name":"Threshermans Hill","lat":-41.93953,"lon":147.0808,"elevationM":null},{"id":"node:3008760731","kind":"peak","name":"Trig Hill","lat":-41.03854,"lon":147.70252,"elevationM":null},{"id":"node:3008760933","kind":"peak","name":"Turners Hill","lat":-41.76574,"lon":147.66659,"elevationM":null},{"id":"node:3008760934","kind":"peak","name":"Turquoise Bluff","lat":-41.0441973,"lon":147.0584832,"elevationM":167},{"id":"node:3008760939","kind":"peak","name":"Union Jack","lat":-41.60109,"lon":147.8971,"elevationM":null},{"id":"node:3008760946","kind":"peak","name":"Wagners Hill","lat":-41.07481,"lon":147.85924,"elevationM":null},{"id":"node:3008760947","kind":"peak","name":"Wanstead Hill","lat":-41.86195,"lon":147.43773,"elevationM":null},{"id":"node:3008760956","kind":"peak","name":"Weld Hill","lat":-41.16435,"lon":147.88732,"elevationM":562},{"id":"node:3008760964","kind":"peak","name":"White Rock Bluff","lat":-41.85922,"lon":147.91494,"elevationM":null},{"id":"node:3008760967","kind":"peak","name":"Whittles Hill","lat":-41.41431,"lon":147.47693,"elevationM":null},{"id":"node:3008760973","kind":"peak","name":"Williams Hill","lat":-41.052453,"lon":147.6595372,"elevationM":382},{"id":"node:3008760987","kind":"peak","name":"Youls Sugarloaf","lat":-41.47846,"lon":147.61535,"elevationM":null},{"id":"node:3642845552","kind":"peak","name":"Eagle Hill","lat":-41.9933352,"lon":147.4439464,"elevationM":null},{"id":"node:4290201297","kind":"peak","name":"Batmans Lookout","lat":-41.65386,"lon":147.62722,"elevationM":null},{"id":"node:7182732366","kind":"peak","name":"Rajah Rock","lat":-41.7437689,"lon":147.7597329,"elevationM":null},{"id":"node:7373624263","kind":"peak","name":"Abels Hill","lat":-41.451408,"lon":147.2153324,"elevationM":null},{"id":"node:7921740389","kind":"peak","name":"Greys Hill","lat":-41.1857295,"lon":147.7680311,"elevationM":588},{"id":"node:7921740390","kind":"peak","name":"Murrays Lookout","lat":-41.1763969,"lon":147.8098601,"elevationM":552},{"id":"node:9163727529","kind":"peak","name":"Mutual Hill","lat":-41.1447617,"lon":147.8408437,"elevationM":null},{"id":"node:12550956496","kind":"peak","name":"Mount Scott","lat":-41.3017329,"lon":147.5178426,"elevationM":984},{"id":"node:13061212405","kind":"peak","name":"Landfall Hill","lat":-41.3576622,"lon":147.1019409,"elevationM":78},{"id":"node:13061212406","kind":"peak","name":"Rocherlea Hill","lat":-41.3594021,"lon":147.1238704,"elevationM":204},{"id":"node:13061212758","kind":"peak","name":"Lucks Hill","lat":-41.3995017,"lon":147.2320479,"elevationM":441},{"id":"node:13566060575","kind":"peak","name":"Little Hell","lat":-41.5458468,"lon":147.6723844,"elevationM":null},{"id":"node:13568358075","kind":"peak","name":"Handley Peak","lat":-41.2077453,"lon":147.9621161,"elevationM":null},{"id":"node:13568382529","kind":"peak","name":"Australia Hill","lat":-41.2047308,"lon":147.9872861,"elevationM":null}]}