{"tileKey":"la_m1_lo_m80","version":"v1-1775891056926","entries":[{"id":"node:4094322877","kind":"peak","name":"El Centinela","lat":-0.4789377,"lon":-79.0301752,"elevationM":2570},{"id":"node:4094345126","kind":"peak","name":"El Colorado","lat":-0.4552451,"lon":-79.0956025,"elevationM":2340},{"id":"node:4094364357","kind":"peak","name":"Bombolí","lat":-0.24649,"lon":-79.1929356,"elevationM":680},{"id":"node:6805497125","kind":"peak","name":"Cascada de Caballo Blanco","lat":-0.8636986,"lon":-79.0154638,"elevationM":null},{"id":"node:6808250382","kind":"peak","name":"Cerro Patalo","lat":-0.8208566,"lon":-79.0211821,"elevationM":null},{"id":"node:8300424276","kind":"peak","name":"Cerro Pata de Mula","lat":-0.0433443,"lon":-79.994631,"elevationM":464},{"id":"node:9481679609","kind":"peak","name":"Cerro Tilipulo","lat":-0.7900464,"lon":-79.0925932,"elevationM":null},{"id":"node:9481680177","kind":"peak","name":"Cerro Ashcuhuacana","lat":-0.624835,"lon":-79.0473605,"elevationM":null}]}