{"tileKey":"la_m29_lo_m67","version":"v1-1775891056926","entries":[{"id":"node:2576340761","kind":"peak","name":"Cerro El Manchao","lat":-28.2549926,"lon":-66.0350161,"elevationM":4552},{"id":"node:4563648998","kind":"peak","name":"Mogote Verde","lat":-28.7948949,"lon":-66.269803,"elevationM":1428},{"id":"node:4563648999","kind":"peak","name":"Cerro Colorada","lat":-28.6959158,"lon":-66.3002915,"elevationM":null},{"id":"node:4563649000","kind":"peak","name":"Mogote La Aspereza","lat":-28.684322,"lon":-66.2229042,"elevationM":2333},{"id":"node:4563649001","kind":"peak","name":"Cerro de Mazan","lat":-28.6173243,"lon":-66.4727008,"elevationM":1232},{"id":"node:4563649002","kind":"peak","name":"Mogote de La Cordillera","lat":-28.7632823,"lon":-66.3265741,"elevationM":2256},{"id":"node:4563649003","kind":"peak","name":"Cerro Santa Rosa","lat":-28.8347709,"lon":-66.4926829,"elevationM":1980},{"id":"node:4563649004","kind":"peak","name":"Cerro Santa Cruz","lat":-28.9145626,"lon":-66.5135446,"elevationM":1632},{"id":"node:4563649005","kind":"peak","name":"Cerro Mazan","lat":-28.6363319,"lon":-66.5489216,"elevationM":880},{"id":"node:4563649006","kind":"peak","name":"Cerro del Nichito","lat":-28.8576407,"lon":-66.7902145,"elevationM":1814},{"id":"node:4564078287","kind":"peak","name":"Cerro Tres Cerros","lat":-28.0610294,"lon":-66.0561132,"elevationM":null},{"id":"node:4564078288","kind":"peak","name":"Cerro Los Dormidos","lat":-28.0791527,"lon":-66.0595927,"elevationM":3753},{"id":"node:4564081089","kind":"peak","name":"Cerro Joyango","lat":-28.077281,"lon":-66.0942354,"elevationM":2686},{"id":"node:4564081090","kind":"peak","name":"Cerro Alto","lat":-28.1723025,"lon":-66.0379682,"elevationM":null},{"id":"node:4564081091","kind":"peak","name":"Cerro Nievas","lat":-28.2992395,"lon":-66.0895758,"elevationM":2847},{"id":"node:4564081092","kind":"peak","name":"Cerro de La Estancia","lat":-28.2451824,"lon":-66.1045723,"elevationM":2463},{"id":"node:11908226778","kind":"peak","name":"Cerro Negro","lat":-28.3952653,"lon":-66.060016,"elevationM":4440},{"id":"node:11908226779","kind":"peak","name":"Mogote de la Cruz/ Peinao","lat":-28.451874,"lon":-66.0531073,"elevationM":4261}]}