{"tileKey":"la_m22_lo_p149","version":"v1-1775891056926","entries":[{"id":"node:1660405719","kind":"peak","name":"Black Mountain","lat":-21.0691487,"lon":149.0980202,"elevationM":304},{"id":"node:1660408155","kind":"peak","name":"The Leap","lat":-21.0679471,"lon":149.0236643,"elevationM":null},{"id":"node:1706626135","kind":"peak","name":"Mount Oscar","lat":-21.1163359,"lon":149.1704594,"elevationM":null},{"id":"node:1710940886","kind":"peak","name":"Mount Bassett","lat":-21.1166562,"lon":149.2089271,"elevationM":null},{"id":"node:1714305551","kind":"peak","name":"Mount Homebush","lat":-21.261485,"lon":149.0400142,"elevationM":null},{"id":"node:1714305558","kind":"peak","name":"Dals Lookout","lat":-21.2100852,"lon":149.018708,"elevationM":null},{"id":"node:1714322628","kind":"peak","name":"Mount Xeromero","lat":-21.0377675,"lon":149.0460431,"elevationM":null},{"id":"node:1714322630","kind":"peak","name":"The Sister","lat":-21.0613258,"lon":149.0411416,"elevationM":null},{"id":"node:1717737441","kind":"peak","name":"Mount Haden","lat":-21.3575929,"lon":149.2975926,"elevationM":null},{"id":"node:1735085054","kind":"peak","name":"Falls Hill","lat":-21.1392667,"lon":149.0768334,"elevationM":null},{"id":"node:1741147927","kind":"peak","name":"Scubby Mountain","lat":-21.3532428,"lon":149.0765014,"elevationM":null},{"id":"node:1741147928","kind":"peak","name":"Mount Alice","lat":-21.3794571,"lon":149.0850749,"elevationM":null},{"id":"node:1765758172","kind":"peak","name":"Colston Gap","lat":-21.5028441,"lon":149.1342339,"elevationM":null},{"id":"node:1765758729","kind":"peak","name":"Mount Turnor","lat":-21.6016898,"lon":149.1632016,"elevationM":null},{"id":"node:1765758731","kind":"peak","name":"Cattle Mountain","lat":-21.5564406,"lon":149.1984274,"elevationM":null},{"id":"node:1765775375","kind":"peak","name":"Gates Gap","lat":-21.5043479,"lon":149.1576882,"elevationM":300},{"id":"node:1765775930","kind":"peak","name":"Colston Gap","lat":-21.5963497,"lon":149.0523623,"elevationM":250},{"id":"node:1765776901","kind":"peak","name":"Blue Mountain","lat":-21.4427621,"lon":149.0255596,"elevationM":null},{"id":"node:2011833288","kind":"peak","name":"Radio Hill","lat":-21.1172458,"lon":149.2177517,"elevationM":null},{"id":"node:2273462970","kind":"peak","name":"Three Sisters","lat":-21.6449626,"lon":149.2606402,"elevationM":250},{"id":"node:2716347708","kind":"peak","name":"Mount Funnel","lat":-21.6246538,"lon":149.3862571,"elevationM":null},{"id":"node:2716351371","kind":"peak","name":"Mount Funnel Range","lat":-21.6529844,"lon":149.3643489,"elevationM":null},{"id":"node:2716364216","kind":"peak","name":"West Hill","lat":-21.8289997,"lon":149.488941,"elevationM":null},{"id":"node:2793864014","kind":"peak","name":"Mount Chelona","lat":-21.3771874,"lon":149.2088875,"elevationM":null},{"id":"node:2844951534","kind":"peak","name":"Borstal Mountain","lat":-21.7230556,"lon":149.2794444,"elevationM":300},{"id":"node:2844951541","kind":"peak","name":"Mount Jones","lat":-21.7941079,"lon":149.353619,"elevationM":null},{"id":"node:2844951543","kind":"peak","name":"Mount Scott","lat":-21.776039,"lon":149.0259795,"elevationM":null},{"id":"node:2844951549","kind":"peak","name":"Sugarloaf Mountain","lat":-21.8116667,"lon":149.1983333,"elevationM":null},{"id":"node:2844951551","kind":"peak","name":"Tableland Mountain","lat":-21.9865233,"lon":149.3579784,"elevationM":500},{"id":"node:2844951552","kind":"peak","name":"The Knob","lat":-21.9658333,"lon":149.3347222,"elevationM":400},{"id":"node:2953596256","kind":"peak","name":"Mount Griffiths","lat":-21.2876504,"lon":149.2731302,"elevationM":null},{"id":"node:2953596272","kind":"peak","name":"Mount Hector","lat":-21.2685343,"lon":149.2657284,"elevationM":null},{"id":"node:2953607797","kind":"peak","name":"Dents Mountain","lat":-21.643877,"lon":149.2297217,"elevationM":null},{"id":"node:3041024170","kind":"peak","name":"Mount Blarney","lat":-21.4320803,"lon":149.1920634,"elevationM":null},{"id":"node:3502073421","kind":"peak","name":"Sarina Range","lat":-21.5052245,"lon":149.1209073,"elevationM":null},{"id":"node:3507902784","kind":"peak","name":"Bells Gap","lat":-21.5011668,"lon":149.1209523,"elevationM":null}]}