{"tileKey":"la_m33_lo_m58","version":"v1-1775891056926","entries":[{"id":"node:1870164234","kind":"peak","name":"Cerro del Medio","lat":-32.119804,"lon":-57.3641228,"elevationM":107},{"id":"node:1871865566","kind":"peak","name":"Cerro de San Patricio","lat":-32.1084949,"lon":-57.4202119,"elevationM":101},{"id":"node:1871909579","kind":"peak","name":"Cerro del Ingles","lat":-32.1234358,"lon":-57.2817917,"elevationM":126},{"id":"node:1871927226","kind":"peak","name":"Cerro de la Tapera","lat":-32.1465947,"lon":-57.2466258,"elevationM":115},{"id":"node:1871927346","kind":"peak","name":"Cerro de la Carreta","lat":-32.1300304,"lon":-57.2522369,"elevationM":117},{"id":"node:1873592569","kind":"peak","name":"Cerro del Parleòn","lat":-32.0777559,"lon":-57.4131758,"elevationM":95},{"id":"node:1873592705","kind":"peak","name":"Cerro de los Chivos","lat":-32.0779922,"lon":-57.3363176,"elevationM":122},{"id":"node:1873592753","kind":"peak","name":"Cerro de Mesias","lat":-32.0787232,"lon":-57.3937834,"elevationM":92},{"id":"node:1873592818","kind":"peak","name":"Cerro del Sombrero","lat":-32.0744504,"lon":-57.4210401,"elevationM":102},{"id":"node:1873593062","kind":"peak","name":"Cerro de Tunas","lat":-32.0754268,"lon":-57.360553,"elevationM":102},{"id":"node:12056418124","kind":"peak","name":"Cerro de las Dunas","lat":-32.1533588,"lon":-57.1146155,"elevationM":95},{"id":"node:12056420178","kind":"peak","name":"Cerro María Piquí","lat":-32.127906,"lon":-57.1666396,"elevationM":145},{"id":"node:12056420179","kind":"peak","name":"Cerro de las Mulas","lat":-32.1400984,"lon":-57.1405578,"elevationM":105},{"id":"node:12056420231","kind":"peak","name":"Cerro Viale","lat":-32.1767567,"lon":-57.1072984,"elevationM":105},{"id":"node:12056420232","kind":"peak","name":"Cerro de las Palomas","lat":-32.1684631,"lon":-57.1176705,"elevationM":80},{"id":"node:12109226481","kind":"peak","name":"Cerro de la Chacra","lat":-32.3546061,"lon":-57.0474529,"elevationM":154},{"id":"node:12109226482","kind":"peak","name":"Cerro de los Difuntos","lat":-32.3756847,"lon":-57.0463371,"elevationM":120},{"id":"node:12109226484","kind":"peak","name":"Cerro Valiente","lat":-32.2212063,"lon":-57.0319927,"elevationM":110},{"id":"node:12109226485","kind":"peak","name":"Cerro Valiente","lat":-32.2171127,"lon":-57.0335376,"elevationM":110},{"id":"node:12109306274","kind":"peak","name":"Cerro Palmera Sola","lat":-32.359482,"lon":-57.1039295,"elevationM":130},{"id":"node:12183257982","kind":"peak","name":"Cerro de la Cruz","lat":-32.9427443,"lon":-57.4512434,"elevationM":50},{"id":"node:12183257983","kind":"peak","name":"Cerro del Arbolito","lat":-32.9527559,"lon":-57.4307513,"elevationM":60},{"id":"node:12183281549","kind":"peak","name":"Cerro Montañoso","lat":-32.4408829,"lon":-57.083813,"elevationM":110},{"id":"node:12257459842","kind":"peak","name":"Cerro Mugango","lat":-32.1377546,"lon":-57.1038008,"elevationM":110},{"id":"node:12596345099","kind":"peak","name":"Cerro San Eusebio","lat":-32.1318883,"lon":-57.8179497,"elevationM":44},{"id":"node:12596345100","kind":"peak","name":"Cerro de los Difuntos","lat":-32.0961441,"lon":-57.772328,"elevationM":null},{"id":"node:12596348701","kind":"peak","name":"Cerro de la Cueva del Tigre","lat":-32.0992458,"lon":-57.8217555,"elevationM":null},{"id":"node:12608325923","kind":"peak","name":"Cerro de la Linterna","lat":-32.0919917,"lon":-57.4995232,"elevationM":82},{"id":"node:12608325924","kind":"peak","name":"Cerro de Basualdo","lat":-32.0996356,"lon":-57.5060892,"elevationM":90},{"id":"node:12608325925","kind":"peak","name":"Cerro del Galpón","lat":-32.0621553,"lon":-57.5862551,"elevationM":null},{"id":"node:12608325926","kind":"peak","name":"Cerro del Panteón","lat":-32.0772224,"lon":-57.4134135,"elevationM":90},{"id":"node:12608325927","kind":"peak","name":"Cerro de la Cocoa","lat":-32.0737383,"lon":-57.4373389,"elevationM":112},{"id":"node:12608325928","kind":"peak","name":"Cerro de la Ventana","lat":-32.0778838,"lon":-57.4698687,"elevationM":100},{"id":"node:12608325929","kind":"peak","name":"Cerro Boyeadas","lat":-32.0737565,"lon":-57.5203586,"elevationM":null},{"id":"node:12608325930","kind":"peak","name":"Cerro del Medio","lat":-32.0677378,"lon":-57.5019694,"elevationM":null},{"id":"node:12608325931","kind":"peak","name":"Cerro de la Esperanza","lat":-32.106679,"lon":-57.6443839,"elevationM":85},{"id":"node:12608325933","kind":"peak","name":"Cerro Tía María","lat":-32.1846568,"lon":-57.7198506,"elevationM":60},{"id":"node:12608325934","kind":"peak","name":"Cerro del Inglés","lat":-32.1792812,"lon":-57.7305365,"elevationM":69},{"id":"node:12608325935","kind":"peak","name":"Cerro de la Salamanca","lat":-32.1554139,"lon":-57.8310871,"elevationM":49},{"id":"node:12610453971","kind":"peak","name":"Cerro Vichadero","lat":-32.0514236,"lon":-57.9893788,"elevationM":40},{"id":"node:12610453972","kind":"peak","name":"Cerro de las Cañas","lat":-32.1527253,"lon":-57.9462793,"elevationM":42},{"id":"node:12610453973","kind":"peak","name":"Cerro Blanco","lat":-32.1279192,"lon":-57.9017499,"elevationM":32},{"id":"node:12621174241","kind":"peak","name":"Cerro de las Cañas","lat":-32.1632977,"lon":-57.0567441,"elevationM":110},{"id":"node:12621174242","kind":"peak","name":"Cerro de los Talas","lat":-32.1460396,"lon":-57.028699,"elevationM":110},{"id":"node:12621174243","kind":"peak","name":"Cerro de Cara Cara","lat":-32.1492371,"lon":-57.0397282,"elevationM":121},{"id":"node:12677364404","kind":"peak","name":"Cerro Pelado","lat":-32.1458761,"lon":-57.7448917,"elevationM":64},{"id":"node:12677374410","kind":"peak","name":"Cerro Buricayupí","lat":-32.0289256,"lon":-57.4981928,"elevationM":87},{"id":"node:12726529988","kind":"peak","name":"Cerro Caracú Pelado","lat":-32.2278592,"lon":-57.9946268,"elevationM":50},{"id":"node:12898506293","kind":"peak","name":"Cerro Montuoso","lat":-32.7542747,"lon":-57.3142576,"elevationM":81},{"id":"node:12898506294","kind":"peak","name":"Cerro Montuoso","lat":-32.6803643,"lon":-57.2750759,"elevationM":70},{"id":"node:12898514435","kind":"peak","name":"Cerro del Tala","lat":-32.7560793,"lon":-57.2628236,"elevationM":79},{"id":"node:12898514436","kind":"peak","name":"Cerro Arbolito","lat":-32.7179771,"lon":-57.2513009,"elevationM":80},{"id":"node:12898514446","kind":"peak","name":"Cerro Montuoso","lat":-32.5574933,"lon":-57.128166,"elevationM":125},{"id":"node:12898514447","kind":"peak","name":"Cerro del Arbolito","lat":-32.5878269,"lon":-57.1745682,"elevationM":95},{"id":"node:12898514448","kind":"peak","name":"Cerro Montuoso","lat":-32.5979508,"lon":-57.1846104,"elevationM":95},{"id":"node:12898514449","kind":"peak","name":"Cerro de los Mellizos","lat":-32.595203,"lon":-57.2090292,"elevationM":95},{"id":"node:12898514450","kind":"peak","name":"Cerro de las Flores","lat":-32.6078929,"lon":-57.2093082,"elevationM":90},{"id":"node:12898514451","kind":"peak","name":"Cerro de la Laguna","lat":-32.6214846,"lon":-57.2231484,"elevationM":84},{"id":"node:12898514452","kind":"peak","name":"Cerro Viraró","lat":-32.6326168,"lon":-57.2004891,"elevationM":80},{"id":"node:12898514453","kind":"peak","name":"Cerro de la Calera","lat":-32.6581286,"lon":-57.2340489,"elevationM":80},{"id":"node:12898514454","kind":"peak","name":"Cerro de Eulalia","lat":-32.6705025,"lon":-57.217226,"elevationM":76},{"id":"node:12898524014","kind":"peak","name":"Cerro del Quebracho","lat":-32.713572,"lon":-57.1056033,"elevationM":110},{"id":"node:12913211586","kind":"peak","name":"Cerro Pelado","lat":-32.9806474,"lon":-57.3622751,"elevationM":71}]}