{"tileKey":"la_m25_lo_p129","version":"v1-1775891056926","entries":[{"id":"node:3020053218","kind":"peak","name":"Mount Carruthers","lat":-24.64473,"lon":129.60002,"elevationM":1009},{"id":"node:3020053351","kind":"peak","name":"Mount Cowle","lat":-24.51162,"lon":129.55411,"elevationM":592},{"id":"node:3020053586","kind":"peak","name":"Mount Harris","lat":-24.63503,"lon":129.51364,"elevationM":840},{"id":"node:3020053590","kind":"peak","name":"Mount Hastie","lat":-24.8346,"lon":129.0231,"elevationM":998},{"id":"node:3020053821","kind":"peak","name":"Mount Skene","lat":-24.81874,"lon":129.12204,"elevationM":914},{"id":"node:3020054143","kind":"peak","name":"Ruined Rampart","lat":-24.92484,"lon":129.22315,"elevationM":965}]}