{"tileKey":"la_m2_lo_p5","version":"v1-1775891056926","entries":[{"id":"node:292526515","kind":"peak","name":"Pico Quioveo","lat":-1.4400389,"lon":5.6328471,"elevationM":598},{"id":"node:6284344957","kind":"peak","name":"Macizo Santa Mina","lat":-1.4544423,"lon":5.6397053,"elevationM":613},{"id":"node:6284380315","kind":"peak","name":"Pico del Fuego","lat":-1.4213978,"lon":5.6353943,"elevationM":435},{"id":"node:6284380316","kind":"peak","name":"Pico Lago","lat":-1.4330086,"lon":5.6354657,"elevationM":525},{"id":"node:6284380317","kind":"peak","name":"Lapá Faanguyí","lat":-1.4542491,"lon":5.6262792,"elevationM":296},{"id":"node:6284380318","kind":"peak","name":"Quepuchin","lat":-1.4198014,"lon":5.6468294,"elevationM":228},{"id":"node:6284380319","kind":"peak","name":"Alturas de Mol","lat":-1.4341674,"lon":5.6397616,"elevationM":495}]}