{"tileKey":"la_m12_lo_p132","version":"v1-1775891056926","entries":[{"id":"node:3020150633","kind":"peak","name":"Bay Hill","lat":-11.53882,"lon":132.65184,"elevationM":63},{"id":"node:3020150794","kind":"peak","name":"Gunners Quoin","lat":-11.18277,"lon":132.0304,"elevationM":null},{"id":"node:3020150899","kind":"peak","name":"Middle Head","lat":-11.36826,"lon":132.19864,"elevationM":64},{"id":"node:3020151033","kind":"peak","name":"Mount Bedwell","lat":-11.4806,"lon":132.05595,"elevationM":147},{"id":"node:3020151437","kind":"peak","name":"Mount Permain","lat":-11.90485,"lon":132.98292,"elevationM":222},{"id":"node:3020151460","kind":"peak","name":"Mount Roe","lat":-11.50855,"lon":132.07517,"elevationM":160},{"id":"node:3020151958","kind":"peak","name":"Saddle Hill","lat":-11.30565,"lon":132.24163,"elevationM":73}]}