{"tileKey":"la_m28_lo_p130","version":"v1-1775891056926","entries":[{"id":"node:3020052418","kind":"peak","name":"Belundinna Hill","lat":-27.39738,"lon":130.1614,"elevationM":540},{"id":"node:3020052526","kind":"peak","name":"Cheesman Peak","lat":-27.40478,"lon":130.33461,"elevationM":null},{"id":"node:3020052541","kind":"peak","name":"Coffin Hill","lat":-27.52629,"lon":130.47468,"elevationM":567},{"id":"node:3020052711","kind":"peak","name":"Gilby Hill","lat":-27.11633,"lon":130.84117,"elevationM":605},{"id":"node:3020053014","kind":"peak","name":"Moombunya Hill","lat":-27.15525,"lon":130.89292,"elevationM":592},{"id":"node:3020053992","kind":"peak","name":"Oonmooninna Hill","lat":-27.0602,"lon":130.5453,"elevationM":null},{"id":"node:3020054224","kind":"peak","name":"Tarleecartagun Hill","lat":-27.46015,"lon":130.70741,"elevationM":530},{"id":"node:3020054309","kind":"peak","name":"Turner Hill","lat":-27.34048,"lon":130.8737,"elevationM":520},{"id":"node:3020054325","kind":"peak","name":"Unmoorinna Hill","lat":-27.43276,"lon":130.1851,"elevationM":638},{"id":"node:3020054538","kind":"peak","name":"Yaroona Hill","lat":-27.45914,"lon":130.17076,"elevationM":624}]}