{"tileKey":"la_m32_lo_m54","version":"v1-1775891056926","entries":[{"id":"node:3142297623","kind":"peak","name":"Cerro do Sandi","lat":-31.4798856,"lon":-53.1968521,"elevationM":499},{"id":"node:3624163399","kind":"peak","name":"Cerro dos Porongos","lat":-31.3862841,"lon":-53.536772,"elevationM":430},{"id":"node:3659333639","kind":"peak","name":"Cerro Chato","lat":-31.9158258,"lon":-53.2760047,"elevationM":250},{"id":"node:3659333640","kind":"peak","name":"Cerro Partido","lat":-31.8801473,"lon":-53.4058083,"elevationM":330},{"id":"node:3659333641","kind":"peak","name":"Cerro da Guarda","lat":-31.7601584,"lon":-53.6070837,"elevationM":416},{"id":"node:3659333642","kind":"peak","name":"Cerro da Mangueira","lat":-31.8873194,"lon":-53.6655857,"elevationM":322},{"id":"node:3659333643","kind":"peak","name":"Cerro da Oca","lat":-31.8447647,"lon":-53.5245594,"elevationM":363},{"id":"node:3659333645","kind":"peak","name":"Cerro do Baú","lat":-31.8925822,"lon":-53.4302186,"elevationM":340},{"id":"node:4808858175","kind":"peak","name":"Morro da Pedra","lat":-31.8895907,"lon":-53.5030303,"elevationM":null},{"id":"node:4823763277","kind":"peak","name":"Cerro do Ubaldo","lat":-31.5102101,"lon":-53.1120335,"elevationM":350},{"id":"node:5419043735","kind":"peak","name":"Cerro do Papileti","lat":-31.2428199,"lon":-53.4575415,"elevationM":425},{"id":"node:5419043736","kind":"peak","name":"Cerro Partido","lat":-31.2194445,"lon":-53.4233809,"elevationM":419},{"id":"node:6085622533","kind":"peak","name":"Cerro do Guará","lat":-31.345134,"lon":-53.1188966,"elevationM":445},{"id":"node:6102886779","kind":"peak","name":"Cerro Agudo","lat":-31.8701229,"lon":-53.6963654,"elevationM":310},{"id":"node:6264843494","kind":"peak","name":"Coxilha das Tunas","lat":-31.3520427,"lon":-53.8171292,"elevationM":372}]}