{"tileKey":"la_m22_lo_m48","version":"v1-1775891056926","entries":[{"id":"node:574736786","kind":"peak","name":"Morro Itatiaia","lat":-21.6827235,"lon":-47.4250011,"elevationM":null},{"id":"node:2384931718","kind":"peak","name":"Morro do Cruzeiro","lat":-21.4662904,"lon":-47.5478586,"elevationM":1000},{"id":"node:4272085030","kind":"peak","name":"Saltinho","lat":-21.8815169,"lon":-47.9177149,"elevationM":838},{"id":"node:4286036587","kind":"peak","name":"Morro do Nilo","lat":-21.7058687,"lon":-47.9557063,"elevationM":684},{"id":"node:5366438651","kind":"peak","name":"Morro da Santa Cruz","lat":-21.0811365,"lon":-47.1796704,"elevationM":970},{"id":"node:5366438653","kind":"peak","name":"Três Montes","lat":-21.1403084,"lon":-47.1493292,"elevationM":1167},{"id":"node:5366438665","kind":"peak","name":"Morro do Paredão","lat":-21.1587597,"lon":-47.2029305,"elevationM":1090},{"id":"node:5366438668","kind":"peak","name":"Morro da Cascavel","lat":-21.1294206,"lon":-47.223959,"elevationM":1073},{"id":"node:6659644832","kind":"peak","name":"Morro da Roça Nova","lat":-21.7325933,"lon":-47.7482129,"elevationM":659},{"id":"node:6659668643","kind":"peak","name":"Morro Janelinha","lat":-21.8824672,"lon":-47.6571465,"elevationM":858},{"id":"node:6695375671","kind":"peak","name":"Morro do Pique","lat":-21.5824034,"lon":-47.7415395,"elevationM":734},{"id":"node:6984017135","kind":"peak","name":"Rocha","lat":-21.8243831,"lon":-47.365585,"elevationM":790},{"id":"node:9532687667","kind":"peak","name":"Morro São Luís","lat":-21.878796,"lon":-47.2981972,"elevationM":736}]}