{"tileKey":"la_m29_lo_m66","version":"v1-1775891056926","entries":[{"id":"node:2217765775","kind":"peak","name":"Peñón Bola","lat":-28.6286508,"lon":-65.5482504,"elevationM":null},{"id":"node:2417952039","kind":"peak","name":"Cerro Cumbre del Durazno","lat":-28.379323,"lon":-65.9521542,"elevationM":null},{"id":"node:3844510329","kind":"peak","name":"Cumbres Sierras Coloradas","lat":-28.3102025,"lon":-65.8880466,"elevationM":1951},{"id":"node:4564078286","kind":"peak","name":"Cerro Pabellón","lat":-28.3064932,"lon":-65.9707446,"elevationM":3100},{"id":"node:8936850288","kind":"peak","name":"El Crestón","lat":-28.3796662,"lon":-65.9523109,"elevationM":2980},{"id":"node:9569837506","kind":"peak","name":"La Silleta","lat":-28.1169644,"lon":-65.9588432,"elevationM":2200},{"id":"node:11918784575","kind":"peak","name":"Encuentro de senderos","lat":-28.3793071,"lon":-65.9692486,"elevationM":null},{"id":"node:13330203762","kind":"peak","name":"Mogote del Carrizal","lat":-28.3195146,"lon":-65.9350383,"elevationM":2404}]}