{"tileKey":"la_m63_lo_m63","version":"v1-1775891056926","entries":[{"id":"node:6054394329","kind":"peak","name":"Mount Foster","lat":-62.9927185,"lon":-62.5540515,"elevationM":2105},{"id":"node:9245417553","kind":"peak","name":"Slatina Peak","lat":-62.9691393,"lon":-62.4917278,"elevationM":null},{"id":"node:9245418526","kind":"peak","name":"Drinov Peak","lat":-62.9514424,"lon":-62.492168,"elevationM":null},{"id":"node:9245423686","kind":"peak","name":"Mount Pisgah","lat":-62.9384089,"lon":-62.4718635,"elevationM":null},{"id":"node:9245427677","kind":"peak","name":"Sevlievski Peak","lat":-62.9612839,"lon":-62.4869302,"elevationM":null},{"id":"node:9245432937","kind":"peak","name":"Matochina Peak","lat":-62.8898085,"lon":-62.3616838,"elevationM":null},{"id":"node:9245452621","kind":"peak","name":"Mount Christi","lat":-62.9133329,"lon":-62.4068096,"elevationM":null},{"id":"node:9245455690","kind":"peak","name":"Mezek Peak","lat":-62.9394251,"lon":-62.4537151,"elevationM":null},{"id":"node:9245464941","kind":"peak","name":"Antim Peak","lat":-62.9816774,"lon":-62.5194555,"elevationM":null}]}