{"tileKey":"la_m15_lo_m72","version":"v1-1775891056926","entries":[{"id":"node:1692245432","kind":"volcano","name":"Volcán Quimsachata","lat":-14.165536,"lon":-71.3559674,"elevationM":3923},{"id":"node:5304501242","kind":"peak","name":"Monte Ñahui","lat":-14.4081838,"lon":-71.2960983,"elevationM":4208},{"id":"node:6023683747","kind":"peak","name":"Waqrawiri","lat":-14.2515233,"lon":-71.8500938,"elevationM":null},{"id":"node:6023702424","kind":"peak","name":"Qoyllur","lat":-14.2860365,"lon":-71.8783041,"elevationM":4136},{"id":"node:6399312479","kind":"peak","name":"Ch'iyar Jaqhi","lat":-14.3578272,"lon":-71.394507,"elevationM":4654},{"id":"node:9235570127","kind":"peak","name":"Wiluyu","lat":-14.4306644,"lon":-71.1598983,"elevationM":null},{"id":"node:9235576800","kind":"peak","name":"Qillqa","lat":-14.3669599,"lon":-71.0116674,"elevationM":null},{"id":"node:9235584390","kind":"peak","name":"Yana Urqu","lat":-14.4138314,"lon":-71.229566,"elevationM":null},{"id":"node:9235599702","kind":"peak","name":"Kuntur Quta","lat":-14.3577356,"lon":-71.0258657,"elevationM":null},{"id":"node:9235623088","kind":"peak","name":"Qullqini","lat":-14.3949187,"lon":-71.0616061,"elevationM":null},{"id":"node:9235625309","kind":"peak","name":"Yana Ranra","lat":-14.4342049,"lon":-71.026665,"elevationM":null},{"id":"node:9235640136","kind":"peak","name":"Pawka","lat":-14.4400532,"lon":-71.1568876,"elevationM":null},{"id":"node:9235641149","kind":"peak","name":"Chawpi Tiyana","lat":-14.3788261,"lon":-71.0507271,"elevationM":null},{"id":"node:9235646039","kind":"peak","name":"Puka Urqu","lat":-14.4592022,"lon":-71.1031495,"elevationM":null},{"id":"node:9235656539","kind":"peak","name":"Laramani","lat":-14.6101861,"lon":-71.190379,"elevationM":null},{"id":"node:9235656540","kind":"peak","name":"Qillqa","lat":-14.7203533,"lon":-71.0813887,"elevationM":null},{"id":"node:9237775994","kind":"peak","name":"Puka Urqu","lat":-14.1079683,"lon":-71.2726665,"elevationM":null},{"id":"node:9237797668","kind":"peak","name":"T'allani Urqu","lat":-14.8239649,"lon":-71.9350819,"elevationM":null},{"id":"node:9237802857","kind":"peak","name":"Hatun Urqu","lat":-14.5194762,"lon":-71.8016651,"elevationM":null},{"id":"node:9237806224","kind":"peak","name":"Kuntur Salla","lat":-14.791686,"lon":-71.953891,"elevationM":null},{"id":"node:9237811469","kind":"peak","name":"Siq'i Urqu","lat":-14.7471678,"lon":-71.892464,"elevationM":null},{"id":"node:9237813519","kind":"peak","name":"Kiswarani Q'asa","lat":-14.7658958,"lon":-71.8249923,"elevationM":null},{"id":"node:9237819287","kind":"peak","name":"T'ikapallana","lat":-14.3711016,"lon":-71.8534479,"elevationM":null},{"id":"node:9237821132","kind":"peak","name":"Anka Wachana","lat":-14.5438561,"lon":-71.9808278,"elevationM":null},{"id":"node:9237822780","kind":"peak","name":"Tuqtu","lat":-14.3916991,"lon":-71.5541476,"elevationM":null},{"id":"node:9237828288","kind":"peak","name":"Inka Pirqa","lat":-14.1220942,"lon":-71.214325,"elevationM":null},{"id":"node:9237828731","kind":"peak","name":"Puma Qaqa","lat":-14.014793,"lon":-71.2894474,"elevationM":null},{"id":"node:9237832072","kind":"peak","name":"Tunka Suka","lat":-14.1656363,"lon":-71.4867723,"elevationM":null},{"id":"node:9237838419","kind":"peak","name":"Chupika","lat":-14.0344896,"lon":-71.2630613,"elevationM":null},{"id":"node:9240428231","kind":"peak","name":"Wari Sallani","lat":-14.0982366,"lon":-71.0376889,"elevationM":null},{"id":"node:9240455398","kind":"peak","name":"Phatanka","lat":-14.0089826,"lon":-71.1516774,"elevationM":null},{"id":"node:9240496760","kind":"peak","name":"Anta","lat":-14.1098412,"lon":-71.0192192,"elevationM":null},{"id":"node:9240506515","kind":"peak","name":"Qusqu Qhawarina","lat":-14.0389503,"lon":-71.0986179,"elevationM":null},{"id":"node:9240506632","kind":"peak","name":"Jach'a Sirk'i","lat":-14.082063,"lon":-71.0602838,"elevationM":null},{"id":"node:9240524302","kind":"peak","name":"Wila Kunka","lat":-14.0266421,"lon":-71.1595899,"elevationM":null},{"id":"node:9780894081","kind":"peak","name":"Chelqo","lat":-14.2997373,"lon":-71.827041,"elevationM":4434},{"id":"node:11629875643","kind":"peak","name":"Laurapi","lat":-14.2764142,"lon":-71.8649438,"elevationM":null},{"id":"node:11629875644","kind":"peak","name":"Piusha","lat":-14.2688122,"lon":-71.8579298,"elevationM":null},{"id":"node:11629875645","kind":"peak","name":"Humariro","lat":-14.3234957,"lon":-71.9186496,"elevationM":null}]}