{"tileKey":"la_p10_lo_m8","version":"v1-1775891056926","entries":[{"id":"node:11412231925","kind":"peak","name":"Kouroumousso","lat":10.4602962,"lon":-7.2826797,"elevationM":485},{"id":"node:13378109781","kind":"peak","name":"Teouékelé","lat":10.0734245,"lon":-7.1146667,"elevationM":null},{"id":"node:13378109782","kind":"peak","name":"Koyanen-Kourou","lat":10.0717977,"lon":-7.1280241,"elevationM":486},{"id":"node:13378109783","kind":"peak","name":"Telefi-Kourou","lat":10.0643187,"lon":-7.1533442,"elevationM":null},{"id":"node:13378109784","kind":"peak","name":"Kongoloni Koungdian","lat":10.0546422,"lon":-7.1751452,"elevationM":522},{"id":"node:13378109790","kind":"peak","name":"Dounountiguila","lat":10.1608885,"lon":-7.0794493,"elevationM":null},{"id":"node:13378109791","kind":"peak","name":"Fonto Kourou","lat":10.1499581,"lon":-7.0639515,"elevationM":null},{"id":"node:13378109792","kind":"peak","name":"Daladié-Kourou","lat":10.1610258,"lon":-7.110386,"elevationM":null},{"id":"node:13378109793","kind":"peak","name":"Tiéton-Kourou","lat":10.129765,"lon":-7.0805383,"elevationM":641},{"id":"node:13378117650","kind":"peak","name":"Niabérégué","lat":10.2433876,"lon":-7.0006944,"elevationM":null},{"id":"node:13426928596","kind":"peak","name":"Tahara-Kourouba","lat":10.2009,"lon":-7.2343255,"elevationM":null},{"id":"node:13426928598","kind":"peak","name":"Baladian-Kourou","lat":10.0968111,"lon":-7.1021033,"elevationM":611},{"id":"node:13426928599","kind":"peak","name":"Kossan-Kourou","lat":10.080333,"lon":-7.065754,"elevationM":490},{"id":"node:13426928600","kind":"peak","name":"Gogognian-Kourou","lat":10.0727274,"lon":-7.0219804,"elevationM":448},{"id":"node:13426933001","kind":"peak","name":"Dosson Balé","lat":10.0126368,"lon":-7.0332242,"elevationM":585}]}