{"tileKey":"la_p24_lo_p46","version":"v1-1775891056926","entries":[{"id":"node:1236399670","kind":"peak","name":"جبل معانيق","lat":24.50692,"lon":46.062461,"elevationM":null},{"id":"node:1236685744","kind":"peak","name":"عريض","lat":24.443515,"lon":46.724372,"elevationM":null},{"id":"node:1236702053","kind":"peak","name":"خشم ابا الغبطان","lat":24.902203,"lon":46.041367,"elevationM":null},{"id":"node:1236702109","kind":"peak","name":"ظهرة سدحا","lat":24.970411,"lon":46.370226,"elevationM":null},{"id":"node:1236702164","kind":"peak","name":"جبل الابكين","lat":24.975625,"lon":46.247062,"elevationM":null},{"id":"node:1236703414","kind":"peak","name":"برقان البراشيع","lat":24.95968,"lon":46.942078,"elevationM":null},{"id":"node:1236703631","kind":"peak","name":"ظهرة عريجاء","lat":24.5828997,"lon":46.6044697,"elevationM":null},{"id":"node:1236703637","kind":"peak","name":"ظهرة نمار","lat":24.537412,"lon":46.528184,"elevationM":null},{"id":"node:1236703648","kind":"peak","name":"ظهرة أوبرة","lat":24.641228,"lon":46.5658437,"elevationM":null},{"id":"node:1236703853","kind":"peak","name":"ظهرة الباقرة","lat":24.469933,"lon":46.743943,"elevationM":null},{"id":"node:1236704495","kind":"peak","name":"جبال الفهدة","lat":24.406335,"lon":46.301078,"elevationM":null},{"id":"node:1236704516","kind":"peak","name":"جبل الطويلة","lat":24.4474554,"lon":46.1674616,"elevationM":null},{"id":"node:1236704568","kind":"peak","name":"جبل الشعبة","lat":24.59156,"lon":46.047723,"elevationM":null},{"id":"node:1236704715","kind":"peak","name":"خشم المنجور","lat":24.7041254,"lon":46.2004554,"elevationM":null},{"id":"node:1236704761","kind":"peak","name":"خشم الهدبة","lat":24.347991,"lon":46.147144,"elevationM":null},{"id":"node:1236704774","kind":"peak","name":"جبل مزروع","lat":24.325639,"lon":46.348149,"elevationM":null},{"id":"node:1236704855","kind":"peak","name":"خشم معضد","lat":24.313725,"lon":46.301462,"elevationM":null},{"id":"node:1236704864","kind":"peak","name":"جبل ابو رخيم","lat":24.307134,"lon":46.120533,"elevationM":null},{"id":"node:1236704876","kind":"peak","name":"خشم الاوسط","lat":24.424592,"lon":46.340887,"elevationM":null},{"id":"node:1236704909","kind":"peak","name":"عدامة الفرس","lat":24.4334522,"lon":46.0481005,"elevationM":null},{"id":"node:1236705293","kind":"peak","name":"قور الطيارات","lat":24.103196,"lon":46.935444,"elevationM":null},{"id":"node:1236705362","kind":"peak","name":"خشم ابو مزهامة","lat":24.21808,"lon":46.212172,"elevationM":null},{"id":"node:1236705653","kind":"peak","name":"فريدة العطش","lat":24.216077,"lon":46.472253,"elevationM":null},{"id":"node:1236705682","kind":"peak","name":"خشم الحسيان","lat":24.799363,"lon":46.085244,"elevationM":null},{"id":"node:1236705850","kind":"peak","name":"حمر الميركة","lat":24.825915,"lon":46.009212,"elevationM":null},{"id":"node:5388373240","kind":"peak","name":"أم إصبع","lat":24.4462062,"lon":46.4049419,"elevationM":null},{"id":"node:6778465722","kind":"peak","name":"جبال الدويحات","lat":24.6366692,"lon":46.0096474,"elevationM":null},{"id":"node:6778526785","kind":"peak","name":"جبال الدغماء","lat":24.6279354,"lon":46.0264053,"elevationM":null},{"id":"node:6778583222","kind":"peak","name":"جبال ام كثير","lat":24.8485413,"lon":46.2679558,"elevationM":null},{"id":"node:6778613520","kind":"peak","name":"جبال معانيق","lat":24.491293,"lon":46.0869179,"elevationM":null},{"id":"node:6779266438","kind":"peak","name":"حصاة السقطة","lat":24.6351242,"lon":46.2872887,"elevationM":null},{"id":"node:6779389120","kind":"peak","name":"خشم ابا الغبطان","lat":24.9026375,"lon":46.0416832,"elevationM":null},{"id":"node:6779829782","kind":"peak","name":"خشم عاصودة","lat":24.7272768,"lon":46.1369114,"elevationM":null},{"id":"node:6779837309","kind":"peak","name":"خشم العطاش","lat":24.1879463,"lon":46.4567413,"elevationM":null},{"id":"node:6779843383","kind":"peak","name":"خشم العان","lat":24.7185726,"lon":46.8979301,"elevationM":null},{"id":"node:6779856374","kind":"peak","name":"خشم صبيغ","lat":24.1925163,"lon":46.2193527,"elevationM":null},{"id":"node:6779857186","kind":"peak","name":"خشم المعنونة","lat":24.231741,"lon":46.076252,"elevationM":null},{"id":"node:6779866121","kind":"peak","name":"خشم المويه","lat":24.7113209,"lon":46.187767,"elevationM":null},{"id":"node:6779881521","kind":"peak","name":"خشم زبيدة","lat":24.5710945,"lon":46.3176727,"elevationM":null},{"id":"node:6779882987","kind":"peak","name":"خشم مرقان","lat":24.1045189,"lon":46.3970222,"elevationM":null},{"id":"node:6780103257","kind":"peak","name":"جبل الشعبه","lat":24.586544,"lon":46.0625839,"elevationM":null},{"id":"node:6780119669","kind":"peak","name":"جبل الثوير","lat":24.4262772,"lon":46.2217789,"elevationM":null},{"id":"node:6780197944","kind":"peak","name":"جبل المشمرخ","lat":24.5628548,"lon":46.1664391,"elevationM":null},{"id":"node:6780427757","kind":"peak","name":"جبل حفيت","lat":24.5647221,"lon":46.131485,"elevationM":null},{"id":"node:6784217076","kind":"peak","name":"جبل غرور","lat":24.4150543,"lon":46.4364624,"elevationM":null},{"id":"node:6784237678","kind":"peak","name":"جبل لبده","lat":24.3333645,"lon":46.8522491,"elevationM":null},{"id":"node:11870047684","kind":"peak","name":"ظهرة عوصاء","lat":24.5438783,"lon":46.5734246,"elevationM":null},{"id":"node:11870047901","kind":"peak","name":"خشم السليّ","lat":24.6358016,"lon":46.9466053,"elevationM":null},{"id":"node:11870240054","kind":"peak","name":"الجبيل","lat":24.6869065,"lon":46.9675034,"elevationM":null},{"id":"node:11870274445","kind":"peak","name":"سود المضباعة","lat":24.8984065,"lon":46.9829176,"elevationM":null},{"id":"node:11870738193","kind":"peak","name":"خشم أم العفاز","lat":24.0697648,"lon":46.2115508,"elevationM":null},{"id":"node:11870950560","kind":"peak","name":"خشم المشراق","lat":24.2166726,"lon":46.3166912,"elevationM":null},{"id":"node:11870950609","kind":"peak","name":"خشم القدية","lat":24.5105458,"lon":46.3905669,"elevationM":null},{"id":"node:11870950845","kind":"peak","name":"خشم الحيسية","lat":24.8537821,"lon":46.0442375,"elevationM":null},{"id":"node:11870951131","kind":"peak","name":"خشم أم رمل","lat":24.1073319,"lon":46.2300503,"elevationM":null},{"id":"node:11871306414","kind":"peak","name":"جبال هفافة","lat":24.3804722,"lon":46.5869302,"elevationM":null},{"id":"node:11871307138","kind":"peak","name":"قدمة السقطة","lat":24.6248087,"lon":46.2666762,"elevationM":null},{"id":"node:11871539363","kind":"peak","name":"جبال طويق","lat":24.227997,"lon":46.3566017,"elevationM":null},{"id":"node:11871651853","kind":"peak","name":"ظهرة الحدباء","lat":24.3613248,"lon":46.2127356,"elevationM":null},{"id":"node:11871651971","kind":"peak","name":"جبال لوذة","lat":24.5327443,"lon":46.7347805,"elevationM":null},{"id":"node:11871768132","kind":"peak","name":"خشوم خرشاء","lat":24.7849653,"lon":46.0766537,"elevationM":null},{"id":"node:11871768171","kind":"peak","name":"جبل الصقورية","lat":24.4161691,"lon":46.3431556,"elevationM":null},{"id":"node:11871768353","kind":"peak","name":"خشم الذيبي","lat":24.2346535,"lon":46.1128019,"elevationM":null},{"id":"node:11871768900","kind":"peak","name":"خشم الجنادريّة","lat":24.9297892,"lon":46.8536279,"elevationM":null},{"id":"node:11871768927","kind":"peak","name":"ظهرة جمل","lat":24.2272013,"lon":46.1626413,"elevationM":null},{"id":"node:11871768941","kind":"peak","name":"جبل مصيقرة","lat":24.9067151,"lon":46.2453621,"elevationM":null},{"id":"node:11871883361","kind":"peak","name":"أمّ رجم","lat":24.4167085,"lon":46.9337997,"elevationM":null},{"id":"node:11871883380","kind":"peak","name":"خشم هيت","lat":24.4912253,"lon":46.9964503,"elevationM":null},{"id":"node:11871883418","kind":"peak","name":"فريدة مطويّة","lat":24.4487739,"lon":46.5407248,"elevationM":null},{"id":"node:11871883424","kind":"peak","name":"جبل فردة","lat":24.211948,"lon":46.695553,"elevationM":null},{"id":"node:11871883428","kind":"peak","name":"برق الدويرة","lat":24.2276085,"lon":46.9904253,"elevationM":null},{"id":"node:11871883481","kind":"peak","name":"خصيّين","lat":24.4435147,"lon":46.7202075,"elevationM":null},{"id":"node:11871883593","kind":"peak","name":"صفيراء الغزو","lat":24.6425584,"lon":46.2398198,"elevationM":null},{"id":"node:11871883869","kind":"peak","name":"جبل ام الروس","lat":24.4341877,"lon":46.4024618,"elevationM":null}]}