{"tileKey":"la_p46_lo_m101","version":"v1-1775891056926","entries":[{"id":"node:357752173","kind":"peak","name":"Ambulance Butte","lat":46.5816611,"lon":-100.7234593,"elevationM":693},{"id":"node:357752439","kind":"peak","name":"Barren Butte","lat":46.1530535,"lon":-100.8092963,"elevationM":660},{"id":"node:357752993","kind":"peak","name":"Braun Butte","lat":46.1005481,"lon":-100.3009533,"elevationM":640},{"id":"node:357753135","kind":"peak","name":"Burnt Butte","lat":46.9397141,"lon":-100.7967973,"elevationM":614},{"id":"node:357753314","kind":"peak","name":"Castle Butte","lat":46.4938833,"lon":-100.6501236,"elevationM":579},{"id":"node:357753494","kind":"peak","name":"Coal Butte","lat":46.4591607,"lon":-100.5178968,"elevationM":625},{"id":"node:357753498","kind":"peak","name":"Coal Butte","lat":46.9688805,"lon":-100.8492993,"elevationM":640},{"id":"node:357753585","kind":"peak","name":"Corner Butte","lat":46.5469386,"lon":-100.6209558,"elevationM":559},{"id":"node:357754927","kind":"peak","name":"Fritz Butte","lat":46.0105503,"lon":-100.4215142,"elevationM":635},{"id":"node:357755369","kind":"peak","name":"Half Timber Butte","lat":46.271386,"lon":-100.8351302,"elevationM":611},{"id":"node:357755376","kind":"peak","name":"Hall Hill","lat":46.0499948,"lon":-100.4620696,"elevationM":607},{"id":"node:357756183","kind":"peak","name":"Keever Butte","lat":46.9422141,"lon":-100.6942933,"elevationM":659},{"id":"node:357756635","kind":"peak","name":"Lone Butte","lat":46.0827705,"lon":-100.3062316,"elevationM":632},{"id":"node:357756702","kind":"peak","name":"Lookout Butte","lat":46.0211062,"lon":-100.4648482,"elevationM":639},{"id":"node:357757134","kind":"peak","name":"Moffit Butte","lat":46.690267,"lon":-100.2684452,"elevationM":547},{"id":"node:357758202","kind":"peak","name":"Potato Hill","lat":46.620827,"lon":-100.5026184,"elevationM":594},{"id":"node:357758270","kind":"peak","name":"Proposal Hill","lat":46.1027741,"lon":-100.6362381,"elevationM":546},{"id":"node:357758327","kind":"peak","name":"Rattlesnake Butte","lat":46.5202722,"lon":-100.6648462,"elevationM":597},{"id":"node:357758331","kind":"peak","name":"Rattlesnake Butte","lat":46.5508271,"lon":-100.4956736,"elevationM":613},{"id":"node:357761999","kind":"peak","name":"Sibley Butte","lat":46.9563792,"lon":-100.3645566,"elevationM":640},{"id":"node:357762016","kind":"peak","name":"Signal Butte","lat":46.53055,"lon":-100.687347,"elevationM":628},{"id":"node:357762060","kind":"peak","name":"Smith Butte","lat":46.0063837,"lon":-100.4317923,"elevationM":654},{"id":"node:357762103","kind":"peak","name":"Solberg Butte","lat":46.9324923,"lon":-100.6217898,"elevationM":649},{"id":"node:357762338","kind":"peak","name":"Sugarloaf Butte","lat":46.6480499,"lon":-100.7301259,"elevationM":529},{"id":"node:357762408","kind":"peak","name":"Table Butte","lat":46.5169388,"lon":-100.6595683,"elevationM":597},{"id":"node:357762465","kind":"peak","name":"Temvik Butte","lat":46.3638796,"lon":-100.2851141,"elevationM":617},{"id":"node:357762618","kind":"peak","name":"Twin Buttes","lat":46.3982869,"lon":-100.6182996,"elevationM":558},{"id":"node:357762621","kind":"peak","name":"Twin Buttes","lat":46.6919385,"lon":-100.7073472,"elevationM":536},{"id":"node:357762751","kind":"peak","name":"Volk Butte","lat":46.1238813,"lon":-100.3131751,"elevationM":614},{"id":"node:357763015","kind":"peak","name":"Winchester Butte","lat":46.3022133,"lon":-100.3101153,"elevationM":604},{"id":"node:357764870","kind":"peak","name":"War Dance Hill","lat":46.3847207,"lon":-100.9843004,"elevationM":590},{"id":"node:4481666417","kind":"peak","name":"Twin Buttes","lat":46.3997685,"lon":-100.618496,"elevationM":558}]}