{"tileKey":"la_p43_lo_p18","version":"v1-1775891056926","entries":[{"id":"node:26862607","kind":"peak","name":"Botin","lat":43.3272887,"lon":18.0167964,"elevationM":1969},{"id":"node:26862813","kind":"peak","name":"Džamija","lat":43.5800284,"lon":18.1898176,"elevationM":1967},{"id":"node:26864192","kind":"peak","name":"Pašina planina","lat":43.5894355,"lon":18.356352,"elevationM":2070},{"id":"node:26864332","kind":"peak","name":"Pliješ","lat":43.4183333,"lon":18.8144444,"elevationM":1719},{"id":"node:26864661","kind":"peak","name":"Sjenište","lat":43.6930285,"lon":18.6138532,"elevationM":1911},{"id":"node:26865044","kind":"peak","name":"Velika Bjelasnica","lat":43.145,"lon":18.4155556,"elevationM":null},{"id":"node:26865049","kind":"peak","name":"Velika Lelija","lat":43.4227255,"lon":18.4877048,"elevationM":2032},{"id":"node:26865055","kind":"peak","name":"Veliki Lupoglav","lat":43.8544305,"lon":18.6553713,"elevationM":1652},{"id":"node:26865110","kind":"peak","name":"Vjetrenik","lat":43.4,"lon":18.7325,"elevationM":1475},{"id":"node:26865157","kind":"peak","name":"Zavorovi","lat":43.1413889,"lon":18.8586111,"elevationM":1348},{"id":"node:26865161","kind":"peak","name":"Zimomor","lat":43.38183,"lon":18.1750938,"elevationM":1920},{"id":"node:255000784","kind":"peak","name":"Grdonj","lat":43.8790426,"lon":18.4308191,"elevationM":901},{"id":"node:301872577","kind":"peak","name":"Orlić","lat":43.8789895,"lon":18.3632964,"elevationM":877},{"id":"node:358998141","kind":"peak","name":"Žuč","lat":43.880746,"lon":18.3536113,"elevationM":850},{"id":"node:376019803","kind":"peak","name":"Hranisava","lat":43.7339512,"lon":18.1423197,"elevationM":1964},{"id":"node:376022906","kind":"peak","name":"Ivan-sedlo","lat":43.7497163,"lon":18.0384313,"elevationM":955},{"id":"node:386899901","kind":"peak","name":"Bistrik kula","lat":43.8422731,"lon":18.4379553,"elevationM":1004},{"id":"node:386899902","kind":"peak","name":"Mala kapa","lat":43.8476432,"lon":18.4436577,"elevationM":897},{"id":"node:386899903","kind":"peak","name":"Čolina kapa","lat":43.8458867,"lon":18.439841,"elevationM":966},{"id":"node:388279260","kind":"peak","name":"Palež","lat":43.8380596,"lon":18.4262198,"elevationM":1087},{"id":"node:471179509","kind":"peak","name":"Metaljka","lat":43.8493687,"lon":18.268944,"elevationM":596},{"id":"node:471182927","kind":"peak","name":"Tjepovac","lat":43.8868824,"lon":18.2948219,"elevationM":655},{"id":"node:471184488","kind":"peak","name":"Krstac","lat":43.8957895,"lon":18.2664441,"elevationM":861},{"id":"node:499075447","kind":"peak","name":"Kovačevac","lat":43.8559546,"lon":18.4920645,"elevationM":1071},{"id":"node:499075451","kind":"peak","name":"Kosač","lat":43.8600083,"lon":18.4982014,"elevationM":1093},{"id":"node:567821018","kind":"peak","name":"Crni vrh","lat":43.7700346,"lon":18.2715808,"elevationM":1504},{"id":"node:571132516","kind":"peak","name":"Bjelašnica","lat":43.7037482,"lon":18.2576651,"elevationM":2067},{"id":"node:571155696","kind":"peak","name":"Đurino brdo","lat":43.7680524,"lon":18.2323555,"elevationM":1533},{"id":"node:574871481","kind":"peak","name":"Šiljato brdo","lat":43.8952882,"lon":18.4904394,"elevationM":1298},{"id":"node:611101560","kind":"peak","name":"Stijena Gora","lat":43.9602984,"lon":18.1328202,"elevationM":null},{"id":"node:611101571","kind":"peak","name":"Krtnica","lat":43.9694327,"lon":18.1667671,"elevationM":null},{"id":"node:611119162","kind":"peak","name":"Visočica","lat":43.9768032,"lon":18.1768675,"elevationM":766},{"id":"node:763450713","kind":"peak","name":"Vito","lat":43.6050138,"lon":18.2279865,"elevationM":1960},{"id":"node:763454223","kind":"peak","name":"Obalj","lat":43.6463668,"lon":18.1964576,"elevationM":1896},{"id":"node:765647757","kind":"peak","name":"Krvavac","lat":43.692494,"lon":18.1664799,"elevationM":2062},{"id":"node:765707024","kind":"peak","name":"Puzim","lat":43.5917777,"lon":18.270278,"elevationM":1778},{"id":"node:765708108","kind":"peak","name":"Subar","lat":43.6119053,"lon":18.2359409,"elevationM":1820},{"id":"node:765708899","kind":"peak","name":"Veliki Ljeljen","lat":43.5751846,"lon":18.1996908,"elevationM":1963},{"id":"node:765710688","kind":"peak","name":"Drstva","lat":43.6207064,"lon":18.2266921,"elevationM":1808},{"id":"node:765710978","kind":"peak","name":"Veliko brdo","lat":43.6144901,"lon":18.2251959,"elevationM":1884},{"id":"node:765711637","kind":"peak","name":"Mali Ljeljen","lat":43.5687174,"lon":18.2127371,"elevationM":1860},{"id":"node:765716065","kind":"peak","name":"Šiljak","lat":43.6946344,"lon":18.2898474,"elevationM":1689},{"id":"node:765716196","kind":"peak","name":"Javorak","lat":43.6926755,"lon":18.2730246,"elevationM":1693},{"id":"node:765717662","kind":"peak","name":"Vaganj","lat":43.680056,"lon":18.1684486,"elevationM":1908},{"id":"node:765721330","kind":"peak","name":"Lovnica","lat":43.6442911,"lon":18.1667319,"elevationM":1856},{"id":"node:767856834","kind":"peak","name":"Saračevac","lat":43.9151118,"lon":18.3973569,"elevationM":1086},{"id":"node:767856979","kind":"peak","name":"Lopata","lat":43.9298255,"lon":18.4158964,"elevationM":1103},{"id":"node:767857666","kind":"peak","name":"Brestovac","lat":43.9181336,"lon":18.4540323,"elevationM":1413},{"id":"node:767871876","kind":"peak","name":"Vjetreni kuk","lat":43.7065484,"lon":18.1889105,"elevationM":1947},{"id":"node:767871877","kind":"peak","name":"Veliki visin (Velež)","lat":43.7103951,"lon":18.1815291,"elevationM":1850},{"id":"node:767871878","kind":"peak","name":"Mala Vlahinja","lat":43.7211124,"lon":18.2211145,"elevationM":2056},{"id":"node:767871879","kind":"peak","name":"Velika Vlahinja","lat":43.7304676,"lon":18.2102205,"elevationM":2005},{"id":"node:767871885","kind":"peak","name":"Žuljsko brdo","lat":43.7017978,"lon":18.2110065,"elevationM":1986},{"id":"node:767871886","kind":"peak","name":"Obla glava","lat":43.6967443,"lon":18.2040167,"elevationM":1816},{"id":"node:767871888","kind":"peak","name":"Šiljata glava","lat":43.6940138,"lon":18.2105399,"elevationM":1737},{"id":"node:767871889","kind":"peak","name":"Vjetreno brdo","lat":43.7022259,"lon":18.1962408,"elevationM":1968},{"id":"node:767871890","kind":"peak","name":"Veliki Ljeljen","lat":43.707054,"lon":18.1778132,"elevationM":1907},{"id":"node:767871894","kind":"peak","name":"Kotplani","lat":43.6567668,"lon":18.15166,"elevationM":1788},{"id":"node:767871895","kind":"peak","name":"Vijenac","lat":43.6342822,"lon":18.1826371,"elevationM":1496},{"id":"node:767871896","kind":"peak","name":"Razašlje","lat":43.6823455,"lon":18.2323409,"elevationM":1558},{"id":"node:767871898","kind":"peak","name":"Mali strug","lat":43.7008399,"lon":18.2316542,"elevationM":1923},{"id":"node:767871900","kind":"peak","name":"Hrastova glava","lat":43.8607819,"lon":18.4641695,"elevationM":896},{"id":"node:767871901","kind":"peak","name":"Barjak","lat":43.8631645,"lon":18.4757567,"elevationM":1003},{"id":"node:767871902","kind":"peak","name":"Orlovac","lat":43.8674961,"lon":18.4801341,"elevationM":1038},{"id":"node:767871904","kind":"peak","name":"Grad","lat":43.8741478,"lon":18.4829665,"elevationM":1094},{"id":"node:767871905","kind":"peak","name":"Prut","lat":43.646582,"lon":18.2280493,"elevationM":1436},{"id":"node:767875315","kind":"peak","name":"Mala međeđa glava","lat":43.7153273,"lon":18.2094884,"elevationM":1885},{"id":"node:767875320","kind":"peak","name":"Međeđa glava","lat":43.7374393,"lon":18.205905,"elevationM":1881},{"id":"node:767875322","kind":"peak","name":"Crni vrh","lat":43.7399198,"lon":18.1508017,"elevationM":1823},{"id":"node:767875325","kind":"peak","name":"Crni vrh","lat":43.7226782,"lon":18.1451369,"elevationM":1908},{"id":"node:767875328","kind":"peak","name":"Klanac","lat":43.7082856,"lon":18.1588698,"elevationM":1848},{"id":"node:767883230","kind":"peak","name":"Parič","lat":43.5962534,"lon":18.2216978,"elevationM":1941},{"id":"node:767883237","kind":"peak","name":"Delelaš","lat":43.6007288,"lon":18.2204962,"elevationM":null},{"id":"node:767883239","kind":"peak","name":"Veliki strug","lat":43.596875,"lon":18.1983519,"elevationM":1869},{"id":"node:767883244","kind":"peak","name":"Mali strug","lat":43.6009774,"lon":18.1944037,"elevationM":null},{"id":"node:767883248","kind":"peak","name":"Uteklić","lat":43.587799,"lon":18.2290793,"elevationM":1816},{"id":"node:767883254","kind":"peak","name":"Veliki vrh","lat":43.6801109,"lon":18.2060767,"elevationM":1726},{"id":"node:767883255","kind":"peak","name":"Pošljak","lat":43.6711717,"lon":18.2144881,"elevationM":1551},{"id":"node:767883256","kind":"peak","name":"Malo brdo","lat":43.6192473,"lon":18.2253832,"elevationM":null},{"id":"node:767883258","kind":"peak","name":"Mokre stijene","lat":43.6014746,"lon":18.2419539,"elevationM":1878},{"id":"node:767883260","kind":"peak","name":"Spijonik","lat":43.5994856,"lon":18.2330275,"elevationM":1920},{"id":"node:767883268","kind":"peak","name":"Saruk","lat":43.6746482,"lon":18.2016135,"elevationM":1726},{"id":"node:767890813","kind":"peak","name":"Komić","lat":43.5524768,"lon":18.2673598,"elevationM":1637},{"id":"node:767890814","kind":"peak","name":"Ljeljen","lat":43.5682749,"lon":18.3487273,"elevationM":1789},{"id":"node:767890816","kind":"peak","name":"Kula","lat":43.556831,"lon":18.3562804,"elevationM":1783},{"id":"node:767890819","kind":"peak","name":"Mala Ćaba","lat":43.5960981,"lon":18.3462167,"elevationM":2087},{"id":"node:767890823","kind":"peak","name":"Klekova glavica","lat":43.592587,"lon":18.3679815,"elevationM":2000},{"id":"node:767890836","kind":"peak","name":"Sedlo","lat":43.5745432,"lon":18.2807408,"elevationM":1581},{"id":"node:767890839","kind":"peak","name":"Crveni kuk","lat":43.5789704,"lon":18.2616949,"elevationM":1733},{"id":"node:767890842","kind":"peak","name":"Kom","lat":43.5583238,"lon":18.2580901,"elevationM":1778},{"id":"node:767890846","kind":"peak","name":"Baturak","lat":43.5773538,"lon":18.2462454,"elevationM":1796},{"id":"node:767890849","kind":"peak","name":"Glatko","lat":43.568648,"lon":18.2460738,"elevationM":1791},{"id":"node:767890868","kind":"peak","name":"Katun","lat":43.6890488,"lon":18.2646132,"elevationM":1621},{"id":"node:767890873","kind":"peak","name":"Veliki siljevac","lat":43.6823455,"lon":18.2503653,"elevationM":1576},{"id":"node:767890875","kind":"peak","name":"Hojta","lat":43.669185,"lon":18.3051253,"elevationM":1672},{"id":"node:767890890","kind":"peak","name":"Barice","lat":43.6258343,"lon":18.345294,"elevationM":2062},{"id":"node:767890917","kind":"peak","name":"Lisičija glava","lat":43.6977372,"lon":18.2788611,"elevationM":1678},{"id":"node:767895806","kind":"peak","name":"Kobiljača","lat":43.5873017,"lon":18.4175635,"elevationM":1780},{"id":"node:767895811","kind":"peak","name":"Veliki Treskač","lat":43.5717037,"lon":18.3911133,"elevationM":1969},{"id":"node:767895815","kind":"peak","name":"Veliki ljeljen","lat":43.6147742,"lon":18.3547354,"elevationM":1974},{"id":"node:767896610","kind":"peak","name":"Zubovi","lat":43.6235976,"lon":18.3825446,"elevationM":1793},{"id":"node:767896615","kind":"peak","name":"Lupoč","lat":43.6089327,"lon":18.400569,"elevationM":1776},{"id":"node:767896618","kind":"peak","name":"Krajačića klanac","lat":43.5969993,"lon":18.3784247,"elevationM":1971},{"id":"node:767896621","kind":"peak","name":"Zaviti kamen","lat":43.5991127,"lon":18.3911276,"elevationM":1892},{"id":"node:767906422","kind":"peak","name":"Malo vratlo","lat":43.5793435,"lon":18.3760214,"elevationM":1950},{"id":"node:767906430","kind":"peak","name":"Gradac","lat":43.5579506,"lon":18.4343863,"elevationM":1396},{"id":"node:767906493","kind":"peak","name":"Đevigrad","lat":43.6049084,"lon":18.346728,"elevationM":2034},{"id":"node:767906516","kind":"peak","name":"Opaljeni kuk","lat":43.6119157,"lon":18.3437491,"elevationM":2018},{"id":"node:767906525","kind":"peak","name":"Kljusina","lat":43.5931453,"lon":18.3243514,"elevationM":1687},{"id":"node:767906538","kind":"peak","name":"Ilijaš","lat":43.6155199,"lon":18.3717299,"elevationM":1879},{"id":"node:768875360","kind":"peak","name":"Veliki Toholj","lat":43.6061546,"lon":18.1999412,"elevationM":null},{"id":"node:918448672","kind":"peak","name":"Tinovo brdo","lat":43.813134,"lon":18.1998055,"elevationM":828},{"id":"node:918448673","kind":"peak","name":"Gunjčar","lat":43.820524,"lon":18.1821852,"elevationM":806},{"id":"node:973618327","kind":"peak","name":"Bukovik","lat":43.9339331,"lon":18.4494219,"elevationM":1534},{"id":"node:1097108032","kind":"peak","name":"Purin kuk","lat":43.5408176,"lon":18.0692646,"elevationM":681},{"id":"node:1097108040","kind":"peak","name":"Lisac","lat":43.5628385,"lon":18.1659958,"elevationM":1667},{"id":"node:1097108043","kind":"peak","name":"Koritski vrh","lat":43.561097,"lon":18.1773254,"elevationM":1670},{"id":"node:1097108052","kind":"peak","name":"Hum","lat":43.5336,"lon":18.114669,"elevationM":1199},{"id":"node:1097108058","kind":"peak","name":"Vranske stijene","lat":43.597533,"lon":18.0789635,"elevationM":1299},{"id":"node:1097108061","kind":"peak","name":"Vrsa","lat":43.5836079,"lon":18.1066868,"elevationM":1556},{"id":"node:1097108063","kind":"peak","name":"Ivica","lat":43.5916277,"lon":18.1162998,"elevationM":1440},{"id":"node:1097108067","kind":"peak","name":"Hum","lat":43.5535464,"lon":18.1012794,"elevationM":1052},{"id":"node:1097108068","kind":"peak","name":"Crnobor","lat":43.5643933,"lon":18.0966446,"elevationM":null},{"id":"node:1097108079","kind":"peak","name":"Oštro","lat":43.5532976,"lon":18.0850574,"elevationM":884},{"id":"node:1097108084","kind":"peak","name":"Vis","lat":43.5645177,"lon":18.0757877,"elevationM":796},{"id":"node:1097108087","kind":"peak","name":"Čepa","lat":43.5773902,"lon":18.0699512,"elevationM":1009},{"id":"node:1097108099","kind":"peak","name":"Tranjina","lat":43.5627141,"lon":18.051841,"elevationM":1015},{"id":"node:1097108103","kind":"peak","name":"V. Oštra","lat":43.5661347,"lon":18.0478927,"elevationM":1052},{"id":"node:1097108107","kind":"peak","name":"Ranjkovce","lat":43.5850378,"lon":18.0268642,"elevationM":987},{"id":"node:1097108112","kind":"peak","name":"Klobuk","lat":43.5734106,"lon":18.033044,"elevationM":945},{"id":"node:1097108140","kind":"peak","name":"Zeleni vrh","lat":43.5307375,"lon":18.0090973,"elevationM":1608},{"id":"node:1097126278","kind":"peak","name":"Kovač brdo","lat":43.5440528,"lon":18.471553,"elevationM":null},{"id":"node:1097126279","kind":"peak","name":"Mali ručnik","lat":43.5385777,"lon":18.461425,"elevationM":1477},{"id":"node:1097126289","kind":"peak","name":"Paljika","lat":43.5930574,"lon":18.4768745,"elevationM":1369},{"id":"node:1097126296","kind":"peak","name":"Krbljina zvijezda","lat":43.5823644,"lon":18.4858009,"elevationM":1414},{"id":"node:1097126298","kind":"peak","name":"Debelo brdo","lat":43.5834835,"lon":18.4742996,"elevationM":1360},{"id":"node:1097126302","kind":"peak","name":"Orlov kuk","lat":43.5404443,"lon":18.3845207,"elevationM":1712},{"id":"node:1097126307","kind":"peak","name":"Kutski grad","lat":43.5287462,"lon":18.4145614,"elevationM":1550},{"id":"node:1097126311","kind":"peak","name":"Veliki gložac","lat":43.5212782,"lon":18.3879539,"elevationM":1449},{"id":"node:1097126317","kind":"peak","name":"Oštrikovac","lat":43.5169214,"lon":18.3972236,"elevationM":null},{"id":"node:1097126322","kind":"peak","name":"Ručnik","lat":43.5419375,"lon":18.4818527,"elevationM":1496},{"id":"node:1097126331","kind":"peak","name":"Debelo brdo","lat":43.5436795,"lon":18.3144829,"elevationM":1304},{"id":"node:1097126337","kind":"peak","name":"Jaznik","lat":43.5343466,"lon":18.3434936,"elevationM":1380},{"id":"node:1097126341","kind":"peak","name":"Požiljak","lat":43.5499628,"lon":18.278949,"elevationM":1510},{"id":"node:1097126342","kind":"peak","name":"Lukavac","lat":43.5439284,"lon":18.3767959,"elevationM":1768},{"id":"node:1097245015","kind":"peak","name":"Siljevac","lat":43.4263538,"lon":18.3658096,"elevationM":1474},{"id":"node:1097245020","kind":"peak","name":"Šajkov vrh","lat":43.4470456,"lon":18.4186813,"elevationM":1562},{"id":"node:1097245024","kind":"peak","name":"Vranovina","lat":43.4575134,"lon":18.29766,"elevationM":1182},{"id":"node:1097245027","kind":"peak","name":"Mrka stijena","lat":43.4628712,"lon":18.2684776,"elevationM":1220},{"id":"node:1097245032","kind":"peak","name":"Čakat","lat":43.4704253,"lon":18.2495418,"elevationM":1284},{"id":"node:1097245042","kind":"peak","name":"Golovo brdo","lat":43.4274135,"lon":18.5081169,"elevationM":1763},{"id":"node:1097245049","kind":"peak","name":"Mala Lelija","lat":43.4284732,"lon":18.4767029,"elevationM":null},{"id":"node:1097245053","kind":"peak","name":"Mali Maglaj","lat":43.4212421,"lon":18.4642574,"elevationM":1961},{"id":"node:1097245063","kind":"peak","name":"Drhtar","lat":43.3772137,"lon":18.4356758,"elevationM":1970},{"id":"node:1097245067","kind":"peak","name":"Orlov kuk","lat":43.3859471,"lon":18.4281227,"elevationM":null},{"id":"node:1097245077","kind":"peak","name":"Javić","lat":43.3835767,"lon":18.4619026,"elevationM":1902},{"id":"node:1097245081","kind":"peak","name":"Glavica","lat":43.3932447,"lon":18.4734413,"elevationM":1914},{"id":"node:1097245086","kind":"peak","name":"Visoka Glavica","lat":43.3966749,"lon":18.487775,"elevationM":1962},{"id":"node:1097245092","kind":"peak","name":"Hrbograd","lat":43.4027865,"lon":18.4924957,"elevationM":1909},{"id":"node:1097245096","kind":"peak","name":"Golija","lat":43.4131373,"lon":18.4899208,"elevationM":1934},{"id":"node:1097245104","kind":"peak","name":"Veliki Zimomor","lat":43.370272,"lon":18.4890308,"elevationM":1815},{"id":"node:1097245110","kind":"peak","name":"Mali Zimomor","lat":43.3753421,"lon":18.4871742,"elevationM":null},{"id":"node:1097245112","kind":"peak","name":"Javorje","lat":43.345014,"lon":18.46091,"elevationM":1778},{"id":"node:1097245126","kind":"peak","name":"Dumoš","lat":43.3622392,"lon":18.460395,"elevationM":1882},{"id":"node:1097245133","kind":"peak","name":"Zimovnica","lat":43.3722226,"lon":18.472068,"elevationM":1742},{"id":"node:1097245147","kind":"peak","name":"Mokrina","lat":43.3727217,"lon":18.5041687,"elevationM":1849},{"id":"node:1097245156","kind":"peak","name":"Todor","lat":43.3966749,"lon":18.5173866,"elevationM":1949},{"id":"node:1097245157","kind":"peak","name":"Osredak","lat":43.3874441,"lon":18.5089752,"elevationM":1828},{"id":"node:1097245164","kind":"peak","name":"Prutača","lat":43.3537521,"lon":18.4930107,"elevationM":1817},{"id":"node:1097245173","kind":"peak","name":"Kotur","lat":43.3478852,"lon":18.4732696,"elevationM":1763},{"id":"node:1097245192","kind":"peak","name":"Borovno brdo","lat":43.3621144,"lon":18.5393593,"elevationM":null},{"id":"node:1097245198","kind":"peak","name":"Kalelija","lat":43.3722818,"lon":18.5226545,"elevationM":1977},{"id":"node:1097245216","kind":"peak","name":"Munjac","lat":43.3370239,"lon":18.5407326,"elevationM":1895},{"id":"node:1097245227","kind":"peak","name":"Vranjača","lat":43.3298833,"lon":18.5391232,"elevationM":1865},{"id":"node:1097245233","kind":"peak","name":"Klek","lat":43.3476705,"lon":18.5106783,"elevationM":1899},{"id":"node:1097245251","kind":"peak","name":"Careva glavica","lat":43.356498,"lon":18.5958359,"elevationM":1465},{"id":"node:1097245264","kind":"peak","name":"Orlovac","lat":43.3809567,"lon":18.5690567,"elevationM":1962},{"id":"node:1097245271","kind":"peak","name":"Ljeljen","lat":43.3833272,"lon":18.5520622,"elevationM":1766},{"id":"node:1097245276","kind":"peak","name":"Stog","lat":43.3702261,"lon":18.5448524,"elevationM":1821},{"id":"node:1097245295","kind":"peak","name":"Javorak","lat":43.3357129,"lon":18.5760948,"elevationM":1679},{"id":"node:1097245299","kind":"peak","name":"Pogledala","lat":43.333403,"lon":18.7281868,"elevationM":1757},{"id":"node:1097245302","kind":"peak","name":"Bukovi vrhovi","lat":43.3250367,"lon":18.7362549,"elevationM":1787},{"id":"node:1097245314","kind":"peak","name":"Mitrina usov","lat":43.3416433,"lon":18.7180588,"elevationM":1583},{"id":"node:1097245317","kind":"peak","name":"Beškita","lat":43.3256514,"lon":18.700663,"elevationM":1275},{"id":"node:1097245328","kind":"peak","name":"Velika Košuta","lat":43.3840839,"lon":18.6217752,"elevationM":1872},{"id":"node:1097245330","kind":"peak","name":"Mala Košuta","lat":43.3858223,"lon":18.6131737,"elevationM":null},{"id":"node:1097245332","kind":"peak","name":"Orlovača","lat":43.3703682,"lon":18.5785284,"elevationM":1959},{"id":"node:1097245345","kind":"peak","name":"Kozje strane","lat":43.3604211,"lon":18.5753885,"elevationM":2013},{"id":"node:1097245358","kind":"peak","name":"Vušljina glava","lat":43.3324041,"lon":18.6138603,"elevationM":1689},{"id":"node:1097245360","kind":"peak","name":"Boščija glava","lat":43.336899,"lon":18.6151478,"elevationM":null},{"id":"node:1097245362","kind":"peak","name":"Planik","lat":43.3656276,"lon":18.613751,"elevationM":1796},{"id":"node:1097245367","kind":"peak","name":"Crni krši","lat":43.3714739,"lon":18.6375496,"elevationM":1783},{"id":"node:1097245372","kind":"peak","name":"Treskavac","lat":43.375051,"lon":18.6442466,"elevationM":1803},{"id":"node:1097245383","kind":"peak","name":"Velika Siljevica","lat":43.3265352,"lon":18.6542007,"elevationM":1722},{"id":"node:1097245389","kind":"peak","name":"Pleće","lat":43.3337776,"lon":18.6523125,"elevationM":1767},{"id":"node:1097245391","kind":"peak","name":"Ozren","lat":43.349508,"lon":18.6595222,"elevationM":1405},{"id":"node:1097245394","kind":"peak","name":"Ardov","lat":43.3175435,"lon":18.6235592,"elevationM":1723},{"id":"node:1097245401","kind":"peak","name":"Uglješin vrh","lat":43.3238171,"lon":18.6005136,"elevationM":1859},{"id":"node:1097245410","kind":"peak","name":"Ravna greda","lat":43.2200477,"lon":18.6031315,"elevationM":1656},{"id":"node:1097245420","kind":"peak","name":"Košara","lat":43.2023443,"lon":18.6713669,"elevationM":1838},{"id":"node:1097245426","kind":"peak","name":"Jelovac","lat":43.3108961,"lon":18.6790916,"elevationM":1426},{"id":"node:1097245433","kind":"peak","name":"Planinica","lat":43.3088,"lon":18.6353836,"elevationM":1724},{"id":"node:1097245436","kind":"peak","name":"Mala Siljevica","lat":43.3288109,"lon":18.6411805,"elevationM":1720},{"id":"node:1097245447","kind":"peak","name":"Stolac","lat":43.2786264,"lon":18.6811516,"elevationM":1985},{"id":"node:1097245451","kind":"peak","name":"Аџовац","lat":43.2738147,"lon":18.692567,"elevationM":1831},{"id":"node:1097245463","kind":"peak","name":"Rudinski kom","lat":43.2450636,"lon":18.6971188,"elevationM":2157},{"id":"node:1097245466","kind":"peak","name":"Mesni štit","lat":43.2066611,"lon":18.6584064,"elevationM":1852},{"id":"node:1097245477","kind":"peak","name":"Volujak","lat":43.2317787,"lon":18.7171411,"elevationM":2336},{"id":"node:1097245480","kind":"peak","name":"Trnovački Durmitor","lat":43.2426394,"lon":18.7189986,"elevationM":2242},{"id":"node:1097245485","kind":"peak","name":"Trzivka","lat":43.2401879,"lon":18.7350633,"elevationM":2333},{"id":"node:1097245491","kind":"peak","name":"Badnjine","lat":43.2736835,"lon":18.6653662,"elevationM":2243},{"id":"node:1097245499","kind":"peak","name":"Lica (južni vrh)","lat":43.2840938,"lon":18.6648813,"elevationM":2153},{"id":"node:1097245507","kind":"peak","name":"Maglić","lat":43.2809755,"lon":18.7331516,"elevationM":2386},{"id":"node:1097245515","kind":"peak","name":"Veliki Oštrikovac","lat":43.2546846,"lon":18.6881368,"elevationM":2296},{"id":"node:1097256275","kind":"peak","name":"Pjevčeva glavica","lat":43.4355787,"lon":18.2256481,"elevationM":1586},{"id":"node:1097256276","kind":"peak","name":"Butine","lat":43.4377355,"lon":18.2889053,"elevationM":1016},{"id":"node:1097256277","kind":"peak","name":"Kruševac","lat":43.4456746,"lon":18.1538078,"elevationM":1255},{"id":"node:1097256278","kind":"peak","name":"Kokošinjak","lat":43.4679794,"lon":18.1666824,"elevationM":1321},{"id":"node:1097256279","kind":"peak","name":"Kozlovac","lat":43.4595694,"lon":18.1780121,"elevationM":1328},{"id":"node:1097256280","kind":"peak","name":"Maj kuk","lat":43.436202,"lon":18.1944916,"elevationM":1713},{"id":"node:1097256281","kind":"peak","name":"Javor kuk","lat":43.4244837,"lon":18.2049629,"elevationM":1492},{"id":"node:1097256282","kind":"peak","name":"Tepsija","lat":43.4398167,"lon":18.1817886,"elevationM":1683},{"id":"node:1097256283","kind":"peak","name":"Planja","lat":43.4516566,"lon":18.219125,"elevationM":1514},{"id":"node:1097256284","kind":"peak","name":"Razvršje","lat":43.441624,"lon":18.2216141,"elevationM":1570},{"id":"node:1097256285","kind":"peak","name":"Veliki Gradac","lat":43.4076503,"lon":18.1824753,"elevationM":1847},{"id":"node:1097256286","kind":"peak","name":"Šimun","lat":43.4145089,"lon":18.1853935,"elevationM":1893},{"id":"node:1097256287","kind":"peak","name":"Marisovac","lat":43.4222395,"lon":18.1702873,"elevationM":null},{"id":"node:1097256288","kind":"peak","name":"Topla strana","lat":43.4101445,"lon":18.1526062,"elevationM":null},{"id":"node:1097256289","kind":"peak","name":"Vrhovi","lat":43.4246084,"lon":18.1889984,"elevationM":1849},{"id":"node:1097256290","kind":"peak","name":"Velika previja","lat":43.3722226,"lon":18.2138893,"elevationM":1803},{"id":"node:1097256291","kind":"peak","name":"Mala previja","lat":43.3763403,"lon":18.2078811,"elevationM":null},{"id":"node:1097256293","kind":"peak","name":"Maglaj","lat":43.3769962,"lon":18.2198974,"elevationM":null},{"id":"node:1097256294","kind":"peak","name":"Lonac","lat":43.3874441,"lon":18.2331154,"elevationM":1611},{"id":"node:1097256295","kind":"peak","name":"Đuraš","lat":43.3779623,"lon":18.1620476,"elevationM":null},{"id":"node:1097256297","kind":"peak","name":"Zeleno brdo","lat":43.3948039,"lon":18.1804153,"elevationM":1847},{"id":"node:1097256300","kind":"peak","name":"Veliki lisac","lat":43.371973,"lon":18.1967232,"elevationM":1733},{"id":"node:1097262107","kind":"peak","name":"Jaram","lat":43.3295321,"lon":18.0102989,"elevationM":1823},{"id":"node:1097262112","kind":"peak","name":"Sitnička glavica","lat":43.2945585,"lon":18.028495,"elevationM":1449},{"id":"node:1097262114","kind":"peak","name":"Ćaba","lat":43.3045752,"lon":18.0712029,"elevationM":1753},{"id":"node:1097262115","kind":"peak","name":"Bubreg","lat":43.2830628,"lon":18.0796501,"elevationM":1470},{"id":"node:1097262146","kind":"peak","name":"Kragujevača","lat":43.4228739,"lon":18.0343046,"elevationM":1307},{"id":"node:1097262179","kind":"peak","name":"Lisac","lat":43.4496627,"lon":18.0384514,"elevationM":1498},{"id":"node:1097262186","kind":"peak","name":"Vučji rat","lat":43.4436805,"lon":18.0427429,"elevationM":1443},{"id":"node:1097262191","kind":"peak","name":"Zeleni vrh","lat":43.4323377,"lon":18.0549309,"elevationM":1281},{"id":"node:1097262194","kind":"peak","name":"Tica","lat":43.431839,"lon":18.0436012,"elevationM":1321},{"id":"node:1453668143","kind":"peak","name":"Krča","lat":43.5574004,"lon":18.2357969,"elevationM":1657},{"id":"node:1502700819","kind":"peak","name":"Vratolom","lat":43.9341051,"lon":18.4663998,"elevationM":1494},{"id":"node:1611109471","kind":"peak","name":"Treštenica","lat":43.0438456,"lon":18.0770787,"elevationM":904},{"id":"node:1611109476","kind":"peak","name":"Vihorac","lat":43.0463474,"lon":18.1138549,"elevationM":949},{"id":"node:1611806977","kind":"peak","name":"Bureva Glavica","lat":43.0882109,"lon":18.0661048,"elevationM":980},{"id":"node:1611806982","kind":"peak","name":"Cikliš","lat":43.1285235,"lon":18.0229819,"elevationM":null},{"id":"node:1611807054","kind":"peak","name":"Mali Parić","lat":43.1020892,"lon":18.0131099,"elevationM":null},{"id":"node:1611807061","kind":"peak","name":"Mali Vrh","lat":43.1410982,"lon":18.0160884,"elevationM":null},{"id":"node:1611807088","kind":"peak","name":"Veliki Parić","lat":43.0991855,"lon":18.0276524,"elevationM":1112},{"id":"node:1611807095","kind":"peak","name":"Veliki Vrh","lat":43.1382319,"lon":18.011671,"elevationM":578},{"id":"node:1611807116","kind":"peak","name":"Vučja Jama","lat":43.127753,"lon":18.0705656,"elevationM":911},{"id":"node:1611867646","kind":"peak","name":"Opaljika","lat":43.1707711,"lon":18.0332679,"elevationM":1102},{"id":"node:1613660218","kind":"peak","name":"Baukova Glavica","lat":43.2656515,"lon":18.0522275,"elevationM":1113},{"id":"node:1613660224","kind":"peak","name":"Bilješki Vrh","lat":43.3767977,"lon":18.0337307,"elevationM":1145},{"id":"node:1613660270","kind":"peak","name":"Gradina","lat":43.2655855,"lon":18.0928427,"elevationM":1159},{"id":"node:1613660294","kind":"peak","name":"Jelova Glava","lat":43.2731746,"lon":18.0619336,"elevationM":1287},{"id":"node:1613660307","kind":"peak","name":"Kamenite Glavica","lat":43.3055886,"lon":18.0531469,"elevationM":1622},{"id":"node:1613660360","kind":"peak","name":"Mali Gradac","lat":43.3364188,"lon":18.0223758,"elevationM":1510},{"id":"node:1613660385","kind":"peak","name":"Paukovača","lat":43.2616426,"lon":18.0712344,"elevationM":1132},{"id":"node:1613660427","kind":"peak","name":"Varda","lat":43.2565213,"lon":18.0799371,"elevationM":1190},{"id":"node:1613660544","kind":"peak","name":"Šcepanova Glavica","lat":43.3778732,"lon":18.0111897,"elevationM":1050},{"id":"node:1613774014","kind":"peak","name":"Gradina","lat":43.4362951,"lon":18.0196407,"elevationM":1131},{"id":"node:1613774046","kind":"peak","name":"Hercegova Glavica","lat":43.4214532,"lon":18.1070044,"elevationM":1169},{"id":"node:1613774058","kind":"peak","name":"Ivanov Vrh","lat":43.4589303,"lon":18.0819647,"elevationM":1389},{"id":"node:1613774080","kind":"peak","name":"Jevički Rat","lat":43.4254234,"lon":18.081423,"elevationM":1248},{"id":"node:1613774180","kind":"peak","name":"Tomina Kuk","lat":43.4128708,"lon":18.0741198,"elevationM":1058},{"id":"node:1613774196","kind":"peak","name":"Uborak","lat":43.477348,"lon":18.0255479,"elevationM":973},{"id":"node:1613774219","kind":"peak","name":"Velika Mukunjica","lat":43.2373428,"lon":18.0498689,"elevationM":1227},{"id":"node:1613774223","kind":"peak","name":"Velika Vala","lat":43.4365177,"lon":18.070575,"elevationM":1190},{"id":"node:1629136610","kind":"peak","name":"Lovar","lat":43.4296898,"lon":18.8026072,"elevationM":1494},{"id":"node:1629136616","kind":"peak","name":"Slabić","lat":43.4374932,"lon":18.8099539,"elevationM":1503},{"id":"node:1629136627","kind":"peak","name":"Zeča","lat":43.4249913,"lon":18.8289786,"elevationM":1692},{"id":"node:1631954802","kind":"peak","name":"Komolj","lat":43.1640141,"lon":18.0888826,"elevationM":1256},{"id":"node:1635712769","kind":"peak","name":"Runjava Brdo","lat":43.2073446,"lon":18.0637128,"elevationM":1028},{"id":"node:1635712770","kind":"peak","name":"Zvicoreva Glava","lat":43.0910841,"lon":18.1080137,"elevationM":982},{"id":"node:1637632433","kind":"peak","name":"Kosena Gradina","lat":43.1362974,"lon":18.1771375,"elevationM":1145},{"id":"node:1637632481","kind":"peak","name":"Velike Vojne","lat":43.1900109,"lon":18.1996141,"elevationM":885},{"id":"node:1637632483","kind":"peak","name":"Vilenjak","lat":43.2332191,"lon":18.0769878,"elevationM":1208},{"id":"node:1637632491","kind":"peak","name":"Zidak","lat":43.2154621,"lon":18.1519524,"elevationM":1026},{"id":"node:1637632968","kind":"peak","name":"Čalice Kose","lat":43.1563181,"lon":18.1523488,"elevationM":1118},{"id":"node:1638461396","kind":"peak","name":"Ržanik","lat":43.1170664,"lon":18.186712,"elevationM":1138},{"id":"node:1639698173","kind":"peak","name":"Cunjaga","lat":43.0534601,"lon":18.1483017,"elevationM":1014},{"id":"node:1639698174","kind":"peak","name":"Karst","lat":43.0757424,"lon":18.1363398,"elevationM":908},{"id":"node:1722850873","kind":"peak","name":"Crni Vrh","lat":43.922937,"lon":18.6589001,"elevationM":1351},{"id":"node:1722851310","kind":"peak","name":"Veliki Vrh","lat":43.9309083,"lon":18.6541837,"elevationM":1328},{"id":"node:1722855660","kind":"peak","name":"Ljeljen","lat":43.9116226,"lon":18.6835335,"elevationM":1311},{"id":"node:1722858080","kind":"peak","name":"Gradić","lat":43.9022262,"lon":18.6541837,"elevationM":1396},{"id":"node:1722860183","kind":"peak","name":"Gavranka","lat":43.8841035,"lon":18.649978,"elevationM":1504},{"id":"node:1722864432","kind":"peak","name":"Mali Lupoglav","lat":43.859788,"lon":18.6433656,"elevationM":1627},{"id":"node:1723647933","kind":"peak","name":"Lisina","lat":43.9116769,"lon":18.7122838,"elevationM":1294},{"id":"node:1723651056","kind":"peak","name":"Gradina","lat":43.9386312,"lon":18.7670433,"elevationM":1071},{"id":"node:1730670431","kind":"peak","name":"Bijeli kom","lat":43.1012082,"lon":18.9828038,"elevationM":2030},{"id":"node:1817821170","kind":"peak","name":"Orlovac","lat":43.6637743,"lon":18.2214592,"elevationM":1525},{"id":"node:1818789461","kind":"peak","name":"Velika glavica","lat":43.6018577,"lon":18.3541099,"elevationM":1893},{"id":"node:1927219614","kind":"peak","name":"Bajovo ždrijelo","lat":43.0044444,"lon":18.795,"elevationM":1942},{"id":"node:1927219616","kind":"peak","name":"Veliki Vitao","lat":43.2255876,"lon":18.7573849,"elevationM":2397},{"id":"node:1943593748","kind":"peak","name":"Lokva","lat":43.724799,"lon":18.9345919,"elevationM":1248},{"id":"node:1967122395","kind":"peak","name":"Goli Vrh","lat":43.101322,"lon":18.4677646,"elevationM":1492},{"id":"node:1968698444","kind":"peak","name":"Velika Znadarica","lat":43.2221607,"lon":18.3829542,"elevationM":1544},{"id":"node:1968698447","kind":"peak","name":"Hum","lat":43.241081,"lon":18.362272,"elevationM":1349},{"id":"node:1982779668","kind":"peak","name":"Veliki Borovac","lat":43.2912129,"lon":18.5496003,"elevationM":1296},{"id":"node:1985073346","kind":"peak","name":"Hum","lat":43.4998508,"lon":18.2300558,"elevationM":1201},{"id":"node:1985073347","kind":"peak","name":"Hum","lat":43.5117521,"lon":18.2744345,"elevationM":1090},{"id":"node:1985073349","kind":"peak","name":"Vučino Brdo","lat":43.4989135,"lon":18.287476,"elevationM":1119},{"id":"node:2488211107","kind":"peak","name":"Kruščičko Brdo","lat":43.4546759,"lon":18.7876559,"elevationM":1190},{"id":"node:2881318921","kind":"peak","name":"Trebević","lat":43.8184126,"lon":18.4608877,"elevationM":1627},{"id":"node:3408385456","kind":"peak","name":"Bučki gaj","lat":43.9560487,"lon":18.1810745,"elevationM":570},{"id":"node:3408402048","kind":"peak","name":"Plješevica","lat":43.9723655,"lon":18.2006553,"elevationM":660},{"id":"node:3408433853","kind":"peak","name":"Četnica","lat":43.9693963,"lon":18.1725519,"elevationM":833},{"id":"node:3408433854","kind":"peak","name":"Krstac","lat":43.9643018,"lon":18.1892091,"elevationM":633},{"id":"node:3408433855","kind":"peak","name":"Cemerac","lat":43.9724058,"lon":18.1822606,"elevationM":654},{"id":"node:3812613348","kind":"peak","name":"Ruda Glava","lat":43.6666168,"lon":18.730765,"elevationM":1488},{"id":"node:3815648888","kind":"peak","name":"Borovac","lat":43.6737274,"lon":18.7146941,"elevationM":1750},{"id":"node:4110017212","kind":"peak","name":"Bijela stijena","lat":43.8279841,"lon":18.4485718,"elevationM":1428},{"id":"node:4110017216","kind":"peak","name":"Rudine","lat":43.8098768,"lon":18.4761018,"elevationM":1451},{"id":"node:4584387262","kind":"peak","name":"Hum","lat":43.8725102,"lon":18.3863087,"elevationM":812},{"id":"node:4623127396","kind":"peak","name":"Žuta greda","lat":43.1379856,"lon":18.999443,"elevationM":null},{"id":"node:4624236699","kind":"peak","name":"Mliječno brdo","lat":43.0448725,"lon":18.9967282,"elevationM":1638},{"id":"node:4624243171","kind":"peak","name":"Balača","lat":43.0338465,"lon":18.9974588,"elevationM":1667},{"id":"node:4624260774","kind":"peak","name":"Siljevo brdo","lat":43.0252508,"lon":18.9985317,"elevationM":1557},{"id":"node:4624884538","kind":"peak","name":"Glave","lat":43.0095935,"lon":18.997888,"elevationM":1205},{"id":"node:4639610611","kind":"peak","name":"Oštra glava","lat":43.1951096,"lon":18.9758284,"elevationM":null},{"id":"node:4639610612","kind":"peak","name":"Turska glava","lat":43.1565525,"lon":18.9779957,"elevationM":1855},{"id":"node:4639613578","kind":"peak","name":"Ćeranića greda","lat":43.1638613,"lon":18.988703,"elevationM":null},{"id":"node:4639614095","kind":"peak","name":"Velika Orajevica","lat":43.1684939,"lon":18.9817722,"elevationM":1839},{"id":"node:4639614426","kind":"peak","name":"Pištet","lat":43.1781656,"lon":18.969992,"elevationM":1675},{"id":"node:4639614427","kind":"peak","name":"Mala Orajevica","lat":43.1735964,"lon":18.9815362,"elevationM":1645},{"id":"node:4639614428","kind":"peak","name":"Gomila","lat":43.1800433,"lon":18.9867933,"elevationM":1637},{"id":"node:4639614429","kind":"peak","name":"Borova glava","lat":43.177571,"lon":18.9813431,"elevationM":null},{"id":"node:4639614900","kind":"peak","name":"Dubrovnik","lat":43.1631883,"lon":18.9667733,"elevationM":1820},{"id":"node:4639615390","kind":"peak","name":"Bubreg","lat":43.1707952,"lon":18.9563878,"elevationM":null},{"id":"node:4639615391","kind":"peak","name":"Lisičje brdo","lat":43.1690729,"lon":18.9637049,"elevationM":null},{"id":"node:4639622028","kind":"peak","name":"Vito","lat":43.1929977,"lon":18.9684685,"elevationM":1754},{"id":"node:4639622030","kind":"peak","name":"Obla glavica","lat":43.1751143,"lon":18.9910848,"elevationM":1632},{"id":"node:4639622032","kind":"peak","name":"Ćetkovsko brdo","lat":43.1879446,"lon":18.9585336,"elevationM":null},{"id":"node:4639622033","kind":"peak","name":"Mali Ljeljenak","lat":43.1954537,"lon":18.9655717,"elevationM":null},{"id":"node:4639622036","kind":"peak","name":"Veliki Ljeljenak","lat":43.1985041,"lon":18.9540918,"elevationM":1768},{"id":"node:4639622037","kind":"peak","name":"Strmena strana","lat":43.1835943,"lon":18.9791115,"elevationM":null},{"id":"node:4639625367","kind":"peak","name":"Borjanica","lat":43.2084354,"lon":18.983403,"elevationM":1462},{"id":"node:4639625379","kind":"peak","name":"razošlje","lat":43.207529,"lon":18.9685328,"elevationM":1452},{"id":"node:4639625384","kind":"peak","name":"Kom","lat":43.2134094,"lon":18.9515384,"elevationM":1390},{"id":"node:4639625851","kind":"peak","name":"Blizanac","lat":43.1948906,"lon":18.9280637,"elevationM":1440},{"id":"node:4639625853","kind":"peak","name":"Đurino brdo","lat":43.1810752,"lon":18.9303382,"elevationM":1514},{"id":"node:4639625854","kind":"peak","name":"Borjanica","lat":43.1753803,"lon":18.9303167,"elevationM":1561},{"id":"node:4639625855","kind":"peak","name":"Kamena glava","lat":43.189509,"lon":18.9221843,"elevationM":1475},{"id":"node:4639625924","kind":"peak","name":"Oštre glave","lat":43.2378303,"lon":18.9736612,"elevationM":1426},{"id":"node:4639629665","kind":"peak","name":"Gradac","lat":43.2288575,"lon":18.9564307,"elevationM":1469},{"id":"node:4639629669","kind":"peak","name":"Jablan vrh","lat":43.2095935,"lon":18.9344795,"elevationM":1675},{"id":"node:4639631148","kind":"peak","name":"Borova strana","lat":43.2046981,"lon":18.9380629,"elevationM":1613},{"id":"node:4639634890","kind":"peak","name":"Ličanski urljaj","lat":43.1692145,"lon":18.9512379,"elevationM":1771},{"id":"node:4639634891","kind":"peak","name":"Grčka glavica","lat":43.1739093,"lon":18.9591987,"elevationM":1636},{"id":"node:4639635943","kind":"peak","name":"Lijepa glava","lat":43.1535314,"lon":18.9424618,"elevationM":1726},{"id":"node:4639635944","kind":"peak","name":"Šakački kom","lat":43.1531087,"lon":18.9500792,"elevationM":null},{"id":"node:4639635984","kind":"peak","name":"Poljanski kom","lat":43.1481454,"lon":18.9575272,"elevationM":1932},{"id":"node:4639635985","kind":"peak","name":"Kom","lat":43.1473,"lon":18.9516886,"elevationM":null},{"id":"node:4639636313","kind":"peak","name":"Bogodo","lat":43.1428545,"lon":18.9480837,"elevationM":null},{"id":"node:4639636314","kind":"peak","name":"Prečanska strana","lat":43.1406156,"lon":18.9612158,"elevationM":2005},{"id":"node:4639637856","kind":"peak","name":"Krecmani","lat":43.134148,"lon":18.9866431,"elevationM":null},{"id":"node:4639637858","kind":"peak","name":"Planinica","lat":43.1456257,"lon":18.9768799,"elevationM":2051},{"id":"node:4639637859","kind":"peak","name":"Raklje","lat":43.139316,"lon":18.9832313,"elevationM":2159},{"id":"node:4639637860","kind":"peak","name":"Prisjeka","lat":43.150244,"lon":18.9810641,"elevationM":null},{"id":"node:4639637861","kind":"peak","name":"Krecmani","lat":43.1324733,"lon":18.9919861,"elevationM":2056},{"id":"node:4639651365","kind":"peak","name":"Pelinov kom","lat":43.1273681,"lon":18.9366253,"elevationM":1757},{"id":"node:4639651369","kind":"peak","name":"Kobilja glava","lat":43.1375631,"lon":18.8878509,"elevationM":1306},{"id":"node:4639651372","kind":"peak","name":"Todorova glava","lat":43.1326299,"lon":18.9696486,"elevationM":1815},{"id":"node:4639651376","kind":"peak","name":"Čelina","lat":43.1288551,"lon":18.9181094,"elevationM":null},{"id":"node:4639651377","kind":"peak","name":"Posto","lat":43.1376868,"lon":18.9494784,"elevationM":1897},{"id":"node:4639651379","kind":"peak","name":"Brvno","lat":43.1310162,"lon":18.9308317,"elevationM":1486},{"id":"node:4639651381","kind":"peak","name":"Mužice","lat":43.1308752,"lon":18.9505298,"elevationM":1838},{"id":"node:4639651382","kind":"peak","name":"Šuplja greda","lat":43.1273055,"lon":18.9682539,"elevationM":1879},{"id":"node:4639654186","kind":"peak","name":"Osojnica","lat":43.1585866,"lon":18.8868006,"elevationM":1369},{"id":"node:4639654433","kind":"peak","name":"Previja","lat":43.1472695,"lon":18.902014,"elevationM":1426},{"id":"node:4639664323","kind":"peak","name":"Semunica","lat":43.1433085,"lon":18.9396079,"elevationM":1696},{"id":"node:4639664327","kind":"peak","name":"Jelovi kuk","lat":43.1749883,"lon":18.9199312,"elevationM":1487},{"id":"node:4639673231","kind":"peak","name":"Geadina","lat":43.1792922,"lon":18.8978942,"elevationM":1393},{"id":"node:4639673232","kind":"peak","name":"Veliki vrh","lat":43.202743,"lon":18.905104,"elevationM":1721},{"id":"node:4639673238","kind":"peak","name":"Gornji Miljanovići","lat":43.2054489,"lon":18.8921006,"elevationM":1559},{"id":"node:4639673241","kind":"peak","name":"Bilo","lat":43.1882567,"lon":18.9120348,"elevationM":1458},{"id":"node:4639673244","kind":"peak","name":"Donji Miljanovići","lat":43.2029307,"lon":18.886586,"elevationM":1559},{"id":"node:4639673245","kind":"peak","name":"Ciganska glava","lat":43.1930759,"lon":18.90637,"elevationM":1528},{"id":"node:4639673246","kind":"peak","name":"Mali vrh","lat":43.1993636,"lon":18.9102967,"elevationM":null},{"id":"node:4639683334","kind":"peak","name":"Tršteno brdo","lat":43.2136596,"lon":18.9124854,"elevationM":1771},{"id":"node:4639683335","kind":"peak","name":"Vagan","lat":43.2186012,"lon":18.8942035,"elevationM":1776},{"id":"node:4639683338","kind":"peak","name":"Debelo brdo","lat":43.2266382,"lon":18.9249115,"elevationM":null},{"id":"node:4639683339","kind":"peak","name":"Borovnjak","lat":43.2153009,"lon":18.903795,"elevationM":null},{"id":"node:4639683346","kind":"peak","name":"Međeđa glava","lat":43.2432857,"lon":18.9481051,"elevationM":1396},{"id":"node:4639684330","kind":"peak","name":"Vršćići","lat":43.2338283,"lon":18.9003833,"elevationM":1654},{"id":"node:4639684750","kind":"peak","name":"Zelene glave","lat":43.1528113,"lon":18.969198,"elevationM":1819},{"id":"node:4639686967","kind":"peak","name":"Bobotov vrh","lat":43.2223845,"lon":18.8833459,"elevationM":1774},{"id":"node:4639704023","kind":"peak","name":"Jankovića urljaj","lat":43.1819679,"lon":18.9548214,"elevationM":1702},{"id":"node:4639705026","kind":"peak","name":"Šajkovo brdo","lat":43.1851745,"lon":18.9466052,"elevationM":null},{"id":"node:4639709641","kind":"peak","name":"Lisičine","lat":43.1832822,"lon":18.9207251,"elevationM":1477},{"id":"node:4639711405","kind":"peak","name":"Jagodin vrh","lat":43.2093425,"lon":18.9041598,"elevationM":null},{"id":"node:4639719304","kind":"peak","name":"Borje","lat":43.2248393,"lon":18.976837,"elevationM":null},{"id":"node:4639734729","kind":"peak","name":"Prijeka greda","lat":43.1358399,"lon":18.89695,"elevationM":null},{"id":"node:4639753358","kind":"peak","name":"Jovorovi kraj","lat":43.2187724,"lon":18.9193079,"elevationM":null},{"id":"node:4639855887","kind":"peak","name":"Ružica","lat":43.1123008,"lon":18.9636834,"elevationM":2093},{"id":"node:4639857689","kind":"peak","name":"Mali Đis","lat":43.1002067,"lon":18.968447,"elevationM":null},{"id":"node:4639857696","kind":"peak","name":"Veliki Đis","lat":43.1034341,"lon":18.9726956,"elevationM":2044},{"id":"node:4639857697","kind":"peak","name":"Jablan glavice","lat":43.1250817,"lon":18.9821585,"elevationM":1883},{"id":"node:4639861918","kind":"peak","name":"Nerin greda","lat":43.1048598,"lon":18.9551862,"elevationM":1890},{"id":"node:4639861920","kind":"peak","name":"Kozji vrh","lat":43.1057676,"lon":18.9462169,"elevationM":1901},{"id":"node:4639864240","kind":"peak","name":"Turska glava","lat":43.0928268,"lon":18.9482124,"elevationM":null},{"id":"node:4639889362","kind":"peak","name":"Gostajne grede","lat":43.098625,"lon":18.9372894,"elevationM":null},{"id":"node:4639889363","kind":"peak","name":"Dobrovrg","lat":43.0895981,"lon":18.9351447,"elevationM":1704},{"id":"node:4639896985","kind":"peak","name":"Lojanik","lat":43.0859468,"lon":18.96437,"elevationM":1880},{"id":"node:4639914991","kind":"peak","name":"Kolijevka","lat":43.0926693,"lon":18.9204676,"elevationM":1759},{"id":"node:4639914992","kind":"peak","name":"Mali Treskavac","lat":43.0852259,"lon":18.9369042,"elevationM":1804},{"id":"node:4639914994","kind":"peak","name":"Obla glava","lat":43.0881415,"lon":18.9129575,"elevationM":1574},{"id":"node:4639914995","kind":"peak","name":"Visoka glava","lat":43.1019136,"lon":18.9034732,"elevationM":1584},{"id":"node:4639914998","kind":"peak","name":"Lisičja glava","lat":43.081199,"lon":18.9222915,"elevationM":1681},{"id":"node:4639966894","kind":"peak","name":"Kom","lat":43.0639562,"lon":18.9660223,"elevationM":1863},{"id":"node:4639966897","kind":"peak","name":"Veliki Treskavac","lat":43.0691301,"lon":18.9599927,"elevationM":2094},{"id":"node:4639966899","kind":"peak","name":"Jagodno brdo","lat":43.0855237,"lon":18.9024432,"elevationM":1483},{"id":"node:4639966900","kind":"peak","name":"Prodanovac","lat":43.0617308,"lon":18.9440496,"elevationM":1842},{"id":"node:4639966901","kind":"peak","name":"Vodeni vrhovi","lat":43.071026,"lon":18.9357884,"elevationM":1781},{"id":"node:4639966903","kind":"peak","name":"Buručkovac","lat":43.0678133,"lon":18.954242,"elevationM":2001},{"id":"node:4640021992","kind":"peak","name":"Suvi klek","lat":43.114399,"lon":18.9650138,"elevationM":null},{"id":"node:4640021994","kind":"peak","name":"Siljeva glava","lat":43.0381475,"lon":18.9760859,"elevationM":1566},{"id":"node:4640021996","kind":"peak","name":"Ležakovac","lat":43.0554125,"lon":18.9635547,"elevationM":1853},{"id":"node:4640034239","kind":"peak","name":"Somina","lat":43.0503323,"lon":18.984905,"elevationM":1868},{"id":"node:4640034242","kind":"peak","name":"Lipovac","lat":43.0623422,"lon":18.9773949,"elevationM":1943},{"id":"node:4640034243","kind":"peak","name":"Mliječno brdo","lat":43.04119,"lon":18.99381,"elevationM":1748},{"id":"node:4640034244","kind":"peak","name":"Goveđa glava","lat":43.1194434,"lon":18.9373977,"elevationM":1838},{"id":"node:4640041893","kind":"peak","name":"Tirna varda","lat":43.0648662,"lon":18.9237078,"elevationM":1720},{"id":"node:4640041894","kind":"peak","name":"Božur","lat":43.1122217,"lon":18.8768871,"elevationM":1561},{"id":"node:4640041896","kind":"peak","name":"Lulin vrh","lat":43.0595673,"lon":18.9201458,"elevationM":1654},{"id":"node:4640041899","kind":"peak","name":"Jarčište","lat":43.1157626,"lon":18.9128287,"elevationM":1545},{"id":"node:4640041904","kind":"peak","name":"Vagani","lat":43.0723435,"lon":18.9108117,"elevationM":1626},{"id":"node:4640041907","kind":"peak","name":"Oguljenica","lat":43.0658687,"lon":18.9150174,"elevationM":1622},{"id":"node:4640044494","kind":"peak","name":"Milojev mramor","lat":43.0477599,"lon":18.9493068,"elevationM":1666},{"id":"node:4640044495","kind":"peak","name":"Zborno brdo","lat":43.0467414,"lon":18.9569886,"elevationM":1703},{"id":"node:4641660885","kind":"peak","name":"Ružica","lat":43.1104681,"lon":18.9749702,"elevationM":2141},{"id":"node:4641680866","kind":"peak","name":"Brezovo brdo","lat":43.028354,"lon":18.9438823,"elevationM":1328},{"id":"node:4641680870","kind":"peak","name":"Obla glava","lat":43.0500022,"lon":18.9411528,"elevationM":1690},{"id":"node:4641680879","kind":"peak","name":"Jastrebica","lat":43.0303524,"lon":18.9736183,"elevationM":1406},{"id":"node:4641680880","kind":"peak","name":"Zmijski krš","lat":43.0380848,"lon":18.9419253,"elevationM":1406},{"id":"node:4641694968","kind":"peak","name":"Krši","lat":43.113225,"lon":18.9122494,"elevationM":null},{"id":"node:4641698169","kind":"peak","name":"Lisac","lat":43.002896,"lon":18.9782102,"elevationM":1131},{"id":"node:4641698170","kind":"peak","name":"Kita","lat":43.0067507,"lon":18.963001,"elevationM":1230},{"id":"node:4641724042","kind":"peak","name":"Mušnica","lat":43.0315852,"lon":18.914335,"elevationM":1142},{"id":"node:4641724044","kind":"peak","name":"Brijeg","lat":43.0067978,"lon":18.948324,"elevationM":null},{"id":"node:4641724049","kind":"peak","name":"Pitoma kosa","lat":43.0020109,"lon":18.875089,"elevationM":1215},{"id":"node:4641724050","kind":"peak","name":"Glavice","lat":43.0054797,"lon":18.8953235,"elevationM":985},{"id":"node:4641724051","kind":"peak","name":"Medeno brdo","lat":43.0021843,"lon":18.908756,"elevationM":1063},{"id":"node:4641724052","kind":"peak","name":"Vukotin vrh","lat":43.0244701,"lon":18.8916071,"elevationM":1205},{"id":"node:4641724057","kind":"peak","name":"Sijeva kosa","lat":43.0222825,"lon":18.9278534,"elevationM":1204},{"id":"node:4641724075","kind":"peak","name":"Stražnica","lat":43.0296873,"lon":18.8815263,"elevationM":1204},{"id":"node:4641724085","kind":"peak","name":"Razvršje","lat":43.0169179,"lon":18.8989714,"elevationM":1128},{"id":"node:4641732499","kind":"peak","name":"Ilijino brdo","lat":43.0505675,"lon":18.8721879,"elevationM":null},{"id":"node:4641732500","kind":"peak","name":"Brdo","lat":43.0341881,"lon":18.8797024,"elevationM":1189},{"id":"node:4641745576","kind":"peak","name":"Orluja","lat":43.0508333,"lon":18.9132793,"elevationM":1317},{"id":"node:4641745577","kind":"peak","name":"Kosmate glavice","lat":43.0447185,"lon":18.9218409,"elevationM":1300},{"id":"node:4641752003","kind":"peak","name":"Mali vrhovi","lat":43.0558194,"lon":18.9433844,"elevationM":1715},{"id":"node:4731311421","kind":"peak","name":"Debelo brdo","lat":43.8468775,"lon":18.4110222,"elevationM":745},{"id":"node:5247873126","kind":"peak","name":"Visočica","lat":43.5876359,"lon":18.2540122,"elevationM":1736},{"id":"node:5253745686","kind":"peak","name":"Bregoč","lat":43.3546204,"lon":18.5678328,"elevationM":2014},{"id":"node:5257307829","kind":"peak","name":"Crni vrh","lat":43.2711842,"lon":18.9754268,"elevationM":1332},{"id":"node:5257310489","kind":"peak","name":"Sokolina","lat":43.255074,"lon":18.9757068,"elevationM":1337},{"id":"node:5257313148","kind":"peak","name":"Lastve","lat":43.2627788,"lon":18.9709862,"elevationM":1313},{"id":"node:5257315795","kind":"peak","name":"Stolaš","lat":43.2517843,"lon":18.9559985,"elevationM":1406},{"id":"node:5257328569","kind":"peak","name":"Ljeljenak","lat":43.2768561,"lon":18.9598282,"elevationM":1317},{"id":"node:5257328983","kind":"peak","name":"Veliki Vis","lat":43.2557929,"lon":18.9854915,"elevationM":null},{"id":"node:5257328984","kind":"peak","name":"Mali Vis","lat":43.2575744,"lon":18.9912637,"elevationM":null},{"id":"node:5257341653","kind":"peak","name":"Jasikovac","lat":43.2822612,"lon":18.9135676,"elevationM":1430},{"id":"node:5257358744","kind":"peak","name":"Šiljak","lat":43.2565274,"lon":18.9240051,"elevationM":1552},{"id":"node:5257359175","kind":"peak","name":"Karaula","lat":43.2528712,"lon":18.9372762,"elevationM":1543},{"id":"node:5257360817","kind":"peak","name":"Planinica","lat":43.256418,"lon":18.8893612,"elevationM":1566},{"id":"node:5257361118","kind":"peak","name":"Siljevac","lat":43.259638,"lon":18.9129668,"elevationM":1538},{"id":"node:5257368829","kind":"peak","name":"Berino brdo","lat":43.2655203,"lon":18.943368,"elevationM":1439},{"id":"node:5257384586","kind":"peak","name":"Vrh paleža","lat":43.3029069,"lon":18.8852864,"elevationM":1411},{"id":"node:5257384587","kind":"peak","name":"Omar","lat":43.2854462,"lon":18.8827758,"elevationM":1312},{"id":"node:5257389246","kind":"peak","name":"Bašino brdo","lat":43.2902726,"lon":18.8759094,"elevationM":null},{"id":"node:5257391256","kind":"peak","name":"Petrovo brdo","lat":43.297114,"lon":18.8874944,"elevationM":1384},{"id":"node:5257402361","kind":"peak","name":"Karaula","lat":43.291241,"lon":18.9227279,"elevationM":1450},{"id":"node:5257403355","kind":"peak","name":"Prstenak","lat":43.2857274,"lon":18.9284141,"elevationM":1399},{"id":"node:5257411508","kind":"peak","name":"Bjeluševac","lat":43.3180584,"lon":18.9180082,"elevationM":1396},{"id":"node:5257414677","kind":"peak","name":"Grabač Vrh","lat":43.3070144,"lon":18.9284163,"elevationM":1487},{"id":"node:5257415652","kind":"peak","name":"Borova glavica","lat":43.3185829,"lon":18.9025598,"elevationM":1217},{"id":"node:5257417272","kind":"peak","name":"Kamenito brdo","lat":43.3137587,"lon":18.9267834,"elevationM":1487},{"id":"node:5257429986","kind":"peak","name":"Gradina","lat":43.337704,"lon":18.9217193,"elevationM":1176},{"id":"node:5257433945","kind":"peak","name":"Val","lat":43.3367426,"lon":18.9441405,"elevationM":658},{"id":"node:5257453757","kind":"peak","name":"Šćepanova strana","lat":43.3170693,"lon":18.9374285,"elevationM":1504},{"id":"node:5257507032","kind":"peak","name":"Kosova strana","lat":43.3450863,"lon":18.8990836,"elevationM":1062},{"id":"node:5257513989","kind":"peak","name":"Staro brdo","lat":43.3347855,"lon":18.9000063,"elevationM":1101},{"id":"node:5257522358","kind":"peak","name":"Risna glavica","lat":43.3300103,"lon":18.9073019,"elevationM":1137},{"id":"node:5257523187","kind":"peak","name":"Vučice","lat":43.3660141,"lon":18.9085454,"elevationM":881},{"id":"node:5257526726","kind":"peak","name":"Veliki Vis","lat":43.3609449,"lon":18.929914,"elevationM":1037},{"id":"node:5257526728","kind":"peak","name":"Mali Vis","lat":43.3672464,"lon":18.9201079,"elevationM":988},{"id":"node:5257527711","kind":"peak","name":"Glavica","lat":43.3546512,"lon":18.8908868,"elevationM":531},{"id":"node:5257528129","kind":"peak","name":"Tabalin","lat":43.3567567,"lon":18.9387997,"elevationM":1112},{"id":"node:5257533673","kind":"peak","name":"Ulasci","lat":43.3228299,"lon":18.8727122,"elevationM":1259},{"id":"node:5257534558","kind":"peak","name":"Soko","lat":43.3311177,"lon":18.8733559,"elevationM":1439},{"id":"node:5257534622","kind":"peak","name":"Smreka","lat":43.3162895,"lon":18.8737829,"elevationM":1350},{"id":"node:5257535698","kind":"peak","name":"Čardak","lat":43.3621765,"lon":18.895306,"elevationM":989},{"id":"node:5257538139","kind":"peak","name":"Bjeluševac","lat":43.3099967,"lon":18.8704141,"elevationM":1444},{"id":"node:5257538531","kind":"peak","name":"Ravna k.","lat":43.3110428,"lon":18.8925391,"elevationM":1463},{"id":"node:5257558093","kind":"peak","name":"Gradina","lat":43.3443123,"lon":18.9439044,"elevationM":1002},{"id":"node:5257560431","kind":"peak","name":"Lastva","lat":43.3399209,"lon":18.9769289,"elevationM":1477},{"id":"node:5257562455","kind":"peak","name":"Runjava glava","lat":43.3509284,"lon":18.9900803,"elevationM":1328},{"id":"node:5257570915","kind":"peak","name":"Pandurica","lat":43.3288763,"lon":18.9932356,"elevationM":1681},{"id":"node:5257579321","kind":"peak","name":"Pogledine","lat":43.3090818,"lon":18.9714132,"elevationM":1384},{"id":"node:5257627584","kind":"peak","name":"Humska glavica","lat":43.3580888,"lon":18.8411527,"elevationM":772},{"id":"node:5257648016","kind":"peak","name":"Vjetreno brdo","lat":43.2504063,"lon":18.8400584,"elevationM":1274},{"id":"node:5257651929","kind":"peak","name":"Siljevica","lat":43.2788781,"lon":18.8282255,"elevationM":1543},{"id":"node:5257653261","kind":"peak","name":"Razvršje","lat":43.2631017,"lon":18.8286,"elevationM":1295},{"id":"node:5257679375","kind":"peak","name":"Pogledina","lat":43.3065519,"lon":18.8677817,"elevationM":1406},{"id":"node:5257680818","kind":"peak","name":"Rtine","lat":43.2564568,"lon":18.8168562,"elevationM":754},{"id":"node:5257683870","kind":"peak","name":"Siljeva glavica","lat":43.2839378,"lon":18.834651,"elevationM":null},{"id":"node:5257692398","kind":"peak","name":"Oblik","lat":43.3426898,"lon":18.8085832,"elevationM":1508},{"id":"node:5257694084","kind":"peak","name":"Pješto brdo","lat":43.3567299,"lon":18.8565153,"elevationM":null},{"id":"node:5437017443","kind":"peak","name":"Velika Štita","lat":43.1365614,"lon":18.984208,"elevationM":null},{"id":"node:5493689659","kind":"peak","name":"Crni vrh","lat":43.7058296,"lon":18.2688401,"elevationM":null},{"id":"node:5594596100","kind":"peak","name":"Uževica","lat":43.936439,"lon":18.4286062,"elevationM":null},{"id":"node:5594596101","kind":"peak","name":"Bijela stijena","lat":43.9350424,"lon":18.4333334,"elevationM":null},{"id":"node:5594596102","kind":"peak","name":"Čardaklija","lat":43.9292102,"lon":18.4322169,"elevationM":null},{"id":"node:5649849525","kind":"peak","name":"Glavica","lat":43.2060787,"lon":18.1031956,"elevationM":961},{"id":"node:5649849535","kind":"peak","name":"Osredak","lat":43.1832296,"lon":18.0679968,"elevationM":null},{"id":"node:6256733732","kind":"peak","name":"Košuta","lat":43.6937695,"lon":18.5899856,"elevationM":1907},{"id":"node:6256733733","kind":"peak","name":"Klekovo brdo","lat":43.7020383,"lon":18.6004434,"elevationM":1864},{"id":"node:6256733734","kind":"peak","name":"Šator","lat":43.7171922,"lon":18.5741069,"elevationM":1875},{"id":"node:6256733735","kind":"peak","name":"Ogorjelica","lat":43.7185843,"lon":18.555406,"elevationM":1916},{"id":"node:6256733736","kind":"peak","name":"Zelena glava","lat":43.7343083,"lon":18.5768155,"elevationM":1640},{"id":"node:6256733737","kind":"peak","name":"Veliki javor","lat":43.7472429,"lon":18.5785172,"elevationM":1584},{"id":"node:6256733738","kind":"peak","name":"Mali javor","lat":43.7435232,"lon":18.5764544,"elevationM":1589},{"id":"node:6257437957","kind":"peak","name":"Orlijak","lat":43.7609986,"lon":18.9118207,"elevationM":852},{"id":"node:6257531515","kind":"peak","name":"Humka","lat":43.7507563,"lon":18.8771177,"elevationM":1171},{"id":"node:6257560086","kind":"peak","name":"Kovačev krš","lat":43.745018,"lon":18.8955577,"elevationM":1133},{"id":"node:6257560087","kind":"peak","name":"Borovo brdo","lat":43.7467732,"lon":18.8860601,"elevationM":1193},{"id":"node:6257565970","kind":"peak","name":"Putiševa ravan","lat":43.7369639,"lon":18.8998858,"elevationM":1178},{"id":"node:6257568424","kind":"peak","name":"Prosjek","lat":43.7314499,"lon":18.9165335,"elevationM":1194},{"id":"node:6257568425","kind":"peak","name":"Vrhovi","lat":43.7311506,"lon":18.9096706,"elevationM":1243},{"id":"node:6257568426","kind":"peak","name":"Golo brdo","lat":43.7283818,"lon":18.901091,"elevationM":1281},{"id":"node:6257873533","kind":"peak","name":"Mihalj","lat":43.7520718,"lon":18.830348,"elevationM":918},{"id":"node:6262043625","kind":"peak","name":"Priboj","lat":43.7477749,"lon":18.8899154,"elevationM":1172},{"id":"node:6262052045","kind":"peak","name":"Motka","lat":43.7220792,"lon":18.8844202,"elevationM":1262},{"id":"node:6262121115","kind":"peak","name":"Čemernička njiva","lat":43.7394577,"lon":18.8786624,"elevationM":1288},{"id":"node:6262159470","kind":"peak","name":"Golo brdo","lat":43.6891895,"lon":18.9632452,"elevationM":530},{"id":"node:6262162864","kind":"peak","name":"Gradina","lat":43.6851553,"lon":18.9495624,"elevationM":674},{"id":"node:6270576690","kind":"peak","name":"Orlić","lat":43.7275997,"lon":18.8287049,"elevationM":1102},{"id":"node:6270580744","kind":"peak","name":"Previla","lat":43.7320994,"lon":18.845079,"elevationM":1120},{"id":"node:6270580745","kind":"peak","name":"Kolibe","lat":43.7175125,"lon":18.843507,"elevationM":1212},{"id":"node:6270607055","kind":"peak","name":"Samar","lat":43.7179031,"lon":18.8269462,"elevationM":1207},{"id":"node:6270609635","kind":"peak","name":"Brijeg","lat":43.7096493,"lon":18.836887,"elevationM":null},{"id":"node:6270612670","kind":"peak","name":"Križevac","lat":43.7051741,"lon":18.8237938,"elevationM":1319},{"id":"node:6270654236","kind":"peak","name":"Dumača","lat":43.6828591,"lon":18.8372107,"elevationM":1152},{"id":"node:6270654238","kind":"peak","name":"Kik","lat":43.6799299,"lon":18.8520462,"elevationM":953},{"id":"node:6270663491","kind":"peak","name":"Pozučina","lat":43.6707079,"lon":18.883153,"elevationM":650},{"id":"node:6270672772","kind":"peak","name":"Mišijak","lat":43.6669715,"lon":18.962356,"elevationM":612},{"id":"node:6270672773","kind":"peak","name":"Biserna","lat":43.6615659,"lon":18.9871957,"elevationM":618},{"id":"node:6270676480","kind":"peak","name":"Samari","lat":43.6480423,"lon":18.9821889,"elevationM":663},{"id":"node:6278321780","kind":"peak","name":"Palež","lat":43.6941874,"lon":18.9064303,"elevationM":760},{"id":"node:6278350313","kind":"peak","name":"Zlatna Glava","lat":43.6888258,"lon":18.918247,"elevationM":889},{"id":"node:6278350320","kind":"peak","name":"Ilijak Brdo","lat":43.7048485,"lon":18.930131,"elevationM":775},{"id":"node:6278371497","kind":"peak","name":"Ribnjak","lat":43.7056854,"lon":18.9411588,"elevationM":733},{"id":"node:6278371500","kind":"peak","name":"Miš","lat":43.7233841,"lon":18.9404388,"elevationM":1257},{"id":"node:6278371501","kind":"peak","name":"Tvičijak","lat":43.7236613,"lon":18.9720307,"elevationM":1199},{"id":"node:6278423853","kind":"peak","name":"Trovrh","lat":43.7195826,"lon":18.9848019,"elevationM":1193},{"id":"node:6278518044","kind":"peak","name":"Križevac","lat":43.6330581,"lon":18.9785728,"elevationM":456},{"id":"node:6280550636","kind":"peak","name":"Međed","lat":43.6485018,"lon":18.8949895,"elevationM":801},{"id":"node:6280738699","kind":"peak","name":"Kik","lat":43.6264376,"lon":18.9196575,"elevationM":633},{"id":"node:6292965193","kind":"peak","name":"Grabovo brdo","lat":43.6903719,"lon":18.9405724,"elevationM":743},{"id":"node:6296708591","kind":"peak","name":"Sjenokos","lat":43.6927297,"lon":18.9741821,"elevationM":960},{"id":"node:6298181869","kind":"peak","name":"Oštro","lat":43.6802348,"lon":18.9043727,"elevationM":1016},{"id":"node:6302180041","kind":"peak","name":"Sitno kamenje","lat":43.6761685,"lon":18.9373696,"elevationM":636},{"id":"node:6389617177","kind":"peak","name":"Krstac","lat":43.0052526,"lon":18.6995006,"elevationM":1059},{"id":"node:6389617178","kind":"peak","name":"Lisac","lat":43.0054983,"lon":18.665768,"elevationM":1129},{"id":"node:6389617179","kind":"peak","name":"Čurilo","lat":43.0095755,"lon":18.6501357,"elevationM":1561},{"id":"node:6389617181","kind":"peak","name":"Zminjac","lat":43.0062223,"lon":18.636692,"elevationM":1455},{"id":"node:6389617182","kind":"peak","name":"Оштри крш","lat":43.0171576,"lon":18.600894,"elevationM":1374},{"id":"node:6389617183","kind":"peak","name":"Врх","lat":43.0274433,"lon":18.6241861,"elevationM":1279},{"id":"node:6389617184","kind":"peak","name":"Соминско катуниште","lat":43.0189101,"lon":18.5715054,"elevationM":1529},{"id":"node:6389617185","kind":"peak","name":"Капа","lat":43.0129285,"lon":18.5875545,"elevationM":1598},{"id":"node:6389617186","kind":"peak","name":"Столован","lat":43.004317,"lon":18.5598333,"elevationM":1350},{"id":"node:6389631651","kind":"peak","name":"Латично","lat":43.0860939,"lon":18.730752,"elevationM":1558},{"id":"node:6389631652","kind":"peak","name":"Ружица","lat":43.0922967,"lon":18.7655078,"elevationM":1945},{"id":"node:6389631653","kind":"peak","name":"Ружарица","lat":43.0781398,"lon":18.7567016,"elevationM":1826},{"id":"node:6389631654","kind":"peak","name":"Мори","lat":43.0696136,"lon":18.7460716,"elevationM":1749},{"id":"node:6389631655","kind":"peak","name":"Lisac","lat":43.0704511,"lon":18.7169435,"elevationM":1698},{"id":"node:6389631656","kind":"peak","name":"Брегови","lat":43.0586877,"lon":18.7566495,"elevationM":1643},{"id":"node:6389631657","kind":"peak","name":"Кита","lat":43.0672535,"lon":18.7976582,"elevationM":1430},{"id":"node:6389631658","kind":"peak","name":"Бабин врх","lat":43.0479122,"lon":18.8153226,"elevationM":1554},{"id":"node:6389631660","kind":"peak","name":"Кита","lat":43.0026954,"lon":18.8645643,"elevationM":1396},{"id":"node:6612270740","kind":"peak","name":"Humac","lat":43.019243,"lon":18.3255913,"elevationM":513},{"id":"node:6960188329","kind":"peak","name":"Žuti cvijet","lat":43.7003105,"lon":18.2427829,"elevationM":2026},{"id":"node:6960188330","kind":"peak","name":"Kota 2025","lat":43.713882,"lon":18.2374264,"elevationM":2025},{"id":"node:6960188331","kind":"peak","name":"Kota","lat":43.7070332,"lon":18.2491065,"elevationM":2056},{"id":"node:6960188334","kind":"peak","name":"Lica (sjeverni vrh)","lat":43.2871048,"lon":18.6638533,"elevationM":2111},{"id":"node:6960188335","kind":"peak","name":"Prsti","lat":43.2695838,"lon":18.6744739,"elevationM":2271},{"id":"node:6960188341","kind":"peak","name":"Kočanj kuk","lat":43.2321334,"lon":18.6961461,"elevationM":2103},{"id":"node:6997422215","kind":"peak","name":"Bubreg","lat":43.2333499,"lon":18.7612353,"elevationM":2339},{"id":"node:6997422216","kind":"peak","name":"Kom","lat":43.2488137,"lon":18.7493332,"elevationM":2162},{"id":"node:6997422217","kind":"peak","name":"Gredelj","lat":43.242976,"lon":18.7627413,"elevationM":2264},{"id":"node:6997422218","kind":"peak","name":"Nož","lat":43.2388937,"lon":18.7821008,"elevationM":2299},{"id":"node:6997422219","kind":"peak","name":"Mali Vitao","lat":43.2239752,"lon":18.7627501,"elevationM":null},{"id":"node:6997422220","kind":"peak","name":"Bioč","lat":43.2329214,"lon":18.7926008,"elevationM":2297},{"id":"node:6997422221","kind":"peak","name":"Donji Govedar","lat":43.2237798,"lon":18.7957206,"elevationM":2116},{"id":"node:6997422222","kind":"peak","name":"Gornji Govedar","lat":43.23108,"lon":18.7833818,"elevationM":2244},{"id":"node:6997723057","kind":"peak","name":"Mitrov grob","lat":43.1909232,"lon":18.7153919,"elevationM":1572},{"id":"node:6997723058","kind":"peak","name":"Šančevi","lat":43.2051344,"lon":18.7047124,"elevationM":1809},{"id":"node:7014241144","kind":"peak","name":"Hodža","lat":43.7786122,"lon":18.632496,"elevationM":1376},{"id":"node:7014282527","kind":"peak","name":"Oštra glava","lat":43.7091659,"lon":18.6105596,"elevationM":null},{"id":"node:7041972174","kind":"peak","name":"Čubren","lat":43.8894164,"lon":18.1184622,"elevationM":1090},{"id":"node:7232521472","kind":"peak","name":"Gradac","lat":43.6563289,"lon":18.6310682,"elevationM":1333},{"id":"node:7527297366","kind":"peak","name":"Čiburov Brig","lat":43.8507304,"lon":18.0582618,"elevationM":1209},{"id":"node:7702559463","kind":"peak","name":"Barice","lat":43.6256145,"lon":18.3463876,"elevationM":2062},{"id":"node:7714834118","kind":"peak","name":"Orlovac","lat":43.1913471,"lon":18.6803443,"elevationM":1985},{"id":"node:7719520312","kind":"peak","name":"Makaze","lat":43.2941402,"lon":18.7005599,"elevationM":1683},{"id":"node:7719520316","kind":"peak","name":"Veliki Maglić","lat":43.276083,"lon":18.7355095,"elevationM":2389},{"id":"node:7719520328","kind":"peak","name":"Kom","lat":43.255707,"lon":18.7235548,"elevationM":null},{"id":"node:7736556850","kind":"peak","name":"Velika međeđa glava","lat":43.722327,"lon":18.2002413,"elevationM":1938},{"id":"node:7738236810","kind":"peak","name":"Veliki Koran","lat":43.804218,"lon":18.564164,"elevationM":1013},{"id":"node:7846834923","kind":"peak","name":"Golo brdo","lat":43.8158191,"lon":18.2485091,"elevationM":1230},{"id":"node:7858317545","kind":"peak","name":"Mali Golišan","lat":43.6539242,"lon":18.0182936,"elevationM":null},{"id":"node:7858322687","kind":"peak","name":"Veliki Golišan","lat":43.6584796,"lon":18.024622,"elevationM":1021},{"id":"node:7858361636","kind":"peak","name":"Četovičko brdo","lat":43.6953771,"lon":18.1633223,"elevationM":1936},{"id":"node:7884925943","kind":"peak","name":"Javorska glava","lat":43.6628118,"lon":18.1786089,"elevationM":1651},{"id":"node:8023036227","kind":"peak","name":"Perala","lat":43.5744603,"lon":18.2265332,"elevationM":1746},{"id":"node:8023036228","kind":"peak","name":"Kota 1761","lat":43.5754086,"lon":18.2189157,"elevationM":1761},{"id":"node:8355754293","kind":"peak","name":"Kamenita Glava","lat":43.9077705,"lon":18.460694,"elevationM":1333},{"id":"node:8355754301","kind":"peak","name":"Crepoljsko","lat":43.922643,"lon":18.4793692,"elevationM":1524},{"id":"node:8355858610","kind":"peak","name":"Goropeč","lat":43.8985779,"lon":18.4486087,"elevationM":1202},{"id":"node:8355858611","kind":"peak","name":"Kečina stijena","lat":43.9326843,"lon":18.4761898,"elevationM":null},{"id":"node:8522244449","kind":"peak","name":"Bogoševa","lat":43.8704722,"lon":18.0195737,"elevationM":855},{"id":"node:8522244450","kind":"peak","name":"Lakić","lat":43.8584979,"lon":18.0331778,"elevationM":911},{"id":"node:8522244451","kind":"peak","name":"Bedem","lat":43.8652357,"lon":18.027116,"elevationM":812},{"id":"node:8919039562","kind":"peak","name":"Greda","lat":43.9062761,"lon":18.4379593,"elevationM":1275},{"id":"node:8919039563","kind":"peak","name":"Gradina","lat":43.9080211,"lon":18.4360526,"elevationM":1274},{"id":"node:8919039564","kind":"peak","name":"Pećine","lat":43.9068514,"lon":18.4278432,"elevationM":1197},{"id":"node:8919039565","kind":"peak","name":"Košavska stijena","lat":43.9104628,"lon":18.4495713,"elevationM":1314},{"id":"node:8987956406","kind":"peak","name":"Baba","lat":43.6464903,"lon":18.9380245,"elevationM":964},{"id":"node:9002433605","kind":"peak","name":"Videž","lat":43.4038815,"lon":18.5625718,"elevationM":1864},{"id":"node:9002433607","kind":"peak","name":"Košur","lat":43.3617188,"lon":18.6869543,"elevationM":804},{"id":"node:9002433608","kind":"peak","name":"Jasikova glavica","lat":43.371144,"lon":18.6561542,"elevationM":null},{"id":"node:9006456055","kind":"peak","name":"Kovačev panj","lat":43.3297512,"lon":18.6711788,"elevationM":909},{"id":"node:9007488988","kind":"peak","name":"Mali Ljeljen","lat":43.7042775,"lon":18.1839902,"elevationM":1947},{"id":"node:9007488989","kind":"peak","name":"Saruk","lat":43.6703191,"lon":18.1974774,"elevationM":1726},{"id":"node:9007488991","kind":"peak","name":"Siljevača","lat":43.6770672,"lon":18.2106172,"elevationM":1662},{"id":"node:9007488992","kind":"peak","name":"Visoka glava","lat":43.677133,"lon":18.2237795,"elevationM":1456},{"id":"node:9008574299","kind":"peak","name":"Veliko pleće","lat":43.3092633,"lon":18.6271676,"elevationM":1874},{"id":"node:9008574301","kind":"peak","name":"Malo pleće","lat":43.3097753,"lon":18.6201133,"elevationM":null},{"id":"node:9008574302","kind":"peak","name":"Tovarnica","lat":43.3152279,"lon":18.6076643,"elevationM":1804},{"id":"node:9031176702","kind":"peak","name":"Mali Oštrikovac","lat":43.2569374,"lon":18.7053688,"elevationM":2034},{"id":"node:9040904839","kind":"peak","name":"Vrsta","lat":43.2475707,"lon":18.7713835,"elevationM":2301},{"id":"node:9051628381","kind":"peak","name":"Biočke grede istočni","lat":43.2088705,"lon":18.7608764,"elevationM":2135},{"id":"node:9057082984","kind":"peak","name":"Biočke grede","lat":43.212249,"lon":18.7540828,"elevationM":2195},{"id":"node:9101663419","kind":"peak","name":"Velika Glavica","lat":43.2069823,"lon":18.7830377,"elevationM":1879},{"id":"node:9101663420","kind":"peak","name":"Ostra glavica","lat":43.1904758,"lon":18.7364584,"elevationM":1676},{"id":"node:9101663421","kind":"peak","name":"Kamenito plece","lat":43.1795426,"lon":18.797566,"elevationM":1519},{"id":"node:9101663422","kind":"peak","name":"Jajac","lat":43.1983277,"lon":18.7819932,"elevationM":2099},{"id":"node:9101663423","kind":"peak","name":"Klekova kosa","lat":43.1882919,"lon":18.7559756,"elevationM":1766},{"id":"node:9101663424","kind":"peak","name":"Suvor","lat":43.1855871,"lon":18.7688801,"elevationM":2016},{"id":"node:9101678153","kind":"peak","name":"Zmajeva Greda","lat":43.23413,"lon":18.793317,"elevationM":2252},{"id":"node:9121732285","kind":"peak","name":"Tjeme","lat":43.4862523,"lon":18.0881779,"elevationM":1326},{"id":"node:9121732286","kind":"peak","name":"Gradina","lat":43.4806786,"lon":18.1071465,"elevationM":602},{"id":"node:9121732287","kind":"peak","name":"Jušića kita","lat":43.4751199,"lon":18.1006877,"elevationM":1062},{"id":"node:9121732295","kind":"peak","name":"Žljebina","lat":43.492635,"lon":18.0915897,"elevationM":1187},{"id":"node:9169559259","kind":"peak","name":"Veliki Bioč","lat":43.2432105,"lon":18.7701013,"elevationM":2321},{"id":"node:9198140717","kind":"peak","name":"Motka","lat":43.950267,"lon":18.392026,"elevationM":1254},{"id":"node:9218414148","kind":"peak","name":"Glog","lat":43.8941996,"lon":18.5043967,"elevationM":1406},{"id":"node:9218414149","kind":"peak","name":"Mali Glog","lat":43.8872284,"lon":18.5103259,"elevationM":1273},{"id":"node:9238167104","kind":"peak","name":"Jela","lat":43.9749309,"lon":18.4757058,"elevationM":1374},{"id":"node:9238167105","kind":"peak","name":"Stojna stijena","lat":43.9749406,"lon":18.4634681,"elevationM":1443},{"id":"node:9238167106","kind":"peak","name":"Nebešina","lat":43.9664814,"lon":18.4625195,"elevationM":1419},{"id":"node:9238167113","kind":"peak","name":"Ozren - Bandijera","lat":43.973001,"lon":18.5116972,"elevationM":1453},{"id":"node:9657074010","kind":"peak","name":"Gradina","lat":43.5952723,"lon":18.8549637,"elevationM":570},{"id":"node:9657093184","kind":"peak","name":"Bogatac","lat":43.6090736,"lon":18.8571608,"elevationM":545},{"id":"node:9657142565","kind":"peak","name":"Grdeva glava","lat":43.6531672,"lon":18.766493,"elevationM":1351},{"id":"node:9661818909","kind":"peak","name":"Kapak","lat":43.5726614,"lon":18.8602952,"elevationM":1201},{"id":"node:9661818910","kind":"peak","name":"Glog","lat":43.5703318,"lon":18.835941,"elevationM":988},{"id":"node:9661818911","kind":"peak","name":"Grabić","lat":43.6102305,"lon":18.8029617,"elevationM":1021},{"id":"node:9661818912","kind":"peak","name":"Okolište","lat":43.6056275,"lon":18.8216674,"elevationM":923},{"id":"node:9661818913","kind":"peak","name":"Hrast","lat":43.6061443,"lon":18.8332887,"elevationM":870},{"id":"node:9661938983","kind":"peak","name":"Kik","lat":43.6365918,"lon":18.9876703,"elevationM":569},{"id":"node:9761733302","kind":"peak","name":"Obeljak","lat":43.8103574,"lon":18.2394882,"elevationM":1180},{"id":"node:9828603863","kind":"peak","name":"Oblik","lat":43.248043,"lon":18.7863148,"elevationM":2111},{"id":"node:10084839153","kind":"peak","name":"Babin vrh","lat":43.5978011,"lon":18.2074369,"elevationM":1880},{"id":"node:10316911143","kind":"peak","name":"Rudina","lat":43.2502082,"lon":18.7894695,"elevationM":1971},{"id":"node:10316942479","kind":"peak","name":"Teljevića lastva","lat":43.2150002,"lon":18.7809797,"elevationM":2194},{"id":"node:10554401785","kind":"peak","name":"Bukova glavica","lat":43.2668719,"lon":18.7084641,"elevationM":1855},{"id":"node:10554499091","kind":"peak","name":"Klekovi Kom","lat":43.2578851,"lon":18.7138044,"elevationM":1902},{"id":"node:10554642804","kind":"peak","name":"Kom","lat":43.1971769,"lon":18.7471415,"elevationM":1681},{"id":"node:10554654594","kind":"peak","name":"Viljište","lat":43.21872,"lon":18.7238734,"elevationM":2095},{"id":"node:10555238731","kind":"peak","name":"Vitlovi","lat":43.2271131,"lon":18.7636678,"elevationM":2028},{"id":"node:10614521996","kind":"peak","name":"Stružine","lat":43.3598323,"lon":18.6719825,"elevationM":986},{"id":"node:10897616704","kind":"peak","name":"Zmijanice","lat":43.837399,"lon":18.1612997,"elevationM":784},{"id":"node:10897628505","kind":"peak","name":"Oštrik","lat":43.8550543,"lon":18.1613104,"elevationM":946},{"id":"node:10897628506","kind":"peak","name":"Pleševac","lat":43.8605607,"lon":18.1759087,"elevationM":937},{"id":"node:10897628507","kind":"peak","name":"Kremnik","lat":43.8524685,"lon":18.1833116,"elevationM":911},{"id":"node:10897628508","kind":"peak","name":"Batalovo brdo","lat":43.8563016,"lon":18.1821716,"elevationM":934},{"id":"node:10958605636","kind":"peak","name":"Mala Pandurica","lat":43.819221,"lon":18.1372232,"elevationM":1008},{"id":"node:11037107905","kind":"peak","name":"Zarisnik","lat":43.1516604,"lon":18.8569974,"elevationM":1350},{"id":"node:11063384358","kind":"peak","name":"Majdan","lat":43.2172111,"lon":18.6808169,"elevationM":1528},{"id":"node:11063400173","kind":"peak","name":"Vita bara","lat":43.1890326,"lon":18.6946535,"elevationM":1810},{"id":"node:11063400174","kind":"peak","name":"Oštrovica","lat":43.1927559,"lon":18.6877012,"elevationM":1820},{"id":"node:11063400186","kind":"peak","name":"Lupoglav","lat":43.199107,"lon":18.6938381,"elevationM":1758},{"id":"node:11063400187","kind":"peak","name":"Krvavica","lat":43.197136,"lon":18.6774015,"elevationM":1814},{"id":"node:11065915031","kind":"peak","name":"Borjen","lat":43.1771257,"lon":18.7304449,"elevationM":1405},{"id":"node:11065918415","kind":"peak","name":"Lisina","lat":43.1725407,"lon":18.6908769,"elevationM":1551},{"id":"node:11065918416","kind":"peak","name":"Kozji pogled","lat":43.1769536,"lon":18.7060689,"elevationM":1608},{"id":"node:11065918417","kind":"peak","name":"Svinjarica","lat":43.1785184,"lon":18.6851263,"elevationM":1666},{"id":"node:11065918418","kind":"peak","name":"Komasovica","lat":43.1811471,"lon":18.694868,"elevationM":1790},{"id":"node:11066019520","kind":"peak","name":"Oprašićev Štit","lat":43.1959941,"lon":18.7372899,"elevationM":1646},{"id":"node:11066059245","kind":"peak","name":"Završlje","lat":43.1686518,"lon":18.7596917,"elevationM":1110},{"id":"node:11066066491","kind":"peak","name":"Plesma","lat":43.2082726,"lon":18.7474823,"elevationM":2074},{"id":"node:11066066494","kind":"peak","name":"Velika strana","lat":43.2046753,"lon":18.7541341,"elevationM":2037},{"id":"node:11066066496","kind":"peak","name":"Umetaljka","lat":43.1916295,"lon":18.7681245,"elevationM":1863},{"id":"node:11066066501","kind":"peak","name":"Ober","lat":43.2064584,"lon":18.8072633,"elevationM":1469},{"id":"node:11066066502","kind":"peak","name":"Veliki do","lat":43.2088044,"lon":18.7753772,"elevationM":1858},{"id":"node:11071024629","kind":"peak","name":"Veliká gredina","lat":43.1994846,"lon":18.6434034,"elevationM":1652},{"id":"node:11071024747","kind":"peak","name":"Krš","lat":43.1366047,"lon":18.7572683,"elevationM":1360},{"id":"node:11071033858","kind":"peak","name":"Kovijoc","lat":43.146961,"lon":18.6485908,"elevationM":1517},{"id":"node:11071033859","kind":"peak","name":"Bogoševica","lat":43.1298221,"lon":18.7190915,"elevationM":1512},{"id":"node:11071041763","kind":"peak","name":"Kita","lat":43.1571509,"lon":18.7020811,"elevationM":null},{"id":"node:11071042874","kind":"peak","name":"Šejtan kula","lat":43.1397526,"lon":18.7041883,"elevationM":1575},{"id":"node:11071048245","kind":"peak","name":"Razvršje","lat":43.1406078,"lon":18.7780293,"elevationM":1508},{"id":"node:11071049404","kind":"peak","name":"Klanac","lat":43.1453434,"lon":18.6591235,"elevationM":1474},{"id":"node:11071053074","kind":"peak","name":"Orljaća","lat":43.1535306,"lon":18.6502676,"elevationM":1511},{"id":"node:11071055838","kind":"peak","name":"Turska glavica","lat":43.1833339,"lon":18.663495,"elevationM":1500},{"id":"node:11071055839","kind":"peak","name":"Stražnica","lat":43.1486873,"lon":18.6275311,"elevationM":1273},{"id":"node:11071056352","kind":"peak","name":"Krstače","lat":43.145465,"lon":18.8098108,"elevationM":1252},{"id":"node:11071058437","kind":"peak","name":"Javorov vrh","lat":43.1372235,"lon":18.6832476,"elevationM":1681},{"id":"node:11071059674","kind":"peak","name":"Kula","lat":43.1495918,"lon":18.6756442,"elevationM":1557},{"id":"node:11071060829","kind":"peak","name":"Pej","lat":43.1369192,"lon":18.8096338,"elevationM":1230},{"id":"node:11071060931","kind":"peak","name":"Obla glavica","lat":43.1598172,"lon":18.7276552,"elevationM":1427},{"id":"node:11071061419","kind":"peak","name":"Podine","lat":43.1476574,"lon":18.7528435,"elevationM":1194},{"id":"node:11071061420","kind":"peak","name":"Kula","lat":43.1391947,"lon":18.8002549,"elevationM":1296},{"id":"node:11071062107","kind":"peak","name":"Treštenik","lat":43.1561415,"lon":18.6723141,"elevationM":1576},{"id":"node:11071062281","kind":"peak","name":"Ledenik","lat":43.1420371,"lon":18.6709914,"elevationM":1586},{"id":"node:11071064205","kind":"peak","name":"Crvena brda","lat":43.1344663,"lon":18.7644049,"elevationM":1388},{"id":"node:11071138713","kind":"peak","name":"Kršine","lat":43.1690484,"lon":18.8098311,"elevationM":1000},{"id":"node:11071144079","kind":"peak","name":"Glavice","lat":43.321991,"lon":18.8242567,"elevationM":1491},{"id":"node:11071149247","kind":"peak","name":"Priljepi","lat":43.1590163,"lon":18.8176323,"elevationM":757},{"id":"node:11071157391","kind":"peak","name":"Brdo Plužinsko","lat":43.1566177,"lon":18.8416486,"elevationM":713},{"id":"node:11071159407","kind":"peak","name":"Kozica","lat":43.1782207,"lon":18.8050046,"elevationM":1322},{"id":"node:11071173136","kind":"peak","name":"Gradina","lat":43.268775,"lon":18.7700477,"elevationM":1577},{"id":"node:11071173137","kind":"peak","name":"Obla glavica","lat":43.2880942,"lon":18.7753744,"elevationM":1759},{"id":"node:11071348258","kind":"peak","name":"Javorova voda","lat":43.276648,"lon":18.8130397,"elevationM":1555},{"id":"node:11091414524","kind":"peak","name":"Zaglavak","lat":43.18384,"lon":18.7301582,"elevationM":1218},{"id":"node:11139122960","kind":"peak","name":"Oblik","lat":43.6270434,"lon":18.3739956,"elevationM":1876},{"id":"node:11169198232","kind":"peak","name":"Vidikovac","lat":43.840041,"lon":18.4492256,"elevationM":1169},{"id":"node:11182108002","kind":"peak","name":"Kuk","lat":43.2106543,"lon":18.6823713,"elevationM":1817},{"id":"node:11182160541","kind":"peak","name":"Krš","lat":43.729755,"lon":18.8834819,"elevationM":1271},{"id":"node:11182160542","kind":"peak","name":"Ladinjak","lat":43.6827857,"lon":18.8918353,"elevationM":942},{"id":"node:11182160543","kind":"peak","name":"Jarovo brdo","lat":43.6816529,"lon":18.8844324,"elevationM":898},{"id":"node:11251959290","kind":"peak","name":"Podmjera","lat":43.7228076,"lon":18.9231874,"elevationM":1225},{"id":"node:11406558987","kind":"peak","name":"Trovrh","lat":43.3028515,"lon":18.3729923,"elevationM":1500},{"id":"node:11406558988","kind":"peak","name":"Lisičina","lat":43.3201472,"lon":18.3713615,"elevationM":1522},{"id":"node:11410824645","kind":"peak","name":"Vrgorac","lat":43.3816512,"lon":18.2680964,"elevationM":1302},{"id":"node:11447508157","kind":"peak","name":"Stolac","lat":43.6391212,"lon":18.7535466,"elevationM":1520},{"id":"node:11447513174","kind":"peak","name":"Krnja jela","lat":43.7129743,"lon":18.7657492,"elevationM":1358},{"id":"node:11447560340","kind":"peak","name":"Gradina","lat":43.7187368,"lon":18.7766448,"elevationM":1275},{"id":"node:11447560341","kind":"peak","name":"Barnačica","lat":43.7151122,"lon":18.7854702,"elevationM":1193},{"id":"node:11447560342","kind":"peak","name":"Oglavak","lat":43.7098021,"lon":18.793164,"elevationM":1281},{"id":"node:11447560343","kind":"peak","name":"Rosulje","lat":43.7100111,"lon":18.8032169,"elevationM":1314},{"id":"node:11447560348","kind":"peak","name":"Biljeg","lat":43.7114684,"lon":18.7465657,"elevationM":1249},{"id":"node:11447560356","kind":"peak","name":"Prokos","lat":43.6935849,"lon":18.7564325,"elevationM":981},{"id":"node:11447970202","kind":"peak","name":"Crkvina","lat":43.6377694,"lon":18.8378005,"elevationM":1107},{"id":"node:11448476326","kind":"peak","name":"Previla","lat":43.6934177,"lon":18.8417092,"elevationM":1129},{"id":"node:11448476327","kind":"peak","name":"Gušta","lat":43.6891204,"lon":18.8366632,"elevationM":null},{"id":"node:11448556824","kind":"peak","name":"Mravinjaci","lat":43.7098363,"lon":18.8170358,"elevationM":1319},{"id":"node:11453040208","kind":"peak","name":"Crni Vrh","lat":43.7452091,"lon":18.2363886,"elevationM":1647},{"id":"node:11453143472","kind":"peak","name":"Guvno","lat":43.7488493,"lon":18.2301178,"elevationM":1607},{"id":"node:11453143473","kind":"peak","name":"Brdlo","lat":43.7619783,"lon":18.240434,"elevationM":1406},{"id":"node:11453143474","kind":"peak","name":"Čelebin vrh","lat":43.7619586,"lon":18.2249858,"elevationM":1481},{"id":"node:11453143475","kind":"peak","name":"M. Omar","lat":43.7748476,"lon":18.2227079,"elevationM":1506},{"id":"node:11453143476","kind":"peak","name":"Trešnjevo brdo","lat":43.7886421,"lon":18.2515748,"elevationM":1325},{"id":"node:11453143477","kind":"peak","name":"Lokvanjsko brdo","lat":43.7681812,"lon":18.217569,"elevationM":1458},{"id":"node:11453197652","kind":"peak","name":"Crni vrh","lat":43.7198246,"lon":18.2633271,"elevationM":1594},{"id":"node:11465984548","kind":"peak","name":"Crni vrh","lat":43.7406419,"lon":18.3009551,"elevationM":1433},{"id":"node:11465984549","kind":"peak","name":"Vijenac","lat":43.7427423,"lon":18.3183118,"elevationM":1360},{"id":"node:11466110239","kind":"peak","name":"Vis","lat":43.7206633,"lon":18.3058104,"elevationM":1174},{"id":"node:11466110243","kind":"peak","name":"Brezova glavica","lat":43.7139447,"lon":18.3638921,"elevationM":1019},{"id":"node:11466119202","kind":"peak","name":"Runjava glavica","lat":43.6812834,"lon":18.3222953,"elevationM":1178},{"id":"node:11466143585","kind":"peak","name":"Derino brdo","lat":43.6510799,"lon":18.2480252,"elevationM":1386},{"id":"node:11467348943","kind":"peak","name":"Jelov vrh","lat":43.1572047,"lon":18.3256218,"elevationM":1373},{"id":"node:11470009523","kind":"peak","name":"Brezova glavica","lat":43.7242395,"lon":18.3074475,"elevationM":1158},{"id":"node:11470044061","kind":"peak","name":"Kapić","lat":43.6591495,"lon":18.2894119,"elevationM":1312},{"id":"node:11479066360","kind":"peak","name":"Veliki Hrakač","lat":43.6891464,"lon":18.2960456,"elevationM":1619},{"id":"node:11479204824","kind":"peak","name":"Vis","lat":43.6227425,"lon":18.2864,"elevationM":1372},{"id":"node:11479343536","kind":"peak","name":"Lisičja glava","lat":43.6715743,"lon":18.2861812,"elevationM":1417},{"id":"node:11479475875","kind":"peak","name":"Kozije brdo","lat":43.6208826,"lon":18.2621595,"elevationM":1416},{"id":"node:11479475882","kind":"peak","name":"1420","lat":43.6308198,"lon":18.2715659,"elevationM":null},{"id":"node:11480228128","kind":"peak","name":"Debeli brijeg","lat":43.5815797,"lon":18.1737995,"elevationM":1631},{"id":"node:11480228129","kind":"peak","name":"Kulina","lat":43.5851094,"lon":18.1653018,"elevationM":1618},{"id":"node:11481209247","kind":"peak","name":"V. Lisac","lat":43.6223385,"lon":18.135335,"elevationM":1504},{"id":"node:11481209248","kind":"peak","name":"Markovac","lat":43.6227574,"lon":18.1258216,"elevationM":1458},{"id":"node:11481209249","kind":"peak","name":"M. Lisac","lat":43.6247036,"lon":18.1488756,"elevationM":1408},{"id":"node:11481209250","kind":"peak","name":"Grad","lat":43.632068,"lon":18.1567091,"elevationM":1381},{"id":"node:11481261389","kind":"peak","name":"Jagina glava","lat":43.5790335,"lon":18.3274895,"elevationM":null},{"id":"node:11635412830","kind":"peak","name":"Alijin laz","lat":43.7045273,"lon":18.836438,"elevationM":1167},{"id":"node:11661537960","kind":"peak","name":"Klek","lat":43.6834948,"lon":18.7194379,"elevationM":1743},{"id":"node:11661537961","kind":"peak","name":"Klečica","lat":43.6829131,"lon":18.7352269,"elevationM":1391},{"id":"node:11661537962","kind":"peak","name":"Gornja glavica","lat":43.6967905,"lon":18.7369698,"elevationM":1146},{"id":"node:11661537963","kind":"peak","name":"Šušnjata glava","lat":43.7072314,"lon":18.7345539,"elevationM":1297},{"id":"node:11681644689","kind":"peak","name":"Krstac","lat":43.093231,"lon":18.2421541,"elevationM":1103},{"id":"node:11692046476","kind":"peak","name":"Brdo","lat":43.6536973,"lon":18.9369011,"elevationM":948},{"id":"node:11707008294","kind":"peak","name":"Cerice","lat":43.7328478,"lon":18.7750019,"elevationM":1271},{"id":"node:11707017139","kind":"peak","name":"Tovarnica","lat":43.7370087,"lon":18.7571419,"elevationM":1049},{"id":"node:11707017140","kind":"peak","name":"Orlovac","lat":43.7472737,"lon":18.7635095,"elevationM":873},{"id":"node:11707030730","kind":"peak","name":"Gradina","lat":43.7409541,"lon":18.7944436,"elevationM":1154},{"id":"node:11707031318","kind":"peak","name":"Grad","lat":43.7236992,"lon":18.7948485,"elevationM":1166},{"id":"node:11707031319","kind":"peak","name":"Homut","lat":43.7217401,"lon":18.8050911,"elevationM":1156},{"id":"node:11796066116","kind":"peak","name":"Kik","lat":43.6559414,"lon":18.9216329,"elevationM":826},{"id":"node:11796066117","kind":"peak","name":"Vlahića brdo","lat":43.6651321,"lon":18.9138036,"elevationM":808},{"id":"node:11816682278","kind":"peak","name":"Puhova ravan","lat":43.8113065,"lon":18.4705875,"elevationM":null},{"id":"node:11827985669","kind":"peak","name":"1005","lat":43.0590467,"lon":18.2807618,"elevationM":null},{"id":"node:12041835851","kind":"peak","name":"Мали Трескач","lat":43.5637386,"lon":18.4022004,"elevationM":1759},{"id":"node:12090725078","kind":"peak","name":"Dinčin Špic","lat":43.2485363,"lon":18.74357,"elevationM":2029},{"id":"node:12103872554","kind":"peak","name":"Stljevac","lat":43.2991796,"lon":18.6963078,"elevationM":1491},{"id":"node:12108611612","kind":"peak","name":"Gradac","lat":43.2170946,"lon":18.7988221,"elevationM":1636},{"id":"node:12108658454","kind":"peak","name":"Međeđe br.","lat":43.2317364,"lon":18.8310464,"elevationM":1351},{"id":"node:12179217645","kind":"peak","name":"Oblo brdo","lat":43.046107,"lon":18.1913209,"elevationM":1006},{"id":"node:12181187937","kind":"peak","name":"Veliki Ubrusac","lat":43.0038586,"lon":18.1849238,"elevationM":1082},{"id":"node:12181187965","kind":"peak","name":"Kovačevac","lat":43.0164189,"lon":18.1815201,"elevationM":1060},{"id":"node:12185050860","kind":"peak","name":"Lukovac","lat":43.0289256,"lon":18.1348765,"elevationM":873},{"id":"node:12381009106","kind":"peak","name":"Šugava glava","lat":43.6894333,"lon":18.2868404,"elevationM":1521},{"id":"node:12383473038","kind":"peak","name":"Kozji pogled","lat":43.2410928,"lon":18.7005444,"elevationM":2077},{"id":"node:12492488230","kind":"peak","name":"Hranjak","lat":43.9697159,"lon":18.1438565,"elevationM":810},{"id":"node:12549021929","kind":"peak","name":"Hopac","lat":43.9737041,"lon":18.1548521,"elevationM":null},{"id":"node:12647302995","kind":"peak","name":"Vijenac","lat":43.4430735,"lon":18.2507694,"elevationM":1338},{"id":"node:12647302997","kind":"peak","name":"Štavanj","lat":43.4464385,"lon":18.3935809,"elevationM":1481},{"id":"node:12647501098","kind":"peak","name":"Mliječnik","lat":43.6736363,"lon":18.683739,"elevationM":1637},{"id":"node:12647501099","kind":"peak","name":"Gornja Varda","lat":43.6899726,"lon":18.6859301,"elevationM":1527},{"id":"node:12647501100","kind":"peak","name":"Mačak","lat":43.6805211,"lon":18.666417,"elevationM":1512},{"id":"node:12647509435","kind":"peak","name":"Kacelj","lat":43.6591785,"lon":18.6934942,"elevationM":1674},{"id":"node:12647509436","kind":"peak","name":"Kacelj","lat":43.6550185,"lon":18.7033587,"elevationM":1548},{"id":"node:12647509437","kind":"peak","name":"Mirkovica","lat":43.6507462,"lon":18.7150456,"elevationM":1407},{"id":"node:12647509438","kind":"peak","name":"Tinjak","lat":43.6451268,"lon":18.7353558,"elevationM":1214},{"id":"node:12647509439","kind":"peak","name":"Breza","lat":43.6478215,"lon":18.7412426,"elevationM":1305},{"id":"node:12647509440","kind":"peak","name":"Johe","lat":43.6566693,"lon":18.7300105,"elevationM":1207},{"id":"node:12647509441","kind":"peak","name":"Hladno brdo","lat":43.663812,"lon":18.7001371,"elevationM":1559},{"id":"node:12647527984","kind":"peak","name":"Kožalj","lat":43.6430496,"lon":18.6949148,"elevationM":1361},{"id":"node:12647527985","kind":"peak","name":"Gradina","lat":43.6479785,"lon":18.6758044,"elevationM":1361},{"id":"node:12647527986","kind":"peak","name":"Hum","lat":43.6581909,"lon":18.6446801,"elevationM":1271},{"id":"node:12647527987","kind":"peak","name":"Jasika","lat":43.6417376,"lon":18.6352156,"elevationM":1116},{"id":"node:12647527988","kind":"peak","name":"Golica","lat":43.6756252,"lon":18.6251118,"elevationM":1693},{"id":"node:12647527989","kind":"peak","name":"Priratak","lat":43.6855976,"lon":18.6220762,"elevationM":1858},{"id":"node:12647527990","kind":"peak","name":"Trijeska","lat":43.6840848,"lon":18.63037,"elevationM":1804},{"id":"node:12647537501","kind":"peak","name":"Svračevo","lat":43.683072,"lon":18.6529869,"elevationM":1376},{"id":"node:12718383453","kind":"peak","name":"Kmur","lat":43.474865,"lon":18.7131475,"elevationM":null},{"id":"node:13029265329","kind":"peak","name":"Gradina","lat":43.3445248,"lon":18.7789012,"elevationM":1496},{"id":"node:13029265348","kind":"peak","name":"Pogled","lat":43.3182007,"lon":18.7867025,"elevationM":1683},{"id":"node:13050222638","kind":"peak","name":"Pločnik","lat":43.2283621,"lon":18.7558316,"elevationM":2385},{"id":"node:13247703767","kind":"peak","name":"Okladnik","lat":43.5135077,"lon":18.9354572,"elevationM":1372},{"id":"node:13247703770","kind":"peak","name":"Debelo brdo","lat":43.5053731,"lon":18.9491999,"elevationM":1300},{"id":"node:13247703771","kind":"peak","name":"Zabavlje","lat":43.5018475,"lon":18.934481,"elevationM":1264},{"id":"node:13247703772","kind":"peak","name":"Gradac","lat":43.5020698,"lon":18.9126355,"elevationM":1047},{"id":"node:13251916428","kind":"peak","name":"Rovište","lat":43.5477337,"lon":18.986201,"elevationM":1188},{"id":"node:13251916429","kind":"peak","name":"Gradina","lat":43.5552117,"lon":18.9884298,"elevationM":1208},{"id":"node:13354216077","kind":"peak","name":"Paljika","lat":43.5982017,"lon":18.9810918,"elevationM":1162},{"id":"node:13354216078","kind":"peak","name":"Trebinjaća","lat":43.6048188,"lon":18.9596292,"elevationM":null},{"id":"node:13354216079","kind":"peak","name":"Banjača","lat":43.5779726,"lon":18.9270789,"elevationM":1237},{"id":"node:13354216080","kind":"peak","name":"Carevo guvno","lat":43.5683868,"lon":18.9758112,"elevationM":1241},{"id":"node:13354216082","kind":"peak","name":"Goli vrh","lat":43.5760362,"lon":18.8878356,"elevationM":1306},{"id":"node:13354216083","kind":"peak","name":"Bojište","lat":43.5233263,"lon":18.9559626,"elevationM":1228},{"id":"node:13354216084","kind":"peak","name":"1173","lat":43.50275,"lon":18.9628692,"elevationM":null},{"id":"node:13354216085","kind":"peak","name":"Crvena stijena","lat":43.5334127,"lon":18.9313949,"elevationM":null},{"id":"node:13362281889","kind":"peak","name":"Rudine","lat":43.7072963,"lon":18.6845685,"elevationM":1187},{"id":"node:13362281890","kind":"peak","name":"Zaimov kik","lat":43.7138862,"lon":18.670608,"elevationM":1084},{"id":"node:13362281892","kind":"peak","name":"Donja Varda","lat":43.7033247,"lon":18.66641,"elevationM":1063},{"id":"node:13362281893","kind":"peak","name":"Debela međa","lat":43.7111634,"lon":18.6820535,"elevationM":1178},{"id":"node:13362281894","kind":"peak","name":"Kladno","lat":43.7112668,"lon":18.6953275,"elevationM":1135},{"id":"node:13362353718","kind":"peak","name":"Orlovača","lat":43.7101695,"lon":18.7184534,"elevationM":1223},{"id":"node:13362353720","kind":"peak","name":"Vučija glava","lat":43.7232928,"lon":18.7196871,"elevationM":1130},{"id":"node:13362353745","kind":"peak","name":"Ranjenski vrh","lat":43.7524478,"lon":18.7053726,"elevationM":946},{"id":"node:13362353746","kind":"peak","name":"Haluge","lat":43.7481556,"lon":18.715923,"elevationM":1063},{"id":"node:13362353747","kind":"peak","name":"Lokva","lat":43.740819,"lon":18.7283888,"elevationM":1125},{"id":"node:13362353751","kind":"peak","name":"Kik","lat":43.7322226,"lon":18.7329302,"elevationM":1194},{"id":"node:13677705776","kind":"peak","name":"Štukeljina Glava","lat":43.0213358,"lon":18.7526679,"elevationM":1021},{"id":"node:13678306021","kind":"peak","name":"Gradina","lat":43.0250594,"lon":18.7279886,"elevationM":1019},{"id":"node:13678306116","kind":"peak","name":"Pandurica","lat":43.0143537,"lon":18.7069292,"elevationM":1111},{"id":"node:13678306120","kind":"peak","name":"Kuk","lat":43.016067,"lon":18.6856572,"elevationM":1069},{"id":"node:13678306121","kind":"peak","name":"Gradina","lat":43.0007652,"lon":18.6313781,"elevationM":1360},{"id":"node:13678306123","kind":"peak","name":"Malo Čurilo","lat":43.0184477,"lon":18.6356971,"elevationM":1477},{"id":"node:13678306124","kind":"peak","name":"Gradac","lat":43.028609,"lon":18.6589911,"elevationM":953},{"id":"node:13678306127","kind":"peak","name":"Orlina","lat":43.0372257,"lon":18.6607802,"elevationM":1115},{"id":"node:13678306129","kind":"peak","name":"Piramida","lat":43.0496245,"lon":18.6646575,"elevationM":1127},{"id":"node:13681622016","kind":"peak","name":"Ometina","lat":43.0649538,"lon":18.67717,"elevationM":1233},{"id":"node:13681622079","kind":"peak","name":"Bukova greda","lat":43.0853312,"lon":18.6570533,"elevationM":1403},{"id":"node:13685647513","kind":"peak","name":"Vjetrno","lat":43.0515321,"lon":18.7393598,"elevationM":1443},{"id":"node:13685647515","kind":"peak","name":"Ramo","lat":43.059612,"lon":18.7223758,"elevationM":1579},{"id":"node:13685655608","kind":"peak","name":"Pazište","lat":43.1141876,"lon":18.7419039,"elevationM":1625},{"id":"node:13685655671","kind":"peak","name":"Oblo brdo","lat":43.0855714,"lon":18.6249444,"elevationM":1055},{"id":"node:13685655673","kind":"peak","name":"Jelovac","lat":43.0960182,"lon":18.6458849,"elevationM":1442},{"id":"node:13685655674","kind":"peak","name":"Kosovi Vrh","lat":43.1064102,"lon":18.6544202,"elevationM":1647},{"id":"node:13685655676","kind":"peak","name":"Pandurica","lat":43.1122952,"lon":18.6579485,"elevationM":1668},{"id":"node:13714876370","kind":"peak","name":"Jedine Bukve","lat":43.1668962,"lon":18.8324105,"elevationM":1129}]}