{"tileKey":"la_p54_lo_p59","version":"v1-1775891056926","entries":[{"id":"node:559034784","kind":"peak","name":"Таштбиик","lat":54.3046708,"lon":59.3591662,"elevationM":719},{"id":"node:559044263","kind":"peak","name":"Олатау","lat":54.3419271,"lon":59.385364,"elevationM":653},{"id":"node:559108065","kind":"peak","name":"Калкан","lat":54.4304336,"lon":59.3362033,"elevationM":663},{"id":"node:559387908","kind":"peak","name":"Мукуш","lat":54.2920353,"lon":59.2840151,"elevationM":643},{"id":"node:559388190","kind":"peak","name":"Биктай","lat":54.2777294,"lon":59.2714954,"elevationM":672},{"id":"node:559389594","kind":"peak","name":"Микагир","lat":54.244157,"lon":59.097527,"elevationM":667},{"id":"node:559389597","kind":"peak","name":"Улуташ","lat":54.3108391,"lon":59.126329,"elevationM":549},{"id":"node:559389599","kind":"peak","name":"Кызылташ","lat":54.2997653,"lon":59.1083486,"elevationM":null},{"id":"node:559389605","kind":"peak","name":"Камрыташ","lat":54.2834406,"lon":59.0912006,"elevationM":518},{"id":"node:559389608","kind":"peak","name":"Сисканар","lat":54.2380277,"lon":59.2097383,"elevationM":685},{"id":"node:559389611","kind":"peak","name":"Каркасту","lat":54.3027769,"lon":59.1850984,"elevationM":636},{"id":"node:559389614","kind":"peak","name":"Тетраук","lat":54.2779004,"lon":59.1734444,"elevationM":590},{"id":"node:559389617","kind":"peak","name":"Бирнак","lat":54.2519389,"lon":59.246698,"elevationM":725},{"id":"node:697443387","kind":"peak","name":"Тарлау","lat":54.3750631,"lon":59.1807919,"elevationM":600},{"id":"node:697443388","kind":"peak","name":"Кубяк","lat":54.4267972,"lon":59.1492394,"elevationM":754},{"id":"node:697443389","kind":"peak","name":"Юлгавар","lat":54.4317975,"lon":59.190446,"elevationM":626},{"id":"node:697443390","kind":"peak","name":"Гауда","lat":54.4551609,"lon":59.2165606,"elevationM":640},{"id":"node:697443391","kind":"peak","name":"Илекты","lat":54.4019777,"lon":59.3473326,"elevationM":648},{"id":"node:697443392","kind":"peak","name":"Мама","lat":54.4586103,"lon":59.2870872,"elevationM":595},{"id":"node:697443393","kind":"peak","name":"Акмант","lat":54.4487787,"lon":59.3449007,"elevationM":584},{"id":"node:697443394","kind":"peak","name":"Баралтау","lat":54.4804982,"lon":59.3424049,"elevationM":550},{"id":"node:697443395","kind":"peak","name":"Зиганбаргазы","lat":54.4152675,"lon":59.4545959,"elevationM":588},{"id":"node:697443396","kind":"peak","name":"Рябиновая","lat":54.6101405,"lon":59.2989588,"elevationM":806},{"id":"node:697443397","kind":"peak","name":"Голая","lat":54.5950576,"lon":59.2925842,"elevationM":802},{"id":"node:697474063","kind":"peak","name":"Мушагар","lat":54.1311221,"lon":59.0396233,"elevationM":666},{"id":"node:738536458","kind":"peak","name":"Ауш","lat":54.7257003,"lon":59.6885253,"elevationM":645},{"id":"node:762522128","kind":"peak","name":"Беркут-тау","lat":54.6225442,"lon":59.7323891,"elevationM":null},{"id":"node:860235078","kind":"peak","name":"Хребет Зюраткуль","lat":54.9552986,"lon":59.1793312,"elevationM":1175},{"id":"node:975652583","kind":"peak","name":"Большой Нургуш","lat":54.8201039,"lon":59.1487032,"elevationM":1406},{"id":"node:975652584","kind":"peak","name":"Лукаш","lat":54.8862531,"lon":59.1885767,"elevationM":1014},{"id":"node:1226393328","kind":"peak","name":"Большая Калагаза","lat":54.8302537,"lon":59.0328602,"elevationM":1048},{"id":"node:1584530786","kind":"peak","name":"Большая Ягодная","lat":54.6149645,"lon":59.0051193,"elevationM":1206},{"id":"node:1584530799","kind":"peak","name":"Караайгыр","lat":54.6142505,"lon":59.0821248,"elevationM":1053},{"id":"node:1686670144","kind":"peak","name":"Верховье Куваша","lat":54.9494982,"lon":59.350125,"elevationM":814},{"id":"node:1686670154","kind":"peak","name":"Еловда","lat":54.7523226,"lon":59.1961214,"elevationM":1116},{"id":"node:1686670157","kind":"peak","name":"Сундуки","lat":54.8693379,"lon":59.3426402,"elevationM":993},{"id":"node:1912485756","kind":"peak","name":"Рысья","lat":54.9792823,"lon":59.4536278,"elevationM":872},{"id":"node:2030576463","kind":"peak","name":"Мохнатая Сопка","lat":54.9823335,"lon":59.1614796,"elevationM":734},{"id":"node:2030616814","kind":"peak","name":"Большая Каменная","lat":54.8089795,"lon":59.3460532,"elevationM":null},{"id":"node:2030616815","kind":"peak","name":"Зенгур","lat":54.7487589,"lon":59.393466,"elevationM":782},{"id":"node:2030616816","kind":"peak","name":"Каменная","lat":54.746375,"lon":59.1414924,"elevationM":null},{"id":"node:2030616817","kind":"peak","name":"Караташ","lat":54.6916853,"lon":59.1288816,"elevationM":1052},{"id":"node:2030616818","kind":"peak","name":"Караульная","lat":54.7884036,"lon":59.3949027,"elevationM":null},{"id":"node:2030616819","kind":"peak","name":"Круглая Сопка","lat":54.7101005,"lon":59.4666895,"elevationM":1016},{"id":"node:2030616820","kind":"peak","name":"Малая Каменная","lat":54.7947184,"lon":59.3264918,"elevationM":null},{"id":"node:2030616821","kind":"peak","name":"Нажим","lat":54.6932893,"lon":59.3640473,"elevationM":914},{"id":"node:2030616822","kind":"peak","name":"Насырка","lat":54.7284062,"lon":59.279933,"elevationM":null},{"id":"node:2030616823","kind":"peak","name":"Николина Сопка","lat":54.7419001,"lon":59.4483316,"elevationM":null},{"id":"node:2030616824","kind":"peak","name":"Осиновая","lat":54.752462,"lon":59.2587255,"elevationM":null},{"id":"node:2030616825","kind":"peak","name":"Свиридиха","lat":54.7826401,"lon":59.1934799,"elevationM":null},{"id":"node:2030616826","kind":"peak","name":"Средняя Сопка","lat":54.7329131,"lon":59.4378137,"elevationM":826},{"id":"node:2030616827","kind":"peak","name":"Таш-Мечеть","lat":54.7653064,"lon":59.4660979,"elevationM":791},{"id":"node:2030616828","kind":"peak","name":"Шаврина","lat":54.8441567,"lon":59.4403721,"elevationM":691},{"id":"node:2030616829","kind":"peak","name":"Школьная","lat":54.7534053,"lon":59.3198469,"elevationM":null},{"id":"node:2813116670","kind":"peak","name":"Два Братца","lat":54.9990845,"lon":59.4784675,"elevationM":1027},{"id":"node:3269232106","kind":"peak","name":"Уйташ","lat":54.6957693,"lon":59.5445083,"elevationM":874},{"id":"node:3270783261","kind":"peak","name":"Круглая","lat":54.9522659,"lon":59.9254838,"elevationM":686},{"id":"node:3292468708","kind":"peak","name":"Маяк","lat":54.871158,"lon":59.7286557,"elevationM":598},{"id":"node:4059907603","kind":"peak","name":"Агышбай","lat":54.7334507,"lon":59.769253,"elevationM":528},{"id":"node:4059907608","kind":"peak","name":"Большой Урал","lat":54.8794472,"lon":59.6089722,"elevationM":875},{"id":"node:4059907610","kind":"peak","name":"Булыштды","lat":54.7493194,"lon":59.7577639,"elevationM":477},{"id":"node:4059907613","kind":"peak","name":"Высокая","lat":54.9140417,"lon":59.490825,"elevationM":733},{"id":"node:4059907614","kind":"peak","name":"Габитдуба","lat":54.7363778,"lon":59.7858111,"elevationM":462},{"id":"node:4059907617","kind":"peak","name":"Долгая","lat":54.9341444,"lon":59.5373444,"elevationM":611},{"id":"node:4059907622","kind":"peak","name":"Киселевская","lat":54.9252889,"lon":59.9436667,"elevationM":579},{"id":"node:4059907623","kind":"peak","name":"Клубничная","lat":54.9453583,"lon":59.0155611,"elevationM":606},{"id":"node:4059907628","kind":"peak","name":"Кутерды","lat":54.777625,"lon":59.8176,"elevationM":569},{"id":"node:4059907629","kind":"peak","name":"Кышту","lat":54.6940278,"lon":59.8503861,"elevationM":487},{"id":"node:4059907632","kind":"peak","name":"Малый Кумач","lat":54.6718361,"lon":59.7161361,"elevationM":523},{"id":"node:4059907633","kind":"peak","name":"Маяк","lat":54.9807611,"lon":59.8945083,"elevationM":613},{"id":"node:4059907636","kind":"peak","name":"Миндяк","lat":54.9829472,"lon":59.5957972,"elevationM":569},{"id":"node:4059907639","kind":"peak","name":"Острая","lat":54.8799944,"lon":59.7210278,"elevationM":553},{"id":"node:4059907641","kind":"peak","name":"Плитная","lat":54.9630889,"lon":59.5612917,"elevationM":526},{"id":"node:4059907653","kind":"peak","name":"Средняя","lat":54.6786,"lon":59.5338083,"elevationM":853},{"id":"node:4059907661","kind":"peak","name":"Три Слона","lat":54.813675,"lon":59.655025,"elevationM":725},{"id":"node:4059907665","kind":"peak","name":"Шайгайтан","lat":54.9062028,"lon":59.6924889,"elevationM":762},{"id":"node:4067051494","kind":"peak","name":"Аваляк","lat":54.4923944,"lon":59.0223806,"elevationM":693},{"id":"node:4067051496","kind":"peak","name":"Алкашай","lat":54.3939361,"lon":59.2806528,"elevationM":514},{"id":"node:4067051497","kind":"peak","name":"Алёхина","lat":54.544425,"lon":59.2146417,"elevationM":680},{"id":"node:4067051498","kind":"peak","name":"Аминьтака","lat":54.4526,"lon":59.0876611,"elevationM":672},{"id":"node:4067051499","kind":"peak","name":"Аринка","lat":54.4992417,"lon":59.2619306,"elevationM":615},{"id":"node:4067051500","kind":"peak","name":"Арсенькина","lat":54.5304139,"lon":59.1969306,"elevationM":732},{"id":"node:4067051501","kind":"peak","name":"Атсапкан","lat":54.3949389,"lon":59.1801944,"elevationM":630},{"id":"node:4067051502","kind":"peak","name":"Балкбика","lat":54.3419972,"lon":59.2740889,"elevationM":524},{"id":"node:4067051503","kind":"peak","name":"Балсыкбиль","lat":54.3478778,"lon":59.0735417,"elevationM":633},{"id":"node:4067051504","kind":"peak","name":"Баранова","lat":54.5727917,"lon":59.3585667,"elevationM":625},{"id":"node:4067051505","kind":"peak","name":"Белая","lat":54.51285,"lon":59.0473139,"elevationM":762},{"id":"node:4067051506","kind":"peak","name":"Беркутья","lat":54.37665,"lon":59.3178611,"elevationM":657},{"id":"node:4067051507","kind":"peak","name":"Бигильда","lat":54.5426583,"lon":59.3241056,"elevationM":711},{"id":"node:4067051508","kind":"peak","name":"Биик-Таган","lat":54.4161333,"lon":59.0642278,"elevationM":736},{"id":"node:4067051509","kind":"peak","name":"Бирсинская","lat":54.5432944,"lon":59.2363556,"elevationM":719},{"id":"node:4067051510","kind":"peak","name":"Большая","lat":54.5818528,"lon":59.2827361,"elevationM":714},{"id":"node:4067051511","kind":"peak","name":"Большой Сакмуил","lat":54.6260944,"lon":59.1820389,"elevationM":842},{"id":"node:4067051512","kind":"peak","name":"Бурыташ","lat":54.4863611,"lon":59.1426,"elevationM":736},{"id":"node:4067051513","kind":"peak","name":"Бюркутуя","lat":54.4476972,"lon":59.1619972,"elevationM":700},{"id":"node:4067051514","kind":"peak","name":"Вишнёвая","lat":54.4214444,"lon":59.3843278,"elevationM":570},{"id":"node:4067051516","kind":"peak","name":"Воронцовская","lat":54.5598667,"lon":59.2298306,"elevationM":662},{"id":"node:4067051519","kind":"peak","name":"Дифрактау","lat":54.498925,"lon":59.2968556,"elevationM":685},{"id":"node:4067051520","kind":"peak","name":"Долгая","lat":54.5613694,"lon":59.2746667,"elevationM":692},{"id":"node:4067051522","kind":"peak","name":"Змеиная","lat":54.55785,"lon":59.2617611,"elevationM":631},{"id":"node:4067051523","kind":"peak","name":"Иван-Баш","lat":54.4746889,"lon":59.1933556,"elevationM":670},{"id":"node:4067051525","kind":"peak","name":"Истукай","lat":54.3755806,"lon":59.2722361,"elevationM":487},{"id":"node:4067051527","kind":"peak","name":"Каменная","lat":54.59195,"lon":59.2623194,"elevationM":657},{"id":"node:4067051528","kind":"peak","name":"Капытова","lat":54.5344472,"lon":59.1626,"elevationM":713},{"id":"node:4067051529","kind":"peak","name":"Карабаскан","lat":54.4932583,"lon":59.1913083,"elevationM":737},{"id":"node:4067051530","kind":"peak","name":"Карагазтюбе","lat":54.4465083,"lon":59.3815278,"elevationM":585},{"id":"node:4067051531","kind":"peak","name":"Карагужная","lat":54.587375,"lon":59.2416333,"elevationM":710},{"id":"node:4067051532","kind":"peak","name":"Кариштау","lat":54.4447778,"lon":59.2000528,"elevationM":554},{"id":"node:4067051536","kind":"peak","name":"Кубиясская","lat":54.3517944,"lon":59.023625,"elevationM":834},{"id":"node:4067051537","kind":"peak","name":"Кудбиктау","lat":54.4458806,"lon":59.2184694,"elevationM":588},{"id":"node:4067051539","kind":"peak","name":"Кукташ","lat":54.5660153,"lon":59.0159624,"elevationM":1028},{"id":"node:4067051541","kind":"peak","name":"Кунакты","lat":54.5638556,"lon":59.1391667,"elevationM":807},{"id":"node:4067051543","kind":"peak","name":"Кызылъяр","lat":54.43035,"lon":59.0745278,"elevationM":755},{"id":"node:4067051544","kind":"peak","name":"Малая Ипрахта","lat":54.5186139,"lon":59.2962972,"elevationM":641},{"id":"node:4067051545","kind":"peak","name":"Малый Сакмуил","lat":54.6164278,"lon":59.156075,"elevationM":809},{"id":"node:4067051549","kind":"peak","name":"Нажим","lat":54.6093028,"lon":59.3365083,"elevationM":754},{"id":"node:4067051550","kind":"peak","name":"Олозьярат-Бол","lat":54.3526972,"lon":59.0441361,"elevationM":671},{"id":"node:4067051551","kind":"peak","name":"Орнытау","lat":54.4807333,"lon":59.3200722,"elevationM":578},{"id":"node:4067051552","kind":"peak","name":"Офицерская","lat":54.5930778,"lon":59.32595,"elevationM":756},{"id":"node:4067051557","kind":"peak","name":"Сайдакская","lat":54.5090444,"lon":59.2240389,"elevationM":761},{"id":"node:4067051558","kind":"peak","name":"Сафартау","lat":54.4935528,"lon":59.3307583,"elevationM":589},{"id":"node:4067051559","kind":"peak","name":"Синкатал","lat":54.5578556,"lon":59.0857278,"elevationM":735},{"id":"node:4067051560","kind":"peak","name":"Статюбе","lat":54.4060722,"lon":59.3194278,"elevationM":543},{"id":"node:4067051561","kind":"peak","name":"Сутташ","lat":54.3363083,"lon":59.0366694,"elevationM":676},{"id":"node:4067051562","kind":"peak","name":"Сэрэкэй","lat":54.5374222,"lon":59.3644472,"elevationM":665},{"id":"node:4067051563","kind":"peak","name":"Такульган","lat":54.3615306,"lon":59.0743556,"elevationM":736},{"id":"node:4067051564","kind":"peak","name":"Тирмэнтау","lat":54.4300833,"lon":59.2044278,"elevationM":614},{"id":"node:4067051565","kind":"peak","name":"Ужан","lat":54.4288194,"lon":59.3843278,"elevationM":599},{"id":"node:4067051566","kind":"peak","name":"Уккайташ","lat":54.3861028,"lon":59.0807944,"elevationM":689},{"id":"node:4067051567","kind":"peak","name":"Укозя","lat":54.5052833,"lon":59.1516139,"elevationM":842},{"id":"node:4067051568","kind":"peak","name":"Улутау","lat":54.3628361,"lon":59.2727722,"elevationM":582},{"id":"node:4067051569","kind":"peak","name":"Хакайтау","lat":54.42305,"lon":59.1361194,"elevationM":755},{"id":"node:4067051570","kind":"peak","name":"Хасамтуш","lat":54.3781194,"lon":59.0826389,"elevationM":736},{"id":"node:4067051571","kind":"peak","name":"Шайтансакырган","lat":54.4762472,"lon":59.1059417,"elevationM":743},{"id":"node:4067051572","kind":"peak","name":"Шаулама","lat":54.3808417,"lon":59.3378917,"elevationM":666},{"id":"node:4067051573","kind":"peak","name":"Щагытау","lat":54.4584361,"lon":59.0041417,"elevationM":680},{"id":"node:4067051574","kind":"peak","name":"Юлсуба","lat":54.3671694,"lon":59.3545,"elevationM":610},{"id":"node:4067051575","kind":"peak","name":"Янтык","lat":54.62905,"lon":59.3844444,"elevationM":743},{"id":"node:4068319529","kind":"peak","name":"Акыш-Аткан","lat":54.5912,"lon":59.4424028,"elevationM":576},{"id":"node:4068319530","kind":"peak","name":"Антонова","lat":54.4546472,"lon":59.9606306,"elevationM":381},{"id":"node:4068319531","kind":"peak","name":"Аратау","lat":54.5879028,"lon":59.5146778,"elevationM":750},{"id":"node:4068319533","kind":"peak","name":"Артамонова","lat":54.4491444,"lon":59.9292917,"elevationM":407},{"id":"node:4068319535","kind":"peak","name":"Баик","lat":54.6256361,"lon":59.4341361,"elevationM":700},{"id":"node:4068319536","kind":"peak","name":"Барсучья","lat":54.5780861,"lon":59.8596083,"elevationM":423},{"id":"node:4068319539","kind":"peak","name":"Беркут","lat":54.6249361,"lon":59.7360944,"elevationM":552},{"id":"node:4068319541","kind":"peak","name":"Бик-Батэр","lat":54.6001528,"lon":59.472875,"elevationM":600},{"id":"node:4068319542","kind":"peak","name":"Большая Горка","lat":54.4850361,"lon":59.7894222,"elevationM":391},{"id":"node:4068319543","kind":"peak","name":"Большая Горка","lat":54.56265,"lon":59.5677417,"elevationM":538},{"id":"node:4068319546","kind":"peak","name":"Большой Кумач","lat":54.6646806,"lon":59.7613556,"elevationM":709},{"id":"node:4068319547","kind":"peak","name":"Бузхангай","lat":54.639,"lon":59.8306417,"elevationM":418},{"id":"node:4068319548","kind":"peak","name":"Булашты","lat":54.3334056,"lon":59.5875667,"elevationM":509},{"id":"node:4068319549","kind":"peak","name":"Бюрюкай","lat":54.3361583,"lon":59.5388472,"elevationM":554},{"id":"node:4068319551","kind":"peak","name":"Вишнёвая","lat":54.6059778,"lon":59.9185,"elevationM":438},{"id":"node:4068319552","kind":"peak","name":"Воронинская Сопка","lat":54.3584,"lon":59.7907944,"elevationM":484},{"id":"node:4068319553","kind":"peak","name":"Гамык","lat":54.3399306,"lon":59.4923583,"elevationM":544},{"id":"node:4068319554","kind":"peak","name":"Гафар","lat":54.4835972,"lon":59.4367833,"elevationM":583},{"id":"node:4068319555","kind":"peak","name":"Гафартуш","lat":54.4821306,"lon":59.463775,"elevationM":643},{"id":"node:4068319556","kind":"peak","name":"Гляденова","lat":54.5089472,"lon":59.9222333,"elevationM":379},{"id":"node:4068319558","kind":"peak","name":"Долгая","lat":54.4949722,"lon":59.9210111,"elevationM":454},{"id":"node:4068319559","kind":"peak","name":"Дунграй","lat":54.5330611,"lon":59.5345556,"elevationM":708},{"id":"node:4068319560","kind":"peak","name":"Еловая Горка","lat":54.5654472,"lon":59.5589417,"elevationM":516},{"id":"node:4068319562","kind":"peak","name":"Зераттау","lat":54.5851194,"lon":59.5458333,"elevationM":461},{"id":"node:4068319566","kind":"peak","name":"Золотая","lat":54.4586694,"lon":59.4751917,"elevationM":571},{"id":"node:4068319567","kind":"peak","name":"Игнатьева","lat":54.3455083,"lon":59.7640583,"elevationM":519},{"id":"node:4068319568","kind":"peak","name":"Известковая","lat":54.5814694,"lon":59.8463889,"elevationM":426},{"id":"node:4068319569","kind":"peak","name":"Ильчитау","lat":54.447825,"lon":59.58525,"elevationM":510},{"id":"node:4068319570","kind":"peak","name":"Истумбай","lat":54.3584833,"lon":59.6787167,"elevationM":541},{"id":"node:4068319571","kind":"peak","name":"Иши-Халтау","lat":54.6074861,"lon":59.4792694,"elevationM":565},{"id":"node:4068319572","kind":"peak","name":"Ишикай","lat":54.574625,"lon":59.514,"elevationM":619},{"id":"node:4068319573","kind":"peak","name":"Какбаш","lat":54.3421083,"lon":59.4074861,"elevationM":631},{"id":"node:4068319574","kind":"peak","name":"Калмакар","lat":54.4451139,"lon":59.5755306,"elevationM":602},{"id":"node:4068319575","kind":"peak","name":"Каматал","lat":54.4683889,"lon":59.7290833,"elevationM":455},{"id":"node:4068319576","kind":"peak","name":"Кантык","lat":54.65155,"lon":59.4437778,"elevationM":728},{"id":"node:4068319577","kind":"peak","name":"Карагазтау","lat":54.4562333,"lon":59.593275,"elevationM":535},{"id":"node:4068319578","kind":"peak","name":"Карагазтау","lat":54.6112028,"lon":59.7339917,"elevationM":482},{"id":"node:4068319579","kind":"peak","name":"Карагастюбе","lat":54.3464917,"lon":59.5597583,"elevationM":551},{"id":"node:4068319580","kind":"peak","name":"Карантау","lat":54.5824833,"lon":59.5409083,"elevationM":458},{"id":"node:4068319581","kind":"peak","name":"Караултуба","lat":54.5404472,"lon":59.3894194,"elevationM":626},{"id":"node:4068319582","kind":"peak","name":"Каршитау","lat":54.580475,"lon":59.6017833,"elevationM":526},{"id":"node:4068319586","kind":"peak","name":"Константиновская","lat":54.52265,"lon":59.7917833,"elevationM":425},{"id":"node:4068319990","kind":"peak","name":"Крутая","lat":54.543075,"lon":59.9472083,"elevationM":402},{"id":"node:4068319991","kind":"peak","name":"Крутин","lat":54.4606056,"lon":59.7594417,"elevationM":471},{"id":"node:4068319992","kind":"peak","name":"Кузибиль","lat":54.5486861,"lon":59.4330639,"elevationM":614},{"id":"node:4068319993","kind":"peak","name":"Куштюбе","lat":54.4587556,"lon":59.3965861,"elevationM":606},{"id":"node:4068319994","kind":"peak","name":"Кыргыз","lat":54.59865,"lon":59.7384139,"elevationM":405},{"id":"node:4068319996","kind":"peak","name":"Лысуха","lat":54.6471389,"lon":59.5965917,"elevationM":440},{"id":"node:4068319997","kind":"peak","name":"Майдыюрт","lat":54.4681389,"lon":59.4402583,"elevationM":618},{"id":"node:4068319998","kind":"peak","name":"Майтюбэ","lat":54.6148361,"lon":59.8654,"elevationM":428},{"id":"node:4068320000","kind":"peak","name":"Малые Юшкады","lat":54.6312833,"lon":59.4594417,"elevationM":675},{"id":"node:4068320001","kind":"peak","name":"Малый Каматал","lat":54.4727278,"lon":59.7409889,"elevationM":449},{"id":"node:4068320002","kind":"peak","name":"Малый Сангалык","lat":54.5102222,"lon":59.5033556,"elevationM":647},{"id":"node:4068320005","kind":"peak","name":"Машкина","lat":54.4656472,"lon":59.7639306,"elevationM":430},{"id":"node:4068320006","kind":"peak","name":"Маяк","lat":54.5182639,"lon":59.8197639,"elevationM":444},{"id":"node:4068320007","kind":"peak","name":"Маячная","lat":54.5497889,"lon":59.8169306,"elevationM":408},{"id":"node:4068320008","kind":"peak","name":"Могильная","lat":54.42495,"lon":59.7015889,"elevationM":448},{"id":"node:4068320009","kind":"peak","name":"Мортектау","lat":54.3424889,"lon":59.5794556,"elevationM":556},{"id":"node:4068320011","kind":"peak","name":"Муртакты","lat":54.4791889,"lon":59.5592222,"elevationM":566},{"id":"node:4068320012","kind":"peak","name":"Мустай","lat":54.6485306,"lon":59.7742722,"elevationM":525},{"id":"node:4068320013","kind":"peak","name":"Мягкая","lat":54.5559111,"lon":59.9948167,"elevationM":466},{"id":"node:4068320014","kind":"peak","name":"Озёрная","lat":54.6497278,"lon":59.5682361,"elevationM":468},{"id":"node:4068320015","kind":"peak","name":"Олатау","lat":54.6404417,"lon":59.7762889,"elevationM":500},{"id":"node:4068320016","kind":"peak","name":"Оркылытау","lat":54.4757889,"lon":59.399975,"elevationM":561},{"id":"node:4068320017","kind":"peak","name":"Остотау","lat":54.4519917,"lon":59.5785972,"elevationM":512},{"id":"node:4068320018","kind":"peak","name":"Острая","lat":54.4497778,"lon":59.7652611,"elevationM":477},{"id":"node:4068320019","kind":"peak","name":"Острая","lat":54.4859194,"lon":59.4813278,"elevationM":578},{"id":"node:4068320021","kind":"peak","name":"Перелом","lat":54.6339861,"lon":59.586175,"elevationM":470},{"id":"node:4068320022","kind":"peak","name":"Прудовая","lat":54.5368444,"lon":59.8071889,"elevationM":376},{"id":"node:4068320023","kind":"peak","name":"Пчёлка","lat":54.3919472,"lon":59.7080722,"elevationM":488},{"id":"node:4068320024","kind":"peak","name":"Ремова","lat":54.5206917,"lon":59.8363889,"elevationM":422},{"id":"node:4068320025","kind":"peak","name":"Ряшкина","lat":54.4971167,"lon":59.9754361,"elevationM":418},{"id":"node:4068320026","kind":"peak","name":"Садовая","lat":54.5569389,"lon":59.5615611,"elevationM":531},{"id":"node:4068320027","kind":"peak","name":"Сактау","lat":54.3574833,"lon":59.6005389,"elevationM":545},{"id":"node:4068320028","kind":"peak","name":"Сангалык","lat":54.5235083,"lon":59.5199222,"elevationM":687},{"id":"node:4068320029","kind":"peak","name":"Сангобай","lat":54.4634278,"lon":59.5331306,"elevationM":570},{"id":"node:4068320030","kind":"peak","name":"Һарыбай","lat":54.5334639,"lon":59.6676861,"elevationM":449},{"id":"node:4068320032","kind":"peak","name":"Сигбай","lat":54.3393778,"lon":59.6208389,"elevationM":526},{"id":"node:4068320034","kind":"peak","name":"Соболева","lat":54.5924444,"lon":59.9452778,"elevationM":491},{"id":"node:4068320035","kind":"peak","name":"Соколиная","lat":54.3761278,"lon":59.7910083,"elevationM":441},{"id":"node:4068320037","kind":"peak","name":"Солоничная","lat":54.5232694,"lon":59.7665056,"elevationM":409},{"id":"node:4068320040","kind":"peak","name":"Сопка","lat":54.4649444,"lon":59.9245722,"elevationM":474},{"id":"node:4068320044","kind":"peak","name":"Такумбат","lat":54.5046528,"lon":59.4696111,"elevationM":597},{"id":"node:4068320045","kind":"peak","name":"Тарандык","lat":54.6069139,"lon":59.4558806,"elevationM":586},{"id":"node:4068320048","kind":"peak","name":"Таумурука","lat":54.5451778,"lon":59.4266694,"elevationM":600},{"id":"node:4068320049","kind":"peak","name":"Ташьяр","lat":54.3448722,"lon":59.6713389,"elevationM":558},{"id":"node:4068320051","kind":"peak","name":"Тубак","lat":54.5070139,"lon":59.3995889,"elevationM":564},{"id":"node:4068320053","kind":"peak","name":"Тэркли","lat":54.4507528,"lon":59.6812472,"elevationM":421},{"id":"node:4068320054","kind":"peak","name":"Убатау","lat":54.3567444,"lon":59.4091611,"elevationM":550},{"id":"node:4068320055","kind":"peak","name":"Уйская","lat":54.3437722,"lon":59.9541056,"elevationM":388},{"id":"node:4068320056","kind":"peak","name":"Уттау","lat":54.5762944,"lon":59.6209667,"elevationM":519},{"id":"node:4068320057","kind":"peak","name":"Ушуган","lat":54.6398389,"lon":59.4449361,"elevationM":749},{"id":"node:4068320058","kind":"peak","name":"Фоминская Сопка","lat":54.35575,"lon":59.7808806,"elevationM":509},{"id":"node:4068320059","kind":"peak","name":"Хабултау","lat":54.6182972,"lon":59.4809,"elevationM":561},{"id":"node:4068320060","kind":"peak","name":"Хазина","lat":54.3379278,"lon":59.7009472,"elevationM":510},{"id":"node:4068320061","kind":"peak","name":"Хусникамсыл","lat":54.3832417,"lon":59.5546944,"elevationM":507},{"id":"node:4068320062","kind":"peak","name":"Чебарты","lat":54.6263361,"lon":59.8739417,"elevationM":471},{"id":"node:4068320063","kind":"peak","name":"Чубтэкуль","lat":54.4473306,"lon":59.4061556,"elevationM":619},{"id":"node:4068320064","kind":"peak","name":"Шакиртау","lat":54.3932222,"lon":59.5561528,"elevationM":507},{"id":"node:4068320065","kind":"peak","name":"Шартымка","lat":54.5252139,"lon":59.722475,"elevationM":571},{"id":"node:4068320066","kind":"peak","name":"Школьная Горка","lat":54.5638806,"lon":59.5630194,"elevationM":507},{"id":"node:4068320067","kind":"peak","name":"Шум","lat":54.4746083,"lon":59.9474556,"elevationM":386},{"id":"node:4068320068","kind":"peak","name":"Щелканды","lat":54.6581861,"lon":59.9702556,"elevationM":567},{"id":"node:4068320069","kind":"peak","name":"Щипица","lat":54.3685806,"lon":59.7329667,"elevationM":518},{"id":"node:4068320070","kind":"peak","name":"Юмашбыйга","lat":54.6345056,"lon":59.7625139,"elevationM":487},{"id":"node:4068320071","kind":"peak","name":"Юнгатау","lat":54.4439167,"lon":59.5139028,"elevationM":579},{"id":"node:4068320072","kind":"peak","name":"Юшкады","lat":54.6177,"lon":59.4580694,"elevationM":679},{"id":"node:4068320073","kind":"peak","name":"Якова","lat":54.4842528,"lon":59.9281333,"elevationM":439},{"id":"node:4068320074","kind":"peak","name":"Якубтау","lat":54.536325,"lon":59.4573806,"elevationM":577},{"id":"node:4068320075","kind":"peak","name":"Яртуба","lat":54.6538083,"lon":59.4751472,"elevationM":706},{"id":"node:4075549875","kind":"peak","name":"Авлия","lat":54.1492083,"lon":59.1749028,"elevationM":697},{"id":"node:4075549876","kind":"peak","name":"Агосорган","lat":54.2545,"lon":59.5816833,"elevationM":457},{"id":"node:4075549877","kind":"peak","name":"Азосагоргам","lat":54.1728139,"lon":59.0671278,"elevationM":700},{"id":"node:4075549878","kind":"peak","name":"Аратюбе","lat":54.0016889,"lon":59.071675,"elevationM":607},{"id":"node:4075549879","kind":"peak","name":"Асансуфа","lat":54.3242,"lon":59.5389139,"elevationM":628},{"id":"node:4075549880","kind":"peak","name":"Баксанова","lat":54.0793056,"lon":59.352675,"elevationM":606},{"id":"node:4075549881","kind":"peak","name":"Баран-Оскан","lat":54.1580667,"lon":59.1778639,"elevationM":706},{"id":"node:4075549882","kind":"peak","name":"Букандар","lat":54.0995139,"lon":59.0459417,"elevationM":498},{"id":"node:4075549883","kind":"peak","name":"Генеральская Горка","lat":54.0394464,"lon":59.515217,"elevationM":473},{"id":"node:4075549884","kind":"peak","name":"Девья","lat":54.0287083,"lon":59.4136222,"elevationM":475},{"id":"node:4075549885","kind":"peak","name":"Дедушкина Горка","lat":54.0597861,"lon":59.5958889,"elevationM":482},{"id":"node:4075549886","kind":"peak","name":"Озонгор","lat":54.2128194,"lon":59.2015528,"elevationM":566},{"id":"node:4075549887","kind":"peak","name":"Еренаттау","lat":54.0403083,"lon":59.1145917,"elevationM":580},{"id":"node:4075549888","kind":"peak","name":"Забиртау","lat":54.3289806,"lon":59.2313778,"elevationM":571},{"id":"node:4075550589","kind":"peak","name":"Заставная","lat":54.0857528,"lon":59.4952694,"elevationM":507},{"id":"node:4075550590","kind":"peak","name":"Зирекле","lat":54.2188444,"lon":59.5079722,"elevationM":517},{"id":"node:4075550591","kind":"peak","name":"Итурлаган","lat":54.1661667,"lon":59.2593722,"elevationM":656},{"id":"node:4075550592","kind":"peak","name":"Ишангул","lat":54.1028361,"lon":59.0346111,"elevationM":517},{"id":"node:4075550593","kind":"peak","name":"Кадыбар","lat":54.0326583,"lon":59.1875583,"elevationM":527},{"id":"node:4075550594","kind":"peak","name":"Каменная","lat":54.069525,"lon":59.2384611,"elevationM":525},{"id":"node:4075550595","kind":"peak","name":"Капсагай","lat":54.0228722,"lon":59.0434528,"elevationM":656},{"id":"node:4075550596","kind":"peak","name":"Карасыер","lat":54.2402222,"lon":59.41315,"elevationM":651},{"id":"node:4075550597","kind":"peak","name":"Караултау","lat":54.2325389,"lon":59.5582083,"elevationM":467},{"id":"node:4075550598","kind":"peak","name":"Корабейщикова","lat":54.0807667,"lon":59.316025,"elevationM":554},{"id":"node:4075550599","kind":"peak","name":"Корнеева","lat":54.0701278,"lon":59.325425,"elevationM":518},{"id":"node:4075550600","kind":"peak","name":"Крупинина","lat":54.0269667,"lon":59.5905667,"elevationM":553},{"id":"node:4075550601","kind":"peak","name":"Крутенькая","lat":54.0207667,"lon":59.4511722,"elevationM":496},{"id":"node:4075550602","kind":"peak","name":"Куняктау","lat":54.1594278,"lon":59.1590722,"elevationM":701},{"id":"node:4075550603","kind":"peak","name":"Кусяк-Игэ","lat":54.0029611,"lon":59.0174889,"elevationM":674},{"id":"node:4075550604","kind":"peak","name":"Лашбай","lat":54.2392111,"lon":59.5786361,"elevationM":459},{"id":"node:4075550605","kind":"peak","name":"Мажитюбе","lat":54.0016639,"lon":59.1039917,"elevationM":458},{"id":"node:4075550606","kind":"peak","name":"Прохорова","lat":54.0859528,"lon":59.3292,"elevationM":553},{"id":"node:4075550607","kind":"peak","name":"Сварат","lat":54.1529389,"lon":59.0333667,"elevationM":576},{"id":"node:4075550608","kind":"peak","name":"Спыткова","lat":54.0079028,"lon":59.3471389,"elevationM":535},{"id":"node:4075550609","kind":"peak","name":"Сунгур","lat":54.0663361,"lon":59.1451222,"elevationM":588},{"id":"node:4075550610","kind":"peak","name":"Табанды","lat":54.1411083,"lon":59.3010444,"elevationM":660},{"id":"node:4075550611","kind":"peak","name":"Тай-Балаган","lat":54.1299611,"lon":59.1661806,"elevationM":680},{"id":"node:4075550612","kind":"peak","name":"Тартыарка","lat":54.2886972,"lon":59.5630583,"elevationM":476},{"id":"node:4075550613","kind":"peak","name":"Таудыга","lat":54.0903861,"lon":59.0076167,"elevationM":556},{"id":"node:4075550614","kind":"peak","name":"Ташкыятау","lat":54.0279194,"lon":59.1339222,"elevationM":641},{"id":"node:4075550615","kind":"peak","name":"Таштыктау","lat":54.0698417,"lon":59.2197028,"elevationM":528},{"id":"node:4075550616","kind":"peak","name":"Тугузтюбе","lat":54.136675,"lon":59.203175,"elevationM":588},{"id":"node:4075550617","kind":"peak","name":"Туйтюбе","lat":54.1297722,"lon":59.0116944,"elevationM":575},{"id":"node:4075550618","kind":"peak","name":"Тукмак","lat":54.0821278,"lon":59.1043778,"elevationM":645},{"id":"node:4075550619","kind":"peak","name":"Тыштагыр","lat":54.1823667,"lon":59.2739639,"elevationM":649},{"id":"node:4075550620","kind":"peak","name":"Тюлькюлю","lat":54.1023833,"lon":59.0634083,"elevationM":494},{"id":"node:4075550621","kind":"peak","name":"Тёплая","lat":54.0742972,"lon":59.07395,"elevationM":527},{"id":"node:4075550622","kind":"peak","name":"Укат-Кантау","lat":54.1617111,"lon":59.2301778,"elevationM":633},{"id":"node:4075550623","kind":"peak","name":"Олотау","lat":54.2072583,"lon":59.1096556,"elevationM":620},{"id":"node:4075550624","kind":"peak","name":"Урлядинская","lat":54.0426083,"lon":59.3424194,"elevationM":574},{"id":"node:4075550625","kind":"peak","name":"Уртатюбь","lat":54.1024583,"lon":59.0413056,"elevationM":471},{"id":"node:4075550626","kind":"peak","name":"Урусульган","lat":54.2834278,"lon":59.2540694,"elevationM":659},{"id":"node:4075550627","kind":"peak","name":"Устубиек","lat":54.2131806,"lon":59.0729639,"elevationM":774},{"id":"node:4075550628","kind":"peak","name":"Утанкташ","lat":54.2059417,"lon":59.3699333,"elevationM":698},{"id":"node:4075550629","kind":"peak","name":"Шанка","lat":54.0075778,"lon":59.0179611,"elevationM":659},{"id":"node:4075550630","kind":"peak","name":"Юкагайк","lat":54.1737083,"lon":59.1649083,"elevationM":680},{"id":"node:4075550631","kind":"peak","name":"Юрактау","lat":54.1464778,"lon":59.1582556,"elevationM":627},{"id":"node:4075550632","kind":"peak","name":"Яллы","lat":54.1899,"lon":59.2086333,"elevationM":523},{"id":"node:4075550633","kind":"peak","name":"Ялшанская","lat":54.0919611,"lon":59.4423333,"elevationM":606},{"id":"node:4075550635","kind":"peak","name":"Янтул","lat":54.2104417,"lon":59.2886417,"elevationM":574},{"id":"node:4075550636","kind":"peak","name":"Янтыкбаш","lat":54.0769806,"lon":59.0411778,"elevationM":643},{"id":"node:4076712823","kind":"peak","name":"Актубэ","lat":54.2585361,"lon":59.7255333,"elevationM":474},{"id":"node:4076712825","kind":"peak","name":"Ахунтау","lat":54.3159806,"lon":59.6250833,"elevationM":526},{"id":"node:4076712827","kind":"peak","name":"Бабушкина","lat":54.2739778,"lon":59.9362528,"elevationM":333},{"id":"node:4076712833","kind":"peak","name":"Выдрина","lat":54.2648056,"lon":59.9195583,"elevationM":348},{"id":"node:4076712838","kind":"peak","name":"Дубровная","lat":54.1036389,"lon":59.7634639,"elevationM":465},{"id":"node:4076712843","kind":"peak","name":"Исмайлова","lat":54.3254417,"lon":59.7989139,"elevationM":506},{"id":"node:4076712844","kind":"peak","name":"Каинова","lat":54.0045472,"lon":59.8093111,"elevationM":453},{"id":"node:4076712846","kind":"peak","name":"Каменная Горка","lat":54.2729417,"lon":59.7823056,"elevationM":458},{"id":"node:4076712848","kind":"peak","name":"Карагастубэ","lat":54.1822083,"lon":59.6284306,"elevationM":446},{"id":"node:4076712849","kind":"peak","name":"Карагушева","lat":54.1785389,"lon":59.8334722,"elevationM":374},{"id":"node:4076712853","kind":"peak","name":"Кошарная","lat":54.3193778,"lon":59.9219194,"elevationM":340},{"id":"node:4076712854","kind":"peak","name":"Кошлытау","lat":54.196525,"lon":59.7130028,"elevationM":427},{"id":"node:4076712856","kind":"peak","name":"Крылова","lat":54.033425,"lon":59.8122278,"elevationM":442},{"id":"node:4076712860","kind":"peak","name":"Лешачья","lat":54.1302333,"lon":59.6599306,"elevationM":514},{"id":"node:4076712862","kind":"peak","name":"Малкова","lat":54.2656583,"lon":59.9352667,"elevationM":348},{"id":"node:4076712864","kind":"peak","name":"Медная","lat":54.2199028,"lon":59.7788722,"elevationM":403},{"id":"node:4076712866","kind":"peak","name":"Мокай","lat":54.2996444,"lon":59.6250417,"elevationM":422},{"id":"node:4076712867","kind":"peak","name":"Муруташ","lat":54.2496889,"lon":59.6565833,"elevationM":366},{"id":"node:4076712868","kind":"peak","name":"Мысовая","lat":54.1174556,"lon":59.8956972,"elevationM":357},{"id":"node:4076712873","kind":"peak","name":"Салотка","lat":54.32905,"lon":59.8909917,"elevationM":358},{"id":"node:4076712874","kind":"peak","name":"Сальтюбе","lat":54.1842694,"lon":59.7096556,"elevationM":445},{"id":"node:4076712875","kind":"peak","name":"Семкина","lat":54.2899722,"lon":59.8210694,"elevationM":513},{"id":"node:4076712877","kind":"peak","name":"Сопка","lat":54.1414361,"lon":59.7712333,"elevationM":442},{"id":"node:4076712880","kind":"peak","name":"Томаттау","lat":54.2056472,"lon":59.7121861,"elevationM":438},{"id":"node:4076712883","kind":"peak","name":"Усольцева","lat":54.1602083,"lon":59.9561889,"elevationM":388},{"id":"node:4076712888","kind":"peak","name":"Шакиртау","lat":54.1895444,"lon":59.7033889,"elevationM":447},{"id":"node:4076712889","kind":"peak","name":"Шарышка","lat":54.2253611,"lon":59.6622917,"elevationM":396},{"id":"node:4264046076","kind":"peak","name":"Бесан-Туба","lat":54.2056722,"lon":59.1440889,"elevationM":540},{"id":"node:7885882524","kind":"peak","name":"Таштыгыр","lat":54.1991399,"lon":59.2318758,"elevationM":null},{"id":"node:8507423214","kind":"peak","name":"Голая Сопка","lat":54.9515292,"lon":59.1522877,"elevationM":1055},{"id":"node:9080966749","kind":"peak","name":"Какрыкарагай","lat":54.4050756,"lon":59.0238037,"elevationM":834},{"id":"node:10922208591","kind":"peak","name":"Зюраткульские столбы","lat":54.9486316,"lon":59.1277808,"elevationM":null},{"id":"node:13722029201","kind":"peak","name":"Мукте-Хаз","lat":54.225585,"lon":59.0813507,"elevationM":null}]}