{"tileKey":"la_p33_lo_p139","version":"v1-1775891056926","entries":[{"id":"node:4279773264","kind":"peak","name":"一の森","lat":33.8712501,"lon":139.6066672,"elevationM":null},{"id":"node:4279773267","kind":"peak","name":"御山","lat":33.8743812,"lon":139.6019197,"elevationM":851},{"id":"node:4279773271","kind":"peak","name":"長滝山","lat":33.8707112,"lon":139.6106208,"elevationM":null},{"id":"node:4279773272","kind":"peak","name":"黒崎高尾山","lat":33.8625532,"lon":139.5863629,"elevationM":544},{"id":"node:4352573427","kind":"peak","name":"西山","lat":33.1389951,"lon":139.765051,"elevationM":854},{"id":"node:4420332363","kind":"peak","name":"神止山","lat":33.1284933,"lon":139.7952677,"elevationM":195},{"id":"node:4437101867","kind":"peak","name":"東台子山","lat":33.0858285,"lon":139.8205138,"elevationM":635},{"id":"node:4437101868","kind":"peak","name":"東山","lat":33.0920848,"lon":139.812223,"elevationM":701},{"id":"node:4443768584","kind":"peak","name":"東白雲山","lat":33.1009746,"lon":139.8299863,"elevationM":608},{"id":"node:4443768587","kind":"peak","name":"西白雲山","lat":33.0985029,"lon":139.8252012,"elevationM":635},{"id":"node:8360749297","kind":"peak","name":"大平山","lat":33.1255569,"lon":139.6882975,"elevationM":617}]}