{"tileKey":"la_p38_lo_m121","version":"v1-1775891056926","entries":[{"id":"node:334238115","kind":"peak","name":"Pyramid Peak","lat":38.845009,"lon":-120.1578443,"elevationM":3043},{"id":"node:358760677","kind":"peak","name":"Mount Aigare","lat":38.6057389,"lon":-120.9196617,"elevationM":454},{"id":"node:358761052","kind":"peak","name":"Mount Ararat","lat":38.1151989,"lon":-120.704654,"elevationM":679},{"id":"node:358761056","kind":"peak","name":"Mount Ararat","lat":38.8529558,"lon":-120.9399402,"elevationM":610},{"id":"node:358761188","kind":"peak","name":"Mount Aukum","lat":38.5740731,"lon":-120.7268768,"elevationM":797},{"id":"node:358761331","kind":"peak","name":"Bald Mountain","lat":38.1382535,"lon":-120.9504951,"elevationM":153},{"id":"node:358761335","kind":"peak","name":"Bald Mountain","lat":38.144641,"lon":-120.0871308,"elevationM":1771},{"id":"node:358761349","kind":"peak","name":"Bald Mountain","lat":38.9040683,"lon":-120.7052071,"elevationM":1396},{"id":"node:358761422","kind":"peak","name":"Baltic Peak","lat":38.6943491,"lon":-120.51548,"elevationM":1541},{"id":"node:358761855","kind":"peak","name":"Big Butte","lat":38.6765716,"lon":-120.5607595,"elevationM":1306},{"id":"node:358761869","kind":"peak","name":"Big Dome","lat":38.2832493,"lon":-120.7766022,"elevationM":437},{"id":"node:358761900","kind":"peak","name":"Big Mountain","lat":38.8357361,"lon":-120.6365946,"elevationM":1283},{"id":"node:358761978","kind":"peak","name":"Bisbee Peak","lat":38.4915752,"lon":-120.8893827,"elevationM":355},{"id":"node:358762659","kind":"peak","name":"Buena Vista Peaks","lat":38.2699164,"lon":-120.9143838,"elevationM":251},{"id":"node:358762698","kind":"peak","name":"Bunker Hill","lat":38.4243552,"lon":-120.8193805,"elevationM":408},{"id":"node:358762848","kind":"peak","name":"Cable Point","lat":38.7921249,"lon":-120.6774298,"elevationM":856},{"id":"node:358763114","kind":"peak","name":"Carmen Peak","lat":38.054645,"lon":-120.6621513,"elevationM":786},{"id":"node:358763337","kind":"peak","name":"Central Hill","lat":38.22964,"lon":-120.7363232,"elevationM":460},{"id":"node:358763538","kind":"peak","name":"China Mountain","lat":38.5929615,"lon":-120.879938,"elevationM":526},{"id":"node:358763590","kind":"peak","name":"Chrome Mountain","lat":38.2874158,"lon":-120.8349371,"elevationM":366},{"id":"node:358763671","kind":"peak","name":"Clark Mountain","lat":38.8124008,"lon":-120.957441,"elevationM":478},{"id":"node:358763750","kind":"peak","name":"Clinton Peak","lat":38.3796346,"lon":-120.675487,"elevationM":733},{"id":"node:358764009","kind":"peak","name":"Cone Hill","lat":38.1843637,"lon":-120.3307508,"elevationM":807},{"id":"node:358764285","kind":"peak","name":"Crandall Peak","lat":38.158808,"lon":-120.1432439,"elevationM":1664},{"id":"node:358764602","kind":"peak","name":"Deer Peak","lat":38.1707528,"lon":-120.7307668,"elevationM":582},{"id":"node:358764727","kind":"peak","name":"Dicks Peak","lat":38.900502,"lon":-120.1509717,"elevationM":3042},{"id":"node:358764896","kind":"peak","name":"Doud Hill","lat":38.2124185,"lon":-120.3371405,"elevationM":1264},{"id":"node:358765368","kind":"peak","name":"Elizabeth Peak","lat":38.0632558,"lon":-120.2479676,"elevationM":1486},{"id":"node:358765907","kind":"peak","name":"Flagpole Point","lat":38.4593565,"lon":-120.1107447,"elevationM":2413},{"id":"node:358766599","kind":"peak","name":"Goat Hill","lat":38.2951933,"lon":-120.7793799,"elevationM":461},{"id":"node:358766650","kind":"peak","name":"Golden Gate Hill","lat":38.2471395,"lon":-120.7443791,"elevationM":605},{"id":"node:358767464","kind":"peak","name":"High Mountain","lat":38.1693636,"lon":-120.510202,"elevationM":748},{"id":"node:358768072","kind":"peak","name":"Iowa Hill","lat":38.7704584,"lon":-120.6907638,"elevationM":867},{"id":"node:358768091","kind":"peak","name":"Iron Mountain","lat":38.7037962,"lon":-120.3563071,"elevationM":1902},{"id":"node:358768134","kind":"peak","name":"Italian Point","lat":38.1404758,"lon":-120.6063167,"elevationM":385},{"id":"node:358768176","kind":"peak","name":"Jacks Peak","lat":38.8904633,"lon":-120.1540764,"elevationM":3002},{"id":"node:358768185","kind":"peak","name":"Jackson Butte","lat":38.3399137,"lon":-120.7213219,"elevationM":701},{"id":"node:358768386","kind":"peak","name":"Joaquin Peak","lat":38.141587,"lon":-120.6910426,"elevationM":854},{"id":"node:358768396","kind":"peak","name":"John Bull Peak","lat":38.2571391,"lon":-120.8243813,"elevationM":315},{"id":"node:358769216","kind":"peak","name":"Leek Spring Hill","lat":38.6293543,"lon":-120.2774159,"elevationM":2323},{"id":"node:358769263","kind":"peak","name":"Mount Lewis","lat":38.0354779,"lon":-120.1624095,"elevationM":1661},{"id":"node:358769454","kind":"peak","name":"Little Butte","lat":38.665183,"lon":-120.5527038,"elevationM":1142},{"id":"node:358770141","kind":"peak","name":"Marble Mountain","lat":38.0254778,"lon":-120.1282418,"elevationM":1665},{"id":"node:358770413","kind":"peak","name":"McConnell Peak","lat":38.9485185,"lon":-120.2429683,"elevationM":2770},{"id":"node:358770710","kind":"peak","name":"Middle Butte","lat":38.6707383,"lon":-120.556315,"elevationM":1260},{"id":"node:358770714","kind":"peak","name":"Middle Mountain","lat":38.9565743,"lon":-120.1812994,"elevationM":2539},{"id":"node:358772090","kind":"peak","name":"Opal Hill","lat":38.0932549,"lon":-120.8910488,"elevationM":111},{"id":"node:358772097","kind":"peak","name":"Mount Ophir","lat":38.2443618,"lon":-120.7274341,"elevationM":376},{"id":"node:358772197","kind":"peak","name":"Osborne Hill","lat":38.4749112,"lon":-120.0193525,"elevationM":2381},{"id":"node:358772551","kind":"peak","name":"Pennsylvania Point","lat":38.9985119,"lon":-120.7038169,"elevationM":1054},{"id":"node:358772633","kind":"peak","name":"Phipps Peak","lat":38.9546298,"lon":-120.1499094,"elevationM":2813},{"id":"node:358772726","kind":"peak","name":"Pine Hill","lat":38.7196248,"lon":-120.9904978,"elevationM":619},{"id":"node:358772755","kind":"peak","name":"Pine Peak","lat":38.2479728,"lon":-120.7124335,"elevationM":405},{"id":"node:358773239","kind":"peak","name":"Rattlesnake Hill","lat":38.1779749,"lon":-120.3599185,"elevationM":1031},{"id":"node:358773364","kind":"peak","name":"Red Peak","lat":38.9254632,"lon":-120.2213009,"elevationM":2833},{"id":"node:358773703","kind":"peak","name":"Rocky Hill","lat":38.1740859,"lon":-120.6115952,"elevationM":552},{"id":"node:358773711","kind":"peak","name":"Rocky Point","lat":38.419911,"lon":-120.8899385,"elevationM":220},{"id":"node:358773932","kind":"peak","name":"Rubicon Peak","lat":38.9885188,"lon":-120.133242,"elevationM":2798},{"id":"node:358774664","kind":"peak","name":"Sand Mountain","lat":38.8718468,"lon":-120.657706,"elevationM":1433},{"id":"node:358774745","kind":"peak","name":"Sapps Hill","lat":38.4140792,"lon":-120.0279636,"elevationM":2225},{"id":"node:358775307","kind":"peak","name":"Silver Peak","lat":38.9344076,"lon":-120.2304352,"elevationM":2724},{"id":"node:358775319","kind":"peak","name":"Simmons Point","lat":38.1349204,"lon":-120.6152059,"elevationM":417},{"id":"node:358775381","kind":"peak","name":"Slate Mountain","lat":38.823553,"lon":-120.6851484,"elevationM":1161},{"id":"node:358775472","kind":"peak","name":"Bald Hill","lat":38.0854772,"lon":-120.5474242,"elevationM":521},{"id":"node:358775485","kind":"peak","name":"Bear Mountain","lat":38.019368,"lon":-120.5838136,"elevationM":879},{"id":"node:358775546","kind":"peak","name":"Brunner Hill","lat":38.099088,"lon":-120.5785369,"elevationM":552},{"id":"node:358776198","kind":"peak","name":"Soapstone Hill","lat":38.1376979,"lon":-120.5024232,"elevationM":799},{"id":"node:358776655","kind":"peak","name":"Strawberry Peak","lat":38.1963059,"lon":-120.0321295,"elevationM":1840},{"id":"node:358776716","kind":"peak","name":"Sugarloaf","lat":38.2215846,"lon":-120.929384,"elevationM":102},{"id":"node:358776724","kind":"peak","name":"Sugarloaf","lat":38.5804619,"lon":-120.9504961,"elevationM":365},{"id":"node:358776732","kind":"peak","name":"Sugarloaf","lat":38.8824014,"lon":-120.7371528,"elevationM":1022},{"id":"node:358776775","kind":"peak","name":"Sugarloaf Peak","lat":38.4454657,"lon":-120.8824382,"elevationM":323},{"id":"node:358777273","kind":"peak","name":"Thompson Hill","lat":38.7651797,"lon":-120.9057723,"elevationM":617},{"id":"node:358777533","kind":"peak","name":"Tunnel Hill","lat":38.3390806,"lon":-120.7585458,"elevationM":438},{"id":"node:358777995","kind":"peak","name":"Valley Springs Peak","lat":38.2057517,"lon":-120.8379925,"elevationM":357},{"id":"node:358778252","kind":"peak","name":"Wally Hill","lat":38.1635305,"lon":-120.5510369,"elevationM":540},{"id":"node:358778459","kind":"peak","name":"Waters Peak","lat":38.2699164,"lon":-120.8704937,"elevationM":286},{"id":"node:358778749","kind":"peak","name":"White Oak Point","lat":38.7787916,"lon":-120.7038198,"elevationM":869},{"id":"node:358779390","kind":"peak","name":"Mount Zion","lat":38.389912,"lon":-120.6518749,"elevationM":899},{"id":"node:358795173","kind":"peak","name":"Jakes Peak","lat":38.9699077,"lon":-120.1226862,"elevationM":2797},{"id":"node:358795591","kind":"peak","name":"Dutschke Hill","lat":38.3668574,"lon":-120.9943862,"elevationM":197},{"id":"node:358796625","kind":"peak","name":"Angora Peak","lat":38.8671244,"lon":-120.0731212,"elevationM":2618},{"id":"node:358796644","kind":"peak","name":"Armstrong Hill","lat":38.5421317,"lon":-120.3838095,"elevationM":1735},{"id":"node:358796698","kind":"peak","name":"Bald Hill","lat":38.8760116,"lon":-120.8529915,"elevationM":750},{"id":"node:358796711","kind":"peak","name":"Bald Mountain","lat":38.0082571,"lon":-120.3629708,"elevationM":1016},{"id":"node:358796714","kind":"peak","name":"Bald Mountain","lat":38.4193563,"lon":-120.4435341,"elevationM":1247},{"id":"node:358796715","kind":"peak","name":"Bald Mountain","lat":38.7668527,"lon":-120.2221345,"elevationM":2131},{"id":"node:358796857","kind":"peak","name":"Big Hill","lat":38.8426918,"lon":-120.4078088,"elevationM":1873},{"id":"node:358796866","kind":"peak","name":"Big Mountain","lat":38.5765737,"lon":-120.5052024,"elevationM":1395},{"id":"node:358796971","kind":"peak","name":"Blue Mountain","lat":38.8482412,"lon":-120.197689,"elevationM":2674},{"id":"node:358797029","kind":"peak","name":"Brown Mountain","lat":38.9886072,"lon":-120.2881328,"elevationM":2178},{"id":"node:358797065","kind":"peak","name":"Buckeye Point","lat":38.9835104,"lon":-120.8160442,"elevationM":836},{"id":"node:358797192","kind":"peak","name":"Castle Point","lat":38.7046305,"lon":-120.1201872,"elevationM":2444},{"id":"node:358797224","kind":"peak","name":"Chaix Mountain","lat":38.8362923,"lon":-120.5765926,"elevationM":1471},{"id":"node:358797285","kind":"peak","name":"Chipmunk Bluff","lat":38.9690731,"lon":-120.3376942,"elevationM":2030},{"id":"node:358797338","kind":"peak","name":"Cock Robin Point","lat":38.9654548,"lon":-120.8427126,"elevationM":731},{"id":"node:358797417","kind":"peak","name":"Cracked Crag","lat":38.8690744,"lon":-120.1296311,"elevationM":2667},{"id":"node:358797490","kind":"peak","name":"Darby Knob","lat":38.1713084,"lon":-120.3851972,"elevationM":1127},{"id":"node:358797520","kind":"peak","name":"Deer Knob","lat":38.8899053,"lon":-120.4338093,"elevationM":1711},{"id":"node:358797535","kind":"peak","name":"Devil Peak","lat":38.9587928,"lon":-120.5479796,"elevationM":1611},{"id":"node:358797540","kind":"peak","name":"Devils Nose","lat":38.4629664,"lon":-120.4201999,"elevationM":1445},{"id":"node:358797665","kind":"peak","name":"Eagle Rock","lat":38.7682414,"lon":-120.2682473,"elevationM":1897},{"id":"node:358797683","kind":"peak","name":"Echo Peak","lat":38.8564458,"lon":-120.0734303,"elevationM":2698},{"id":"node:358797805","kind":"peak","name":"Flagpole Peak","lat":38.8459269,"lon":-120.057445,"elevationM":2549},{"id":"node:358797829","kind":"peak","name":"Fort Mountain","lat":38.3429696,"lon":-120.4735353,"elevationM":999},{"id":"node:358797834","kind":"peak","name":"Foster Mountain","lat":38.8282346,"lon":-120.8279908,"elevationM":690},{"id":"node:358797838","kind":"peak","name":"Four Cornered Peak","lat":38.8585185,"lon":-120.2890814,"elevationM":2072},{"id":"node:358797854","kind":"peak","name":"French Hill","lat":38.9393432,"lon":-120.9257727,"elevationM":646},{"id":"node:358797901","kind":"peak","name":"Garnet Hill","lat":38.4799126,"lon":-120.2529721,"elevationM":1369},{"id":"node:358798041","kind":"peak","name":"Halleck Hill","lat":38.0654777,"lon":-120.4893655,"elevationM":666},{"id":"node:358798193","kind":"peak","name":"Hotchkiss Hill","lat":38.9135114,"lon":-120.8149338,"elevationM":973},{"id":"node:358798327","kind":"peak","name":"Jakeys Hill","lat":38.9737885,"lon":-120.7971544,"elevationM":998},{"id":"node:358798389","kind":"peak","name":"Keiths Dome","lat":38.8594078,"lon":-120.1063229,"elevationM":2637},{"id":"node:358798496","kind":"peak","name":"Liberty Hill","lat":38.3679695,"lon":-120.1010217,"elevationM":2302},{"id":"node:358798518","kind":"peak","name":"Little Bald Mountain","lat":38.952122,"lon":-120.8093775,"elevationM":925},{"id":"node:358798593","kind":"peak","name":"Little Sugar Pine Mountain","lat":38.8629587,"lon":-120.6004819,"elevationM":1492},{"id":"node:358798626","kind":"peak","name":"Lookout Mountain","lat":38.8835147,"lon":-120.5615918,"elevationM":1566},{"id":"node:358798690","kind":"peak","name":"Maggies Peaks","lat":38.93152,"lon":-120.1137201,"elevationM":2639},{"id":"node:358798759","kind":"peak","name":"McKee Hill","lat":38.2735271,"lon":-120.1171331,"elevationM":1942},{"id":"node:358798853","kind":"peak","name":"Mokelumne Peak","lat":38.5379662,"lon":-120.0946327,"elevationM":2837},{"id":"node:358799237","kind":"peak","name":"Mount Price","lat":38.8638704,"lon":-120.1747168,"elevationM":3040},{"id":"node:358799288","kind":"peak","name":"Ralston Peak","lat":38.833056,"lon":-120.101828,"elevationM":2807},{"id":"node:358799322","kind":"peak","name":"Mount Reba","lat":38.5076885,"lon":-120.0287973,"elevationM":2663},{"id":"node:358799407","kind":"peak","name":"Repeater Hill","lat":38.2526953,"lon":-120.2201923,"elevationM":1672},{"id":"node:358799424","kind":"peak","name":"Robbs Peak","lat":38.9246279,"lon":-120.4035302,"elevationM":2040},{"id":"node:358799459","kind":"peak","name":"Round Hill","lat":38.8274016,"lon":-120.7874334,"elevationM":775},{"id":"node:358799464","kind":"peak","name":"Round Mountain","lat":38.5385185,"lon":-120.616873,"elevationM":1063},{"id":"node:358799479","kind":"peak","name":"Round Top","lat":38.6636245,"lon":-120.0010186,"elevationM":3164},{"id":"node:358799517","kind":"peak","name":"Saddle Mountain","lat":38.84657,"lon":-120.5835371,"elevationM":1555},{"id":"node:358799639","kind":"peak","name":"Shovel Grave","lat":38.4829678,"lon":-120.1993591,"elevationM":2036},{"id":"node:358799664","kind":"peak","name":"Silver Hill","lat":38.8985159,"lon":-120.4688107,"elevationM":1855},{"id":"node:358799696","kind":"peak","name":"Slick Rock","lat":38.8832406,"lon":-120.288248,"elevationM":2210},{"id":"node:358799774","kind":"peak","name":"Blue Mountain","lat":38.3424149,"lon":-120.365198,"elevationM":1835},{"id":"node:358799797","kind":"peak","name":"Carson Hill","lat":38.02159,"lon":-120.503254,"elevationM":601},{"id":"node:358799913","kind":"peak","name":"Murphy Mountain","lat":38.8085124,"lon":-120.8779931,"elevationM":589},{"id":"node:358800027","kind":"peak","name":"Spanish Hill","lat":38.8246237,"lon":-120.8124346,"elevationM":760},{"id":"node:358800088","kind":"peak","name":"Stony Hill","lat":38.9468425,"lon":-120.9838314,"elevationM":580},{"id":"node:358800125","kind":"peak","name":"Sugarloaf","lat":38.7768518,"lon":-120.3088046,"elevationM":1486},{"id":"node:358800142","kind":"peak","name":"Sugarloaf Hill","lat":38.0560335,"lon":-120.46492,"elevationM":663},{"id":"node:358800150","kind":"peak","name":"Summit Hill","lat":38.9532036,"lon":-120.9245795,"elevationM":650},{"id":"node:358800291","kind":"peak","name":"Table Rock","lat":38.8460186,"lon":-120.2871369,"elevationM":1943},{"id":"node:358800296","kind":"peak","name":"Tahoe Mountain","lat":38.9101855,"lon":-120.0357387,"elevationM":2205},{"id":"node:358800301","kind":"peak","name":"Talking Mountain","lat":38.832752,"lon":-120.069496,"elevationM":2688},{"id":"node:358800303","kind":"peak","name":"Mount Tallac","lat":38.9059727,"lon":-120.0990192,"elevationM":2967},{"id":"node:358800315","kind":"peak","name":"Telegraph Hill","lat":38.0313121,"lon":-120.3513042,"elevationM":1128},{"id":"node:358800320","kind":"peak","name":"Tells Peak","lat":38.9599073,"lon":-120.2543576,"elevationM":2699},{"id":"node:358800354","kind":"peak","name":"Thimble Peak","lat":38.6624085,"lon":-120.0604633,"elevationM":2988},{"id":"node:358800377","kind":"peak","name":"Thunder Hill","lat":38.2854719,"lon":-120.1729684,"elevationM":1824},{"id":"node:358800469","kind":"peak","name":"Two Peaks","lat":38.9035184,"lon":-120.2826922,"elevationM":2306},{"id":"node:358802530","kind":"peak","name":"Thunder Mountain","lat":38.6741464,"lon":-120.0908713,"elevationM":2865},{"id":"node:358802559","kind":"peak","name":"Hartless Mountain","lat":38.941572,"lon":-120.4357536,"elevationM":1880},{"id":"node:358802700","kind":"peak","name":"Negro Hill","lat":38.7546248,"lon":-120.7679891,"elevationM":751},{"id":"node:358802942","kind":"peak","name":"Melissa Coray Peak","lat":38.6518529,"lon":-120.0399072,"elevationM":2977},{"id":"node:358802960","kind":"peak","name":"Mineral Mountain","lat":38.1890855,"lon":-120.4502001,"elevationM":856},{"id":"node:358802969","kind":"peak","name":"Negro Hill","lat":38.0515893,"lon":-120.3971396,"elevationM":807},{"id":"node:358803040","kind":"peak","name":"Mount Knight","lat":38.167142,"lon":-120.2396359,"elevationM":1458},{"id":"node:358803794","kind":"peak","name":"Bald Mountain","lat":38.0918658,"lon":-120.4568649,"elevationM":668},{"id":"node:358803805","kind":"peak","name":"Becker Peak","lat":38.8323225,"lon":-120.0597491,"elevationM":2520},{"id":"node:358803809","kind":"peak","name":"Bell Hill","lat":38.033812,"lon":-120.3921391,"elevationM":708},{"id":"node:358803821","kind":"peak","name":"Blewetts Point","lat":38.0585336,"lon":-120.3660275,"elevationM":976},{"id":"node:358803933","kind":"peak","name":"Gardner Mountain","lat":38.9123155,"lon":-120.0164553,"elevationM":1944},{"id":"node:358803942","kind":"peak","name":"Gopher Hill","lat":38.8096238,"lon":-120.8279909,"elevationM":655},{"id":"node:358803975","kind":"peak","name":"Inspiration Point","lat":38.9466555,"lon":-120.0989342,"elevationM":2081},{"id":"node:358803990","kind":"peak","name":"Kennebec Hill","lat":38.0271455,"lon":-120.3957502,"elevationM":721},{"id":"node:358804021","kind":"peak","name":"Lynchburg Hill","lat":38.9943469,"lon":-120.6213148,"elevationM":1388},{"id":"node:358804047","kind":"peak","name":"Perry Mountain","lat":38.8207344,"lon":-120.8893824,"elevationM":592},{"id":"node:358804060","kind":"peak","name":"Prospect Hill","lat":38.5315739,"lon":-120.788268,"elevationM":609},{"id":"node:358804080","kind":"peak","name":"Red Hill","lat":38.0826994,"lon":-120.4863103,"elevationM":672},{"id":"node:358804149","kind":"peak","name":"Buck Mountain","lat":38.3749139,"lon":-120.3726983,"elevationM":1566},{"id":"node:358804216","kind":"peak","name":"Twin Peaks","lat":38.8815743,"lon":-120.0124047,"elevationM":2066},{"id":"node:358804218","kind":"peak","name":"Union Hill","lat":38.0185346,"lon":-120.4021391,"elevationM":659},{"id":"node:358805942","kind":"peak","name":"Alder Hill","lat":38.6299102,"lon":-120.2388034,"elevationM":2359},{"id":"node:358806095","kind":"peak","name":"Big Bend","lat":38.8499038,"lon":-120.5338133,"elevationM":1357},{"id":"node:358806129","kind":"peak","name":"Blue Jay Point","lat":38.2774161,"lon":-120.6613204,"elevationM":567},{"id":"node:358806152","kind":"peak","name":"Bottle Hill","lat":38.9443439,"lon":-120.8507687,"elevationM":807},{"id":"node:358806178","kind":"peak","name":"Buena Vista Mountain","lat":38.1649198,"lon":-120.7510454,"elevationM":613},{"id":"node:358806223","kind":"peak","name":"Cement Hill","lat":38.5607403,"lon":-120.6127062,"elevationM":1018},{"id":"node:358806225","kind":"peak","name":"Cement Hill","lat":38.9412884,"lon":-120.8538245,"elevationM":785},{"id":"node:358806237","kind":"peak","name":"Chili Hill","lat":38.2340844,"lon":-120.7318785,"elevationM":419},{"id":"node:358806246","kind":"peak","name":"Church Bell Hill","lat":38.3726905,"lon":-120.9110503,"elevationM":240},{"id":"node:358806304","kind":"peak","name":"Mount Crossman","lat":38.4651874,"lon":-120.5329815,"elevationM":1184},{"id":"node:358806319","kind":"peak","name":"Mount Danaher","lat":38.7443476,"lon":-120.6688189,"elevationM":1026},{"id":"node:358806458","kind":"peak","name":"French Hill","lat":38.3071373,"lon":-120.6943769,"elevationM":577},{"id":"node:358806497","kind":"peak","name":"Grand Point","lat":38.6587938,"lon":-120.651874,"elevationM":728},{"id":"node:358806523","kind":"peak","name":"Grey Eagle Hill","lat":38.9112895,"lon":-120.7768763,"elevationM":999},{"id":"node:358806618","kind":"peak","name":"Indian Hill","lat":38.3790793,"lon":-120.9818858,"elevationM":106},{"id":"node:358806638","kind":"peak","name":"Irish Hill","lat":38.3999119,"lon":-120.9682743,"elevationM":123},{"id":"node:358806719","kind":"peak","name":"Lincoln Hill","lat":38.6626832,"lon":-120.5021463,"elevationM":1379},{"id":"node:358806738","kind":"peak","name":"Little Mountain","lat":38.5921288,"lon":-120.5427037,"elevationM":1029},{"id":"node:358806810","kind":"peak","name":"Mameluke Hill","lat":38.9140667,"lon":-120.841324,"elevationM":822},{"id":"node:358806902","kind":"peak","name":"Newman Hill","lat":38.3549134,"lon":-120.9907749,"elevationM":137},{"id":"node:358806985","kind":"peak","name":"Ohio Hill","lat":38.3713016,"lon":-120.7699348,"elevationM":452},{"id":"node:358806994","kind":"peak","name":"Old Iron Mountain","lat":38.7054622,"lon":-120.3913084,"elevationM":1798},{"id":"node:358807128","kind":"peak","name":"Mount Provo","lat":38.0118678,"lon":-120.2062991,"elevationM":1479},{"id":"node:358807137","kind":"peak","name":"Quartz Mountain","lat":38.4468543,"lon":-120.8102136,"elevationM":425},{"id":"node:358807142","kind":"peak","name":"Quiggs Mountain","lat":38.2296399,"lon":-120.6138184,"elevationM":843},{"id":"node:358807218","kind":"peak","name":"Sacramento Hill","lat":38.7246253,"lon":-120.8129909,"elevationM":658},{"id":"node:358807263","kind":"peak","name":"Shoemaker Hill","lat":38.8843451,"lon":-120.8060448,"elevationM":930},{"id":"node:358807266","kind":"peak","name":"Shumake Knoll","lat":38.2585279,"lon":-120.1624124,"elevationM":1799},{"id":"node:358807269","kind":"peak","name":"Siberia","lat":38.1040882,"lon":-120.7974351,"elevationM":283},{"id":"node:358807344","kind":"peak","name":"Negro Hill","lat":38.0729777,"lon":-120.5877036,"elevationM":393},{"id":"node:358807355","kind":"peak","name":"Peddler Hill","lat":38.5779664,"lon":-120.263805,"elevationM":2175},{"id":"node:358807395","kind":"peak","name":"South Hill","lat":38.0815887,"lon":-120.8524365,"elevationM":194},{"id":"node:358807442","kind":"peak","name":"Stockton Hill","lat":38.2976932,"lon":-120.710211,"elevationM":538},{"id":"node:358807497","kind":"peak","name":"Sun Rock","lat":38.9262954,"lon":-120.3338053,"elevationM":1991},{"id":"node:358807501","kind":"peak","name":"Sunday Ridge","lat":38.6524055,"lon":-120.5399255,"elevationM":1233},{"id":"node:358807657","kind":"peak","name":"Union Hill","lat":38.7635146,"lon":-120.5540923,"elevationM":1316},{"id":"node:358809675","kind":"peak","name":"Castle Rock","lat":38.8262909,"lon":-120.7313201,"elevationM":905},{"id":"node:358809707","kind":"peak","name":"Hope Mountain","lat":38.6785161,"lon":-120.5396476,"elevationM":1281},{"id":"node:358809709","kind":"peak","name":"Union Hill","lat":38.7549026,"lon":-120.7752117,"elevationM":719},{"id":"node:358821587","kind":"peak","name":"Black Butte","lat":38.683519,"lon":-120.0224062,"elevationM":2743},{"id":"node:358821588","kind":"peak","name":"Covered Wagon Peak","lat":38.6571307,"lon":-120.0476852,"elevationM":2918},{"id":"node:358821589","kind":"peak","name":"Fourth of July Peak","lat":38.65879,"lon":-120.0232796,"elevationM":2896},{"id":"node:358821591","kind":"peak","name":"The Sisters","lat":38.6626859,"lon":-120.0079614,"elevationM":3094},{"id":"node:358821595","kind":"peak","name":"Martin Point","lat":38.6887972,"lon":-120.0924086,"elevationM":2819},{"id":"node:358821600","kind":"peak","name":"Two Sentinels","lat":38.6979637,"lon":-120.0882416,"elevationM":2641},{"id":"node:358821602","kind":"peak","name":"Little Round Top","lat":38.740185,"lon":-120.0515733,"elevationM":2924},{"id":"node:358858035","kind":"peak","name":"Trembath Mountain","lat":38.48,"lon":-120.7813889,"elevationM":581},{"id":"node:2251102171","kind":"peak","name":"Cougar Rock","lat":38.231719,"lon":-120.389367,"elevationM":1298},{"id":"node:2597758103","kind":"peak","name":"Glove Rock","lat":38.678565,"lon":-120.0843165,"elevationM":2853},{"id":"node:2623077715","kind":"peak","name":"Huckleberry Mt.","lat":38.795765,"lon":-120.0627954,"elevationM":2698},{"id":"node:4319935932","kind":"peak","name":"Crag Peak","lat":38.9851526,"lon":-120.1641272,"elevationM":2658},{"id":"node:7450875077","kind":"peak","name":"Reba","lat":38.5089486,"lon":-120.0164502,"elevationM":2695},{"id":"node:7516864142","kind":"peak","name":"Carson Spur","lat":38.7028904,"lon":-120.1007441,"elevationM":2527},{"id":"node:7516873562","kind":"peak","name":"Plasse Peak","lat":38.6169845,"lon":-120.1255492,"elevationM":2576},{"id":"node:8118061217","kind":"peak","name":"Manuel Peak","lat":38.24492,"lon":-120.3887786,"elevationM":1354},{"id":"node:8538167192","kind":"peak","name":"Agassiz","lat":38.8575752,"lon":-120.170379,"elevationM":3038},{"id":"node:9420785016","kind":"peak","name":"Bear Top","lat":38.4867425,"lon":-120.0527755,"elevationM":2589},{"id":"node:9420805417","kind":"peak","name":"Koala Top","lat":38.4896141,"lon":-120.0395294,"elevationM":2523},{"id":"node:11711699087","kind":"peak","name":"Hidden Peak","lat":38.9752557,"lon":-120.1244385,"elevationM":2795},{"id":"node:13088536976","kind":"peak","name":"Maggies Peaks - North","lat":38.9415195,"lon":-120.1143899,"elevationM":2586},{"id":"node:13088648344","kind":"peak","name":"Janine's Peak","lat":38.9064979,"lon":-120.1306321,"elevationM":2920},{"id":"node:13088648345","kind":"peak","name":"Indian Rock","lat":38.8648971,"lon":-120.0759929,"elevationM":2627},{"id":"node:13088648347","kind":"peak","name":"McConnell Spur","lat":38.9403886,"lon":-120.2389426,"elevationM":2780},{"id":"node:13088648348","kind":"peak","name":"Little Pyramid","lat":38.8844907,"lon":-120.187358,"elevationM":2876}]}