{"tileKey":"la_p45_lo_p34","version":"v1-1775891056926","entries":[{"id":"node:1142878004","kind":"peak","name":"Кунич","lat":45.0885994,"lon":34.3537365,"elevationM":328},{"id":"node:3211623996","kind":"peak","name":"Бурундук-Кая","lat":45.0880858,"lon":34.7108676,"elevationM":377},{"id":"node:3211624025","kind":"peak","name":"Айлянма-Кая","lat":45.0914562,"lon":34.6895825,"elevationM":361},{"id":"node:3438525776","kind":"peak","name":"Аюлу-Кая","lat":45.0425706,"lon":34.8040697,"elevationM":630},{"id":"node:3438525777","kind":"peak","name":"Второй Кубалач","lat":45.0081143,"lon":34.8367626,"elevationM":738},{"id":"node:3438525778","kind":"peak","name":"Джанык-Бат","lat":45.0604279,"lon":34.7834559,"elevationM":553},{"id":"node:3438525779","kind":"peak","name":"Кубалач","lat":45.0074006,"lon":34.826916,"elevationM":764},{"id":"node:3438525780","kind":"peak","name":"Куляба","lat":45.034528,"lon":34.8805904,"elevationM":522},{"id":"node:3438525781","kind":"peak","name":"Кызыл-Таш","lat":45.0443716,"lon":34.8945112,"elevationM":431},{"id":"node:3438525782","kind":"peak","name":"Первый Кубалач","lat":45.0209761,"lon":34.8676409,"elevationM":null},{"id":"node:3438525785","kind":"peak","name":"Уса-Кош","lat":45.0415549,"lon":34.8621148,"elevationM":484},{"id":"node:3444377032","kind":"peak","name":"Шпиль","lat":45.0201143,"lon":34.9991305,"elevationM":490},{"id":"node:3502612400","kind":"peak","name":"Хачи-Хыр","lat":45.0017363,"lon":34.7513771,"elevationM":409},{"id":"node:3502612401","kind":"peak","name":"Куба-Кыр","lat":45.0013281,"lon":34.7643099,"elevationM":495},{"id":"node:3844227620","kind":"peak","name":"Балабан-Кыр","lat":45.0282552,"lon":34.7091184,"elevationM":369},{"id":"node:4101633904","kind":"peak","name":"Алан-Кыр","lat":45.0792306,"lon":34.739578,"elevationM":487},{"id":"node:4104459976","kind":"peak","name":"Аджилар","lat":45.0995694,"lon":34.659493,"elevationM":325},{"id":"node:4104459977","kind":"peak","name":"Ак кая","lat":45.1136465,"lon":34.6311951,"elevationM":344},{"id":"node:4104459979","kind":"peak","name":"Чигирник","lat":45.1293878,"lon":34.6320044,"elevationM":null},{"id":"node:4107305940","kind":"peak","name":"Дорткуль","lat":45.0631757,"lon":34.6062403,"elevationM":null},{"id":"node:4109275248","kind":"peak","name":"Карачель","lat":45.0622526,"lon":34.6609055,"elevationM":327},{"id":"node:4477482243","kind":"peak","name":"Кара-Тау","lat":45.0637308,"lon":34.8101795,"elevationM":null},{"id":"node:4477507982","kind":"peak","name":"Маяк","lat":45.0749203,"lon":34.8031062,"elevationM":null},{"id":"node:4784076318","kind":"peak","name":"Османчак","lat":45.0671172,"lon":34.9755273,"elevationM":297},{"id":"node:4784076621","kind":"peak","name":"Боченки","lat":45.0283683,"lon":34.9939229,"elevationM":424},{"id":"node:4784076713","kind":"peak","name":"Бор-Кая","lat":45.0533307,"lon":34.9472366,"elevationM":362}]}