{"tileKey":"la_p38_lo_m85","version":"v1-1775891056926","entries":[{"id":"node:358589028","kind":"peak","name":"Fort Hill","lat":38.2081277,"lon":-84.8688391,"elevationM":174},{"id":"node:358592128","kind":"peak","name":"Hickman Hill","lat":38.1861842,"lon":-84.7807817,"elevationM":251},{"id":"node:358593546","kind":"peak","name":"Indian Gap Hill","lat":38.3303482,"lon":-84.8291158,"elevationM":259},{"id":"node:358594252","kind":"peak","name":"Johnson Hill","lat":38.7670078,"lon":-84.8966149,"elevationM":224},{"id":"node:358603330","kind":"peak","name":"Pleasant Hill","lat":38.7736329,"lon":-84.3077257,"elevationM":267},{"id":"node:358604438","kind":"peak","name":"Pye Hill","lat":38.9714513,"lon":-84.4746632,"elevationM":256},{"id":"node:358608746","kind":"peak","name":"The Backbone","lat":38.2364608,"lon":-84.8291162,"elevationM":262},{"id":"node:358618431","kind":"peak","name":"Five Forks Hill","lat":38.1316667,"lon":-84.069444,"elevationM":307},{"id":"node:358622945","kind":"peak","name":"Spring Hill","lat":38.00932,"lon":-84.24908,"elevationM":294},{"id":"node:358656057","kind":"peak","name":"Henschen Hill","lat":38.9975593,"lon":-84.864394,"elevationM":248},{"id":"node:358664021","kind":"peak","name":"Powell Hill","lat":38.9811708,"lon":-84.860505,"elevationM":247},{"id":"node:358669855","kind":"peak","name":"Wade Hill","lat":38.8145073,"lon":-84.8482815,"elevationM":218},{"id":"node:8870377907","kind":"peak","name":"Liberty Ridge","lat":38.6163822,"lon":-84.3463433,"elevationM":280},{"id":"node:11372410727","kind":"peak","name":"Indian Hill","lat":38.8857125,"lon":-84.7629754,"elevationM":null},{"id":"node:11372410731","kind":"peak","name":"Greenwood Hill","lat":38.7501926,"lon":-84.3876155,"elevationM":null},{"id":"node:11372410732","kind":"peak","name":"Thomas Hill","lat":38.7418056,"lon":-84.2525355,"elevationM":null},{"id":"node:11372410733","kind":"peak","name":"Oak Hill","lat":38.7003563,"lon":-84.2490297,"elevationM":null},{"id":"node:11372410734","kind":"peak","name":"Reservoir Hill","lat":38.6678826,"lon":-84.3253855,"elevationM":null},{"id":"node:11380458494","kind":"peak","name":"Mile Hill","lat":38.0278127,"lon":-84.8160554,"elevationM":null},{"id":"node:11380458498","kind":"peak","name":"Sugar Hill","lat":38.0878427,"lon":-84.6510454,"elevationM":null},{"id":"node:11380458499","kind":"peak","name":"Locust Hill","lat":38.1719175,"lon":-84.8023513,"elevationM":null},{"id":"node:11380458500","kind":"peak","name":"Buttimer Hill","lat":38.1986561,"lon":-84.8896269,"elevationM":null},{"id":"node:11380458501","kind":"peak","name":"Poplar Hill","lat":38.2399054,"lon":-84.858945,"elevationM":null},{"id":"node:11380458502","kind":"peak","name":"Stoney Creek Hill","lat":38.2501958,"lon":-84.9156224,"elevationM":null},{"id":"node:11380458503","kind":"peak","name":"Bald Knob","lat":38.3176448,"lon":-84.9460766,"elevationM":null},{"id":"node:11380458504","kind":"peak","name":"Honeysuckle Hill","lat":38.4256196,"lon":-84.867861,"elevationM":null},{"id":"node:11899543612","kind":"peak","name":"Trapps Mountain","lat":38.9311786,"lon":-84.8379837,"elevationM":null}]}