{"tileKey":"la_p44_lo_m102","version":"v1-1775891056926","entries":[{"id":"node:357082988","kind":"peak","name":"Grindstone Butte","lat":44.1969303,"lon":-101.7982016,"elevationM":791},{"id":"node:357083977","kind":"peak","name":"Joshua Butte","lat":44.7158172,"lon":-101.3793165,"elevationM":660},{"id":"node:357088048","kind":"peak","name":"Stony Butte","lat":44.5299839,"lon":-101.415146,"elevationM":667},{"id":"node:357098244","kind":"peak","name":"Mud Butte","lat":44.8813741,"lon":-101.871547,"elevationM":721},{"id":"node:357098287","kind":"peak","name":"Rattlesnake Butte","lat":44.9483175,"lon":-101.8626584,"elevationM":735},{"id":"node:357099043","kind":"peak","name":"Bessie Butte","lat":44.9335958,"lon":-101.9057144,"elevationM":754},{"id":"node:357099098","kind":"peak","name":"Eagle Butte","lat":44.9660918,"lon":-101.2187621,"elevationM":757},{"id":"node:357099157","kind":"peak","name":"High Elk Hill","lat":44.9227591,"lon":-101.2782072,"elevationM":730},{"id":"node:357099220","kind":"peak","name":"Lookout Point","lat":44.3174829,"lon":-101.0229197,"elevationM":655},{"id":"node:357099226","kind":"peak","name":"Marple Butte","lat":44.9580384,"lon":-101.5848783,"elevationM":757},{"id":"node:357099248","kind":"peak","name":"Mud Butte","lat":44.8808187,"lon":-101.882936,"elevationM":762},{"id":"node:357099305","kind":"peak","name":"Round Top","lat":44.3177608,"lon":-101.0373642,"elevationM":652},{"id":"node:357099604","kind":"peak","name":"Peaked Butte","lat":44.892484,"lon":-101.752934,"elevationM":721}]}