{"tileKey":"la_p58_lo_m135","version":"v1-1775891056926","entries":[{"id":"node:244247110","kind":"peak","name":"Mount Ogilvie","lat":58.8610358,"lon":-134.258073,"elevationM":2200},{"id":"node:244247133","kind":"peak","name":"Mount Bressler","lat":58.9234136,"lon":-134.336463,"elevationM":2287},{"id":"node:244247156","kind":"peak","name":"Mount Nesselrode","lat":58.9621822,"lon":-134.313489,"elevationM":2208},{"id":"node:2516381977","kind":"peak","name":"Irving Peak","lat":58.1032735,"lon":-134.0555255,"elevationM":651},{"id":"node:2516381982","kind":"peak","name":"Butler Peak","lat":58.1230602,"lon":-134.072015,"elevationM":355},{"id":"node:2516574475","kind":"peak","name":"Blizzard Peak","lat":58.8427907,"lon":-134.2204744,"elevationM":null},{"id":"node:2516574478","kind":"peak","name":"Mount Moore","lat":58.807513,"lon":-134.1301805,"elevationM":2259},{"id":"node:2516574486","kind":"peak","name":"The Citadel","lat":58.7721993,"lon":-134.1397936,"elevationM":1985},{"id":"node:2516574493","kind":"peak","name":"Glacier King","lat":58.7088697,"lon":-134.4719583,"elevationM":null},{"id":"node:2516574496","kind":"peak","name":"Typhoon Peak","lat":58.8461655,"lon":-134.2297441,"elevationM":null},{"id":"node:2516574503","kind":"peak","name":"Gale Peak","lat":58.850166,"lon":-134.2359239,"elevationM":null},{"id":"node:2516574506","kind":"peak","name":"Elephant Promontory","lat":58.8164069,"lon":-134.1236574,"elevationM":2231},{"id":"node:2516574509","kind":"peak","name":"The Tusk","lat":58.7202662,"lon":-134.5062363,"elevationM":1849},{"id":"node:2516574520","kind":"peak","name":"Dipyramid","lat":58.7644558,"lon":-134.1226274,"elevationM":null},{"id":"node:2516676947","kind":"peak","name":"The Snow Towers","lat":58.6281814,"lon":-134.5107538,"elevationM":2135},{"id":"node:2516676948","kind":"peak","name":"Cathedral Peak","lat":58.6132587,"lon":-134.3655283,"elevationM":null},{"id":"node:2516676949","kind":"peak","name":"Slanting Peak","lat":58.5366456,"lon":-134.2165262,"elevationM":null},{"id":"node:2516676950","kind":"peak","name":"Bullard Mountain","lat":58.4343537,"lon":-134.5013124,"elevationM":1288},{"id":"node:2516676951","kind":"peak","name":"Little Matterhorn","lat":58.6219297,"lon":-134.3720514,"elevationM":null},{"id":"node:2516676952","kind":"peak","name":"Nugget Mountain","lat":58.4272221,"lon":-134.356158,"elevationM":1695},{"id":"node:2516676953","kind":"peak","name":"Guardian Mountain","lat":58.5057158,"lon":-134.2465669,"elevationM":1542},{"id":"node:2516676954","kind":"peak","name":"Mount Juneau","lat":58.3189639,"lon":-134.4086153,"elevationM":1090},{"id":"node:2516676955","kind":"peak","name":"Gastineau Peak","lat":58.2902786,"lon":-134.3468172,"elevationM":1056},{"id":"node:2516676956","kind":"peak","name":"Split Thumb","lat":58.406396,"lon":-134.3124849,"elevationM":1716},{"id":"node:2516676957","kind":"peak","name":"Snowdrift Peak","lat":58.5778326,"lon":-134.4520456,"elevationM":null},{"id":"node:2516676958","kind":"peak","name":"Clark Peak","lat":58.2999361,"lon":-134.2922289,"elevationM":1234},{"id":"node:2516676959","kind":"peak","name":"Observation Peak","lat":58.3555433,"lon":-134.340294,"elevationM":1504},{"id":"node:2516676960","kind":"peak","name":"Roberts Peak","lat":58.2858616,"lon":-134.3279344,"elevationM":1164},{"id":"node:2516676961","kind":"peak","name":"Olds Mountain","lat":58.3368298,"lon":-134.2965807,"elevationM":1311},{"id":"node:2516676962","kind":"peak","name":"Dike Mountain","lat":58.6549851,"lon":-134.5933229,"elevationM":null},{"id":"node:2516676963","kind":"peak","name":"Norris Mountain","lat":58.4465681,"lon":-134.1409952,"elevationM":1257},{"id":"node:2516676964","kind":"peak","name":"Juncture Peak","lat":58.6040489,"lon":-134.2573816,"elevationM":1317},{"id":"node:2516676965","kind":"peak","name":"Sheep Mountain","lat":58.2926289,"lon":-134.3025285,"elevationM":1291},{"id":"node:2516676966","kind":"peak","name":"Mustang Peak","lat":58.6442634,"lon":-134.591263,"elevationM":null},{"id":"node:2516676967","kind":"peak","name":"Tricouni Peak","lat":58.6692696,"lon":-134.4882662,"elevationM":1678},{"id":"node:2516676968","kind":"peak","name":"The Dukes","lat":58.5747046,"lon":-134.3715364,"elevationM":1953},{"id":"node:2516676969","kind":"peak","name":"Scorpion Peak","lat":58.3796716,"lon":-134.3234712,"elevationM":1356},{"id":"node:2516676970","kind":"peak","name":"Shoehorn Mountain","lat":58.6023498,"lon":-134.3023569,"elevationM":1618},{"id":"node:2516676971","kind":"peak","name":"Thunder Mountain","lat":58.3812061,"lon":-134.5260317,"elevationM":null},{"id":"node:2516676972","kind":"peak","name":"Camp 15 Peak","lat":58.6930895,"lon":-134.5665437,"elevationM":1818},{"id":"node:2516676973","kind":"peak","name":"Princess Peak","lat":58.5598509,"lon":-134.3772656,"elevationM":1946},{"id":"node:2516676974","kind":"peak","name":"Rhino Peak","lat":58.5580533,"lon":-134.4393427,"elevationM":null},{"id":"node:2516676975","kind":"peak","name":"Taku Towers","lat":58.5984101,"lon":-134.3705064,"elevationM":1634},{"id":"node:2516676976","kind":"peak","name":"Martin Peak","lat":58.3621217,"lon":-134.3234712,"elevationM":null},{"id":"node:2516676977","kind":"peak","name":"Snowpatch Craig","lat":58.651681,"lon":-134.4922144,"elevationM":1930},{"id":"node:2518002485","kind":"peak","name":"Mount Troy","lat":58.2669889,"lon":-134.4764175,"elevationM":916},{"id":"node:2518002487","kind":"peak","name":"Mount Anderson","lat":58.3112877,"lon":-134.5260276,"elevationM":null},{"id":"node:2518002492","kind":"peak","name":"Mount Meek","lat":58.2982281,"lon":-134.6129741,"elevationM":null},{"id":"node:2518002493","kind":"peak","name":"North Rhine Peak","lat":58.2642847,"lon":-134.197133,"elevationM":1007},{"id":"node:2518002497","kind":"peak","name":"Hawthorne Peak","lat":58.2622124,"lon":-134.2426147,"elevationM":1283},{"id":"node:2518002498","kind":"peak","name":"Table Top Mountain","lat":58.2922603,"lon":-134.5038833,"elevationM":965},{"id":"node:2518002499","kind":"peak","name":"Middle Peak","lat":58.2563424,"lon":-134.2503395,"elevationM":1134},{"id":"node:2518002502","kind":"peak","name":"Annex Peak","lat":58.3613785,"lon":-134.1369419,"elevationM":1249},{"id":"node:2518002505","kind":"peak","name":"Saddle Mountain","lat":58.2982033,"lon":-134.5113656,"elevationM":935},{"id":"node:2518002507","kind":"peak","name":"McDonough Peak","lat":58.2228109,"lon":-134.3586578,"elevationM":null},{"id":"node:2518002510","kind":"peak","name":"West Peak","lat":58.2528155,"lon":-134.255661,"elevationM":1103},{"id":"node:2518002515","kind":"peak","name":"Mount Bradley","lat":58.2485646,"lon":-134.4129965,"elevationM":1017},{"id":"node:2518991682","kind":"peak","name":"Green Mountain","lat":58.2783589,"lon":-134.8813673,"elevationM":null},{"id":"node:2518991752","kind":"peak","name":"Robert Barron Peak","lat":58.2255229,"lon":-134.8394991,"elevationM":1059},{"id":"node:2518991846","kind":"peak","name":"Lone Mountain","lat":58.3042535,"lon":-134.8351904,"elevationM":657},{"id":"node:3441483762","kind":"peak","name":"Tlaxsatanjín","lat":58.3862973,"lon":-134.5020454,"elevationM":null},{"id":"node:9531069094","kind":"peak","name":"Scout Hill","lat":58.513399,"lon":-134.8130582,"elevationM":274},{"id":"node:9531069098","kind":"peak","name":"Colt Peak","lat":58.5722202,"lon":-134.7981468,"elevationM":896},{"id":"node:9531069099","kind":"peak","name":"Thane Mountain","lat":58.5881937,"lon":-134.7840062,"elevationM":1006},{"id":"node:9531069101","kind":"peak","name":"Eagle Peak","lat":58.594523,"lon":-134.6922103,"elevationM":1457},{"id":"node:9531069103","kind":"peak","name":"Goat Peak","lat":58.5507764,"lon":-134.7092906,"elevationM":1189},{"id":"node:9531069104","kind":"peak","name":"Mount Ernest Gruening-South Peak","lat":58.5677951,"lon":-134.6544883,"elevationM":1833},{"id":"node:9531069105","kind":"peak","name":"Mount Ernest Gruening","lat":58.5727771,"lon":-134.6546814,"elevationM":1844},{"id":"node:11445381579","kind":"peak","name":"Echo Mountain","lat":58.7114538,"lon":-134.3819976,"elevationM":null},{"id":"node:11657089298","kind":"peak","name":"Centurian Peak","lat":58.7356196,"lon":-134.2691736,"elevationM":1885},{"id":"node:11657089309","kind":"peak","name":"South Rhine Peak","lat":58.2493232,"lon":-134.1692292,"elevationM":1054},{"id":"node:11657089311","kind":"peak","name":"Triangle Peak","lat":58.5717118,"lon":-134.5169546,"elevationM":1600},{"id":"node:11657089319","kind":"peak","name":"Flower Tower","lat":58.6507608,"lon":-134.3761593,"elevationM":1705},{"id":"node:11657089322","kind":"peak","name":"Organ Pipes","lat":58.6111739,"lon":-134.0491414,"elevationM":1672},{"id":"node:11657089326","kind":"peak","name":"North Nugget Spire","lat":58.4316125,"lon":-134.3551551,"elevationM":1671},{"id":"node:11657089333","kind":"peak","name":"Amherst Peak","lat":58.5009587,"lon":-134.3754156,"elevationM":1665},{"id":"node:11657089340","kind":"peak","name":"Auke Mountain","lat":58.3919265,"lon":-134.7146911,"elevationM":569},{"id":"node:11657089343","kind":"peak","name":"Taku Mountain","lat":58.0761577,"lon":-134.0416784,"elevationM":674},{"id":"node:11657089347","kind":"peak","name":"Boundary Peak 99","lat":58.9793449,"lon":-134.4069479,"elevationM":2220},{"id":"node:11657089354","kind":"peak","name":"Exploration Peak","lat":58.6870267,"lon":-134.2143296,"elevationM":1747},{"id":"node:11657089361","kind":"peak","name":"Mount Blachnitzky","lat":58.796494,"lon":-134.3961626,"elevationM":2009},{"id":"node:11657089365","kind":"peak","name":"West Summit","lat":58.3355972,"lon":-134.3008968,"elevationM":1360},{"id":"node:11657090169","kind":"peak","name":"Snowy Mountain","lat":58.1958405,"lon":-134.8250682,"elevationM":971},{"id":"node:11657090187","kind":"peak","name":"Stronghold Peak","lat":58.7572373,"lon":-134.2726502,"elevationM":1906},{"id":"node:11657090189","kind":"peak","name":"Mount Ben Stewart","lat":58.267866,"lon":-134.5617324,"elevationM":1048},{"id":"node:11657090198","kind":"peak","name":"Eagle Peak","lat":58.1135807,"lon":-134.5474933,"elevationM":1387},{"id":"node:11657090219","kind":"peak","name":"Emperor Peak","lat":58.5828509,"lon":-134.3863632,"elevationM":2062},{"id":"node:11657090230","kind":"peak","name":"Vesper Peak","lat":58.3712271,"lon":-134.3627667,"elevationM":1362},{"id":"node:11657090240","kind":"peak","name":"Folded Towers","lat":58.619162,"lon":-134.5493493,"elevationM":1940},{"id":"node:11657090251","kind":"peak","name":"Thoroughfare Mountain","lat":58.4052163,"lon":-134.1710599,"elevationM":1155},{"id":"node:11657090255","kind":"peak","name":"True Summit","lat":58.3391187,"lon":-134.2919082,"elevationM":1359},{"id":"node:11657090256","kind":"peak","name":"Vantage Peak","lat":58.6552835,"lon":-134.1652415,"elevationM":1697},{"id":"node:11657090269","kind":"peak","name":"Spencer Peak","lat":58.4884054,"lon":-134.4188483,"elevationM":1746},{"id":"node:11657090273","kind":"peak","name":"Deadview Peak","lat":58.3703186,"lon":-134.3308626,"elevationM":1298},{"id":"node:11657090277","kind":"peak","name":"Glacier Grub Tower","lat":58.4786321,"lon":-134.4892495,"elevationM":1383},{"id":"node:11657090278","kind":"peak","name":"Mount Wrather","lat":58.4913577,"lon":-134.4853053,"elevationM":1783},{"id":"node:11657090285","kind":"peak","name":"Gorgon Spire","lat":58.8014884,"lon":-134.2603826,"elevationM":2147},{"id":"node:11657090296","kind":"peak","name":"Stroller White Mountain","lat":58.4733363,"lon":-134.5801037,"elevationM":1558},{"id":"node:11657090299","kind":"peak","name":"McGinnis Mountain","lat":58.4518602,"lon":-134.598114,"elevationM":1282},{"id":"node:11657090307","kind":"peak","name":"Cairn Peak","lat":58.3601606,"lon":-134.3742127,"elevationM":1384},{"id":"node:11657090310","kind":"peak","name":"Hodgkins Peak","lat":58.5907584,"lon":-134.0479874,"elevationM":1720},{"id":"node:11657090319","kind":"peak","name":"Williams Mountain","lat":58.151408,"lon":-134.0319327,"elevationM":1083},{"id":"node:11657090324","kind":"peak","name":"Topless Peak","lat":58.3823624,"lon":-134.3641505,"elevationM":1244},{"id":"node:11657090325","kind":"peak","name":"Mount Maria","lat":58.3057168,"lon":-134.4090026,"elevationM":151},{"id":"node:11657090328","kind":"peak","name":"Boundary Peak 96","lat":58.9014179,"lon":-134.3073796,"elevationM":2260},{"id":"node:11657090339","kind":"peak","name":"Mammary Peak","lat":58.8160354,"lon":-134.2678717,"elevationM":2049},{"id":"node:11657090340","kind":"peak","name":"Mount Adolph Knopf","lat":58.6783288,"lon":-134.7046019,"elevationM":null},{"id":"node:11657090345","kind":"peak","name":"Floprock Peak","lat":58.6725477,"lon":-134.1577053,"elevationM":1693},{"id":"node:11657090347","kind":"peak","name":"Horn Spire","lat":58.7157117,"lon":-134.6200998,"elevationM":1947},{"id":"node:11657090349","kind":"peak","name":"Carpet Peak","lat":58.6575982,"lon":-134.3856418,"elevationM":1587},{"id":"node:11657090350","kind":"peak","name":"Knowl","lat":58.6607808,"lon":-134.3985557,"elevationM":1529}]}