{"tileKey":"la_p10_lo_p76","version":"v1-1775891056926","entries":[{"id":"node:3302171889","kind":"peak","name":"Elephant Hill","lat":10.9123132,"lon":76.8793055,"elevationM":1100},{"id":"node:4568066533","kind":"peak","name":"Meenuliyanpara","lat":10.0007745,"lon":76.8656538,"elevationM":null},{"id":"node:4610410217","kind":"peak","name":"Kodikuthimala","lat":10.9807364,"lon":76.2902506,"elevationM":null},{"id":"node:4675264937","kind":"peak","name":"Kanaka Mala","lat":10.3604417,"lon":76.3484606,"elevationM":null},{"id":"node:4814887675","kind":"peak","name":"Malayattoor Kurisumudy","lat":10.2159285,"lon":76.5096684,"elevationM":null},{"id":"node:5239018891","kind":"peak","name":"Karimala Gopuram","lat":10.3667622,"lon":76.7465029,"elevationM":1439},{"id":"node:6276471675","kind":"peak","name":"Thadampara","lat":10.8372693,"lon":76.3725165,"elevationM":null},{"id":"node:6856690515","kind":"peak","name":"Velliangiri","lat":10.9895909,"lon":76.6861647,"elevationM":1801},{"id":"node:7123815762","kind":"peak","name":"Adat hill top","lat":10.5468804,"lon":76.1462764,"elevationM":null},{"id":"node:7473386605","kind":"peak","name":"Pettimudi","lat":10.0175683,"lon":76.9786788,"elevationM":null},{"id":"node:8661770920","kind":"peak","name":"Rayiranellur","lat":10.8712225,"lon":76.1609325,"elevationM":null},{"id":"node:8856715855","kind":"peak","name":"Mappattukara narimada hills","lat":10.8813913,"lon":76.2503715,"elevationM":null},{"id":"node:8860106507","kind":"peak","name":"koonan mala","lat":10.8414449,"lon":76.3499541,"elevationM":null},{"id":"node:9519337831","kind":"peak","name":"Kallazhi Hill","lat":10.6721143,"lon":76.0906315,"elevationM":null}]}