{"tileKey":"la_p68_lo_p28","version":"v1-1775891056926","entries":[{"id":"node:439172992","kind":"peak","name":"Vongoiva","lat":68.1686949,"lon":28.5350059,"elevationM":636},{"id":"node:1286674300","kind":"peak","name":"Sokosti","lat":68.2191353,"lon":28.137192,"elevationM":718},{"id":"node:2415914763","kind":"peak","name":"Ruopimapäät","lat":68.3135168,"lon":28.1629312,"elevationM":null},{"id":"node:2415915222","kind":"peak","name":"Vaulopää","lat":68.2918121,"lon":28.1070683,"elevationM":null},{"id":"node:2415915229","kind":"peak","name":"Ukselmapää","lat":68.271423,"lon":28.1770075,"elevationM":null},{"id":"node:2415915431","kind":"peak","name":"Kaarnepää","lat":68.320969,"lon":28.0717919,"elevationM":531},{"id":"node:2415916638","kind":"peak","name":"Hattupää","lat":68.2952088,"lon":28.1661928,"elevationM":null},{"id":"node:2417407913","kind":"peak","name":"Ahmavaara","lat":68.3550298,"lon":28.1907386,"elevationM":null},{"id":"node:2417407969","kind":"peak","name":"Kuotmuttipää","lat":68.3414757,"lon":28.0451826,"elevationM":null},{"id":"node:2417408160","kind":"peak","name":"Aitavaara","lat":68.3399235,"lon":28.1197694,"elevationM":null},{"id":"node:2417408699","kind":"peak","name":"Pikku Ahmavaara","lat":68.3706007,"lon":28.171255,"elevationM":null},{"id":"node:2417409285","kind":"peak","name":"Lumipää","lat":68.2610622,"lon":28.1581229,"elevationM":null},{"id":"node:2417464726","kind":"peak","name":"Sotavaara","lat":68.3668672,"lon":28.0017523,"elevationM":null},{"id":"node:2417465297","kind":"peak","name":"Sotapää","lat":68.3430897,"lon":28.0062154,"elevationM":null},{"id":"node:2417524474","kind":"peak","name":"Muorravaarakan Purnuvaara","lat":68.2433151,"lon":28.3054942,"elevationM":null},{"id":"node:2417524497","kind":"peak","name":"Tiuhtelmapää","lat":68.2681503,"lon":28.3139914,"elevationM":null},{"id":"node:2417599988","kind":"peak","name":"Jyrkkävaara","lat":68.3841359,"lon":28.2600511,"elevationM":null},{"id":"node:2417665642","kind":"peak","name":"Sollanpää","lat":68.2897164,"lon":28.2120358,"elevationM":null},{"id":"node:3205955839","kind":"peak","name":"Hirvaspäät","lat":68.3028355,"lon":28.429632,"elevationM":null},{"id":"node:3205958800","kind":"peak","name":"Vesipää","lat":68.2077601,"lon":28.2368562,"elevationM":null},{"id":"node:3205959246","kind":"peak","name":"Peuranampumapää","lat":68.327446,"lon":28.4208772,"elevationM":null},{"id":"node:3205959258","kind":"peak","name":"Hietapää","lat":68.2038708,"lon":28.153858,"elevationM":null},{"id":"node:3205959765","kind":"peak","name":"Siliäselkä","lat":68.2736856,"lon":28.1075952,"elevationM":null},{"id":"node:3205959792","kind":"peak","name":"Sara-Pieran Muurivaara","lat":68.2782619,"lon":28.362684,"elevationM":null},{"id":"node:3205959975","kind":"peak","name":"Korvapuoli","lat":68.3023595,"lon":28.4853404,"elevationM":null},{"id":"node:3205960307","kind":"peak","name":"Kuikkapää","lat":68.2919172,"lon":28.3992479,"elevationM":null},{"id":"node:3205960323","kind":"peak","name":"Laukkunoska","lat":68.2843586,"lon":28.3290384,"elevationM":null},{"id":"node:3226426999","kind":"peak","name":"Pälkkimäpää","lat":68.2703121,"lon":28.0632726,"elevationM":null},{"id":"node:3226427000","kind":"peak","name":"Kaihtimipää","lat":68.1669964,"lon":28.0854941,"elevationM":null},{"id":"node:3226427505","kind":"peak","name":"Anteripää","lat":68.2241604,"lon":28.3280474,"elevationM":null},{"id":"node:3227751414","kind":"peak","name":"Vuomapää","lat":68.1700611,"lon":28.3549567,"elevationM":691},{"id":"node:3227789769","kind":"peak","name":"Suppu-Kotavaara","lat":68.2441235,"lon":28.217385,"elevationM":null},{"id":"node:3239512614","kind":"peak","name":"Läntinen Kiertämäpää","lat":68.395578,"lon":28.4394647,"elevationM":null},{"id":"node:3240616717","kind":"peak","name":"Pirravatselma","lat":68.1570806,"lon":28.5903987,"elevationM":520},{"id":"node:3242254294","kind":"peak","name":"Hammaspää","lat":68.1789428,"lon":28.3229116,"elevationM":null},{"id":"node:3794138824","kind":"peak","name":"Koiravaarat","lat":68.3720672,"lon":28.3355215,"elevationM":null},{"id":"node:3794207660","kind":"peak","name":"Karhupalot","lat":68.3844561,"lon":28.3294675,"elevationM":null},{"id":"node:3802168231","kind":"peak","name":"Reututunturi","lat":68.19728,"lon":28.4825376,"elevationM":665},{"id":"node:3802869122","kind":"peak","name":"Keinopää","lat":68.1938179,"lon":28.3352782,"elevationM":null},{"id":"node:3802869123","kind":"peak","name":"Pirttikallionvaara","lat":68.1963266,"lon":28.2866879,"elevationM":null},{"id":"node:3802875732","kind":"peak","name":"Riitelmäpäät","lat":68.2364803,"lon":28.1424067,"elevationM":null},{"id":"node:3802875733","kind":"peak","name":"Suppukotavaara","lat":68.2485481,"lon":28.1763313,"elevationM":null},{"id":"node:3817465091","kind":"peak","name":"Suomunniemivaarat","lat":68.4362653,"lon":28.2524136,"elevationM":273},{"id":"node:3918525315","kind":"peak","name":"Rovapää","lat":68.2698632,"lon":28.4390833,"elevationM":null},{"id":"node:4376214870","kind":"peak","name":"Mantoselkä","lat":68.0400137,"lon":28.9995596,"elevationM":null},{"id":"node:4376263166","kind":"peak","name":"Marivaara","lat":68.0273721,"lon":28.2734481,"elevationM":349},{"id":"node:4811388026","kind":"peak","name":"Vanhapää","lat":68.6808322,"lon":28.2399973,"elevationM":442},{"id":"node:4811388367","kind":"peak","name":"Akalauttapää","lat":68.6613331,"lon":28.4091353,"elevationM":502},{"id":"node:4811497891","kind":"peak","name":"Suorsapää","lat":68.5398037,"lon":28.4339281,"elevationM":471},{"id":"node:5197261091","kind":"peak","name":"Коратмоайв","lat":68.3303196,"lon":28.6640167,"elevationM":458},{"id":"node:5197261093","kind":"peak","name":"Матсоайв","lat":68.3141502,"lon":28.6583518,"elevationM":567},{"id":"node:5197267062","kind":"peak","name":"Вуонгелин-Тунтури","lat":68.329131,"lon":28.5811043,"elevationM":441},{"id":"node:5197271150","kind":"peak","name":"Толтоайв","lat":68.2683381,"lon":28.6759471,"elevationM":546},{"id":"node:5197284883","kind":"peak","name":"Talkkunapää","lat":68.1962794,"lon":28.6457562,"elevationM":632},{"id":"node:5197290533","kind":"peak","name":"Кьяллоайв","lat":68.2120825,"lon":28.7050867,"elevationM":650},{"id":"node:5197334340","kind":"peak","name":"Ионнлакк","lat":68.3389781,"lon":28.8318586,"elevationM":636},{"id":"node:5197339994","kind":"peak","name":"Паккиоайв","lat":68.2719448,"lon":28.9206076,"elevationM":567},{"id":"node:5197341596","kind":"peak","name":"Хеппимораст","lat":68.2517272,"lon":28.8464927,"elevationM":439},{"id":"node:5197342537","kind":"peak","name":"Эхремоайваш","lat":68.3612392,"lon":28.7306642,"elevationM":449},{"id":"node:5197357437","kind":"peak","name":"Халковара","lat":68.1756558,"lon":28.7748241,"elevationM":370},{"id":"node:6652489805","kind":"peak","name":"Ийвара","lat":68.9093062,"lon":28.8771772,"elevationM":264},{"id":"node:6652546227","kind":"peak","name":"Нискавара","lat":68.896539,"lon":28.5383177,"elevationM":207},{"id":"node:6658702718","kind":"peak","name":"Раявара","lat":68.9502382,"lon":28.8578009,"elevationM":null},{"id":"node:6658708464","kind":"peak","name":"Кайтоселяннока","lat":68.964022,"lon":28.8965106,"elevationM":165},{"id":"node:6677477908","kind":"peak","name":"Конностунтури","lat":68.73257,"lon":28.7072781,"elevationM":401},{"id":"node:6677696624","kind":"peak","name":"Риутуселькя","lat":68.6829362,"lon":28.6526012,"elevationM":355},{"id":"node:6677719178","kind":"peak","name":"Лауккуойваш","lat":68.6553523,"lon":28.7248277,"elevationM":386},{"id":"node:6677722734","kind":"peak","name":"Валлиселькя","lat":68.7018989,"lon":28.6793803,"elevationM":280},{"id":"node:6677750494","kind":"peak","name":"Вельхемвар","lat":68.5478938,"lon":28.5129118,"elevationM":332},{"id":"node:6677761213","kind":"peak","name":"Алгашвар","lat":68.7441951,"lon":28.9612484,"elevationM":282},{"id":"node:6689674848","kind":"peak","name":"Välipää","lat":68.2107936,"lon":28.5752135,"elevationM":null},{"id":"node:6689674849","kind":"peak","name":"Siulapää","lat":68.173013,"lon":28.4270002,"elevationM":null},{"id":"node:6699280544","kind":"peak","name":"Матсвар","lat":68.8161443,"lon":28.9226245,"elevationM":228},{"id":"node:6797238785","kind":"peak","name":"Seitapää","lat":68.6881632,"lon":28.5906469,"elevationM":null},{"id":"node:6797238894","kind":"peak","name":"Santapää","lat":68.6693265,"lon":28.5440742,"elevationM":null},{"id":"node:6797409745","kind":"peak","name":"Suopunkimorosto","lat":68.6529918,"lon":28.393114,"elevationM":null},{"id":"node:6802930472","kind":"peak","name":"Sarmitunturi","lat":68.7033355,"lon":28.3226345,"elevationM":null},{"id":"node:6802930504","kind":"peak","name":"Tunturipäänmorosto","lat":68.7208351,"lon":28.2897191,"elevationM":null},{"id":"node:6802930513","kind":"peak","name":"Ahmamorosto","lat":68.6874726,"lon":28.2878659,"elevationM":null},{"id":"node:6802930610","kind":"peak","name":"Hukkamorosto","lat":68.679881,"lon":28.3546412,"elevationM":null},{"id":"node:6803750243","kind":"peak","name":"Jäkälämorosto","lat":68.6612992,"lon":28.3485392,"elevationM":null},{"id":"node:9522177509","kind":"peak","name":"Vongoivanräystäs","lat":68.1527501,"lon":28.5415856,"elevationM":555},{"id":"node:10780112342","kind":"peak","name":"Purnupää","lat":68.2500599,"lon":28.5467594,"elevationM":null},{"id":"node:10792608893","kind":"peak","name":"Skoaltoaivi","lat":68.2527383,"lon":28.1204634,"elevationM":null},{"id":"node:10794005006","kind":"peak","name":"Hangasselkä","lat":68.34817,"lon":28.3121404,"elevationM":null}]}