{"tileKey":"la_p26_lo_m105","version":"v1-1775891056926","entries":[{"id":"node:5108012482","kind":"peak","name":"Loma El Tallon","lat":26.9647872,"lon":-104.0806734,"elevationM":1230},{"id":"node:5108012483","kind":"peak","name":"Loma La Burra","lat":26.9401129,"lon":-104.128945,"elevationM":1260},{"id":"node:5108012484","kind":"peak","name":"C. El Pitonaje","lat":26.8970124,"lon":-104.1214165,"elevationM":1280},{"id":"node:5108012498","kind":"peak","name":"C. Sardinas","lat":26.9058075,"lon":-104.140958,"elevationM":1280},{"id":"node:5108040235","kind":"peak","name":"El Buen Pastor","lat":26.8691445,"lon":-104.1466862,"elevationM":1300},{"id":"node:5541307025","kind":"peak","name":"Las Tetas de Juana","lat":26.8368756,"lon":-104.1852019,"elevationM":1550},{"id":"node:5541377456","kind":"peak","name":"Los Metates","lat":26.56269,"lon":-104.0218529,"elevationM":1340},{"id":"node:5564680032","kind":"peak","name":"Cerro Prieto","lat":26.7332487,"lon":-104.0063913,"elevationM":1370},{"id":"node:5564680033","kind":"peak","name":"Sombreretillo","lat":26.7482602,"lon":-104.0568568,"elevationM":1420},{"id":"node:5564680034","kind":"peak","name":"Nariz de Urias","lat":26.7248863,"lon":-104.0734176,"elevationM":1570},{"id":"node:5564680035","kind":"peak","name":"Lechuguillentos","lat":26.6993689,"lon":-104.028744,"elevationM":1320},{"id":"node:5564680036","kind":"peak","name":"La Traba","lat":26.6713778,"lon":-104.0182409,"elevationM":1280},{"id":"node:5564680037","kind":"peak","name":"La Cruz","lat":26.6428549,"lon":-104.0442125,"elevationM":1360},{"id":"node:5564680109","kind":"peak","name":"Lomas Las Glorias","lat":26.6542946,"lon":-104.119503,"elevationM":1300},{"id":"node:5564680112","kind":"peak","name":"Lomas El Rocio","lat":26.668159,"lon":-104.1259618,"elevationM":1280},{"id":"node:5564680113","kind":"peak","name":"Lomas El Tapon","lat":26.6792699,"lon":-104.1431173,"elevationM":1290},{"id":"node:5564680120","kind":"peak","name":"Las Minas","lat":26.7249313,"lon":-104.1609701,"elevationM":1250},{"id":"node:5564707996","kind":"peak","name":"Loma Redonda","lat":26.83386,"lon":-104.1016044,"elevationM":1240},{"id":"node:5564709374","kind":"peak","name":"Lomas Amarillas","lat":26.8094359,"lon":-104.0889665,"elevationM":1210},{"id":"node:5564709375","kind":"peak","name":"Dinamita","lat":26.8049044,"lon":-104.0741576,"elevationM":1240},{"id":"node:5564709410","kind":"peak","name":"Cerro Manchado","lat":26.8108566,"lon":-104.1299824,"elevationM":1410},{"id":"node:5564709460","kind":"peak","name":"Lomas Cuatas","lat":26.8476722,"lon":-104.0431579,"elevationM":1160},{"id":"node:7535461351","kind":"peak","name":"Sierra Cañas","lat":26.9814546,"lon":-104.5046908,"elevationM":1800},{"id":"node:7535461352","kind":"peak","name":"Sierra los Remedios","lat":26.9132356,"lon":-104.3868687,"elevationM":1730},{"id":"node:7535461353","kind":"peak","name":"Los Orates","lat":26.8797904,"lon":-104.3826993,"elevationM":1620},{"id":"node:7535482866","kind":"peak","name":"Lomas Altas","lat":26.931109,"lon":-104.4928893,"elevationM":1440},{"id":"node:7535490083","kind":"peak","name":"La Boquilla","lat":26.9377865,"lon":-104.55786,"elevationM":1570},{"id":"node:7535493067","kind":"peak","name":"Cerros Colorados","lat":26.9677625,"lon":-104.5980937,"elevationM":1700},{"id":"node:8168572501","kind":"peak","name":"Loma El Carpintero","lat":26.6067226,"lon":-104.9808522,"elevationM":1680},{"id":"node:8641189400","kind":"peak","name":"Loma Gregoria","lat":26.2425336,"lon":-104.4778654,"elevationM":null},{"id":"node:8641189401","kind":"peak","name":"Cerro El Brindis","lat":26.2405381,"lon":-104.4987879,"elevationM":1562},{"id":"node:9622131226","kind":"peak","name":"Abejas","lat":26.8754689,"lon":-104.5528262,"elevationM":1570},{"id":"node:9622131227","kind":"peak","name":"Los Lobos","lat":26.8850628,"lon":-104.5614242,"elevationM":1490},{"id":"node:9622189915","kind":"peak","name":"Cerro Blanco","lat":26.9001758,"lon":-104.6696421,"elevationM":1580},{"id":"node:10236357896","kind":"peak","name":"Cerro de las Trincheras","lat":26.9640547,"lon":-104.9930564,"elevationM":1666},{"id":"node:13037885437","kind":"peak","name":"Loma Chencho","lat":26.8400738,"lon":-104.3651931,"elevationM":1310},{"id":"node:13037908549","kind":"peak","name":"El Zorrillo","lat":26.9102794,"lon":-104.3818928,"elevationM":1590},{"id":"node:13038040123","kind":"peak","name":"Loma Tres Hermanos","lat":26.8393508,"lon":-104.4613339,"elevationM":1330},{"id":"node:13038040143","kind":"peak","name":"Rellano","lat":26.8363877,"lon":-104.4965466,"elevationM":1400},{"id":"node:13038207258","kind":"peak","name":"La Caparrosa","lat":26.9000177,"lon":-104.5167429,"elevationM":1660}]}