{"tileKey":"la_p13_lo_p43","version":"v1-1775891056926","entries":[{"id":"node:1216821862","kind":"peak","name":"جبل عمري","lat":13.022629,"lon":43.48079,"elevationM":null},{"id":"node:1216822152","kind":"peak","name":"جبل حوزان","lat":13.1100506,"lon":43.4803533,"elevationM":null},{"id":"node:1217853705","kind":"peak","name":"جبل الدرقة","lat":13.956339,"lon":43.799867,"elevationM":null},{"id":"node:1217853739","kind":"peak","name":"جبل القحمة","lat":13.961888,"lon":43.765316,"elevationM":null},{"id":"node:1217853763","kind":"peak","name":"جبل الأحمول","lat":13.916659,"lon":43.754703,"elevationM":null},{"id":"node:1217856719","kind":"peak","name":"جبل قصل","lat":13.9996894,"lon":43.8728193,"elevationM":null},{"id":"node:1217856760","kind":"peak","name":"جبل مزاحن","lat":13.9993638,"lon":43.8728287,"elevationM":null},{"id":"node:1217859306","kind":"peak","name":"جبل سودان","lat":13.9,"lon":43.9,"elevationM":null},{"id":"node:1217859397","kind":"peak","name":"جبل حذيفي","lat":13.9190944,"lon":43.882734,"elevationM":null},{"id":"node:1217859413","kind":"peak","name":"جبل اكـن","lat":13.918755,"lon":43.882838,"elevationM":null},{"id":"node:1217859445","kind":"peak","name":"جبل علب","lat":13.921632,"lon":43.8389,"elevationM":null},{"id":"node:1217859484","kind":"peak","name":"جبل الشرقي","lat":13.931315,"lon":43.889718,"elevationM":null},{"id":"node:1217859935","kind":"peak","name":"جبل الركز","lat":13.942919,"lon":43.810766,"elevationM":null},{"id":"node:1217859951","kind":"peak","name":"جبل الثلث","lat":13.903954,"lon":43.814683,"elevationM":null},{"id":"node:1217860843","kind":"peak","name":"جبل المدنع","lat":13.9702766,"lon":43.8422523,"elevationM":null},{"id":"node:1218212123","kind":"peak","name":"جبل زهقان","lat":13.871238,"lon":43.908925,"elevationM":null},{"id":"node:1218224430","kind":"peak","name":"جبل الحبشي","lat":13.587894,"lon":43.453452,"elevationM":null},{"id":"node:1218225120","kind":"peak","name":"جبل سنّ صنفة","lat":13.019624,"lon":43.697609,"elevationM":null},{"id":"node:1218225149","kind":"peak","name":"جبل كبة","lat":13,"lon":43.766667,"elevationM":null},{"id":"node:1219307438","kind":"peak","name":"جبل عدف","lat":13.603273,"lon":43.868665,"elevationM":null},{"id":"node:1219317806","kind":"peak","name":"جبل العرف","lat":13.3544261,"lon":43.7314447,"elevationM":null},{"id":"node:1219317861","kind":"peak","name":"جبل الورك","lat":13.318261,"lon":43.703805,"elevationM":null},{"id":"node:1219317999","kind":"peak","name":"جبل عقمة","lat":13.3385813,"lon":43.7451814,"elevationM":null},{"id":"node:1219318006","kind":"peak","name":"جبل الركيب","lat":13.302357,"lon":43.712922,"elevationM":null},{"id":"node:1219318561","kind":"peak","name":"جبل أجلو","lat":13.281913,"lon":43.625696,"elevationM":null},{"id":"node:1219318590","kind":"peak","name":"جبل حنة","lat":13.253972,"lon":43.702644,"elevationM":null},{"id":"node:1219318622","kind":"peak","name":"جبل الرجيب","lat":13.2625,"lon":43.794445,"elevationM":null},{"id":"node:1219318692","kind":"peak","name":"جبل الذكر","lat":13.352445,"lon":43.643218,"elevationM":null},{"id":"node:1219318718","kind":"peak","name":"جبل غباري","lat":13.345,"lon":43.769445,"elevationM":null},{"id":"node:1219318796","kind":"peak","name":"جبل أنم","lat":13.424209,"lon":43.834391,"elevationM":null},{"id":"node:1219318842","kind":"peak","name":"جبل الدبيلة","lat":13.373611,"lon":43.790834,"elevationM":null},{"id":"node:1219318929","kind":"peak","name":"جبل اللقيم","lat":13.372222,"lon":43.758056,"elevationM":null},{"id":"node:1219318942","kind":"peak","name":"جبل دراف","lat":13.3710093,"lon":43.7218168,"elevationM":null},{"id":"node:1219319140","kind":"peak","name":"جبل قنو","lat":13.2682,"lon":43.651519,"elevationM":null},{"id":"node:1219319173","kind":"peak","name":"جبل رحنج","lat":13.4225,"lon":43.779167,"elevationM":null},{"id":"node:1219319205","kind":"peak","name":"جبل الروقين","lat":13.420413,"lon":43.630719,"elevationM":null},{"id":"node:1219319232","kind":"peak","name":"جبل المكدد","lat":13.2416017,"lon":43.7034887,"elevationM":null},{"id":"node:1219319654","kind":"peak","name":"جبل الروي","lat":13.295,"lon":43.840278,"elevationM":null},{"id":"node:1219319676","kind":"peak","name":"جبل السن","lat":13.411667,"lon":43.76,"elevationM":null},{"id":"node:1219319691","kind":"peak","name":"جبل بطومة","lat":13.418334,"lon":43.740556,"elevationM":null},{"id":"node:1219408683","kind":"peak","name":"جبل قليمة","lat":13.5785865,"lon":43.7887424,"elevationM":null},{"id":"node:1219408885","kind":"peak","name":"جبل جرنز","lat":13.6,"lon":43.8,"elevationM":null},{"id":"node:1219409655","kind":"peak","name":"جبل الفرد","lat":13.5978,"lon":43.718709,"elevationM":null},{"id":"node:1219409713","kind":"peak","name":"جبل العيدي","lat":13.644738,"lon":43.689749,"elevationM":null},{"id":"node:1219409832","kind":"peak","name":"جبل نعمان","lat":13.6046082,"lon":43.7984243,"elevationM":null},{"id":"node:1221838667","kind":"peak","name":"جبل الدفدف","lat":13.981497,"lon":43.991257,"elevationM":null},{"id":"node:1221839549","kind":"peak","name":"جبل بحري","lat":13.988147,"lon":43.965145,"elevationM":null},{"id":"node:1221839566","kind":"peak","name":"جبل الدفدف","lat":13.9810843,"lon":43.9912663,"elevationM":null},{"id":"node:1221888327","kind":"peak","name":"جبل الردمة","lat":13.139928,"lon":43.876909,"elevationM":null},{"id":"node:1221888353","kind":"peak","name":"جبل قرفان","lat":13.178357,"lon":43.866989,"elevationM":null},{"id":"node:1221888406","kind":"peak","name":"جبل المجزر","lat":13.141487,"lon":43.876649,"elevationM":null},{"id":"node:1221891432","kind":"peak","name":"جبل الموقع","lat":13.199354,"lon":43.843333,"elevationM":null},{"id":"node:1221891681","kind":"peak","name":"جبل الجرف","lat":13.164212,"lon":43.828139,"elevationM":null},{"id":"node:1221891940","kind":"peak","name":"جبل الضعيف","lat":13.202222,"lon":43.891111,"elevationM":null},{"id":"node:1221892123","kind":"peak","name":"جبل السجي","lat":13.201623,"lon":43.910245,"elevationM":null},{"id":"node:1221892343","kind":"peak","name":"قرن الغراب","lat":13.208889,"lon":43.822778,"elevationM":null},{"id":"node:1221892397","kind":"peak","name":"جبل ذي عهدة","lat":13.112168,"lon":43.806891,"elevationM":null},{"id":"node:1221892822","kind":"peak","name":"جبل نمن","lat":13.121328,"lon":43.858824,"elevationM":null},{"id":"node:1221892910","kind":"peak","name":"جبل العيلي","lat":13.121788,"lon":43.847019,"elevationM":null},{"id":"node:1221892922","kind":"peak","name":"جبل الأكيع","lat":13.195099,"lon":43.81631,"elevationM":null},{"id":"node:1221893189","kind":"peak","name":"جبل الصفي","lat":13.15666,"lon":43.818077,"elevationM":null},{"id":"node:1221894566","kind":"peak","name":"جبل لبلبة","lat":13.176602,"lon":43.976265,"elevationM":null},{"id":"node:1221894765","kind":"peak","name":"جبل المنار","lat":13.181366,"lon":43.976937,"elevationM":null},{"id":"node:1221894828","kind":"peak","name":"جبل قراعة","lat":13.17306,"lon":43.960814,"elevationM":null},{"id":"node:1221894969","kind":"peak","name":"جبل سرادة","lat":13.20499,"lon":43.972615,"elevationM":null},{"id":"node:1221898346","kind":"peak","name":"جبل الأغبر","lat":13.131111,"lon":43.968056,"elevationM":null},{"id":"node:1221898616","kind":"peak","name":"جبل ضفار","lat":13.1937209,"lon":43.9887473,"elevationM":null},{"id":"node:1223256435","kind":"peak","name":"جبل الأيفوع","lat":13.857909,"lon":43.91321,"elevationM":null},{"id":"node:1223256869","kind":"peak","name":"جبل حجر","lat":13.8544759,"lon":43.9392294,"elevationM":null},{"id":"node:1223258450","kind":"peak","name":"جبل عنب","lat":13.82663,"lon":43.965174,"elevationM":null},{"id":"node:1223258460","kind":"peak","name":"جبل حماس","lat":13.810771,"lon":43.974048,"elevationM":null},{"id":"node:1223258497","kind":"peak","name":"جبل الأشعوب","lat":13.802673,"lon":43.961361,"elevationM":null},{"id":"node:1223259037","kind":"peak","name":"جبل حمير","lat":13.866397,"lon":43.977551,"elevationM":null},{"id":"node:1223259439","kind":"peak","name":"جبل النجادي","lat":13.902628,"lon":43.938129,"elevationM":null},{"id":"node:1223261597","kind":"peak","name":"جبل الكافر","lat":13.78824,"lon":43.857017,"elevationM":null},{"id":"node:1223261797","kind":"peak","name":"جبل القطيعة","lat":13.763926,"lon":43.854471,"elevationM":null},{"id":"node:1223261884","kind":"peak","name":"جبل الشريف","lat":13.771395,"lon":43.842281,"elevationM":null},{"id":"node:1223262811","kind":"peak","name":"جبل بني سري","lat":13.782848,"lon":43.822991,"elevationM":1433},{"id":"node:1223262827","kind":"peak","name":"جبل رهيد","lat":13.765644,"lon":43.828071,"elevationM":null},{"id":"node:1223263316","kind":"peak","name":"جبل كحلن","lat":13.830679,"lon":43.82933,"elevationM":null},{"id":"node:1223263384","kind":"peak","name":"جبل السنن","lat":13.886686,"lon":43.758484,"elevationM":null},{"id":"node:1223264376","kind":"peak","name":"جبل قسبط","lat":13.787664,"lon":43.715039,"elevationM":null},{"id":"node:1223264456","kind":"peak","name":"جبل الحصن","lat":13.798036,"lon":43.699727,"elevationM":null},{"id":"node:1223268066","kind":"peak","name":"جبل غرة شمير","lat":13.6164584,"lon":43.6499907,"elevationM":null},{"id":"node:1223268974","kind":"peak","name":"جبل مقبني","lat":13.583333,"lon":43.65,"elevationM":null},{"id":"node:1223270096","kind":"peak","name":"جبل العوجاء","lat":13.4739818,"lon":43.7416656,"elevationM":null},{"id":"node:1223270110","kind":"peak","name":"جبل البرقة","lat":13.471923,"lon":43.744446,"elevationM":null},{"id":"node:1223270151","kind":"peak","name":"جبل الهقي","lat":13.467533,"lon":43.725083,"elevationM":null},{"id":"node:1223270178","kind":"peak","name":"جبل الكهزية","lat":13.5002494,"lon":43.7333377,"elevationM":null},{"id":"node:1223270295","kind":"peak","name":"جبل الحطبة","lat":13.49542,"lon":43.696241,"elevationM":null},{"id":"node:1223270349","kind":"peak","name":"جبل القعود","lat":13.486327,"lon":43.691796,"elevationM":null},{"id":"node:1223270351","kind":"peak","name":"جبل الجزيعة","lat":13.444934,"lon":43.722826,"elevationM":null},{"id":"node:1223271412","kind":"peak","name":"جبل بول","lat":13.45,"lon":43.666667,"elevationM":null},{"id":"node:1223273538","kind":"peak","name":"جبل الوحز","lat":13.4592254,"lon":43.6044994,"elevationM":null},{"id":"node:1223273623","kind":"peak","name":"جبل الحرص","lat":13.5,"lon":43.616667,"elevationM":null},{"id":"node:1223273625","kind":"peak","name":"جبل رابص","lat":13.4447935,"lon":43.6016728,"elevationM":null},{"id":"node:1223273640","kind":"peak","name":"جبل الهطيط","lat":13.491637,"lon":43.606643,"elevationM":null},{"id":"node:1223273644","kind":"peak","name":"جبل المنقد","lat":13.444972,"lon":43.6402951,"elevationM":null},{"id":"node:1223273652","kind":"peak","name":"جبل المنقد","lat":13.4437891,"lon":43.6402992,"elevationM":null},{"id":"node:1223273656","kind":"peak","name":"جبل رجم","lat":13.4347522,"lon":43.6375816,"elevationM":null},{"id":"node:1223274765","kind":"peak","name":"جبل أذنين","lat":13.384931,"lon":43.570798,"elevationM":null},{"id":"node:1223275520","kind":"peak","name":"جبل الشبارج","lat":13.3545121,"lon":43.4855686,"elevationM":null},{"id":"node:1223275531","kind":"peak","name":"جبل عقّار","lat":13.294058,"lon":43.589424,"elevationM":null},{"id":"node:1223275539","kind":"peak","name":"جبل راجلة","lat":13.304419,"lon":43.616102,"elevationM":null},{"id":"node:1223275551","kind":"peak","name":"جبل نابضة","lat":13.3554466,"lon":43.52868,"elevationM":null},{"id":"node:1223275557","kind":"peak","name":"جبل النار","lat":13.320204,"lon":43.479659,"elevationM":null},{"id":"node:1223275569","kind":"peak","name":"جبل ألاوز","lat":13.2057989,"lon":43.6017475,"elevationM":null},{"id":"node:1223275611","kind":"peak","name":"جبل الجبالي","lat":13.194244,"lon":43.683399,"elevationM":null},{"id":"node:1223275645","kind":"peak","name":"جبل الثوباني","lat":13.3050005,"lon":43.4664034,"elevationM":null},{"id":"node:1223275646","kind":"peak","name":"جبل عقيرة","lat":13.308827,"lon":43.564528,"elevationM":null},{"id":"node:1223276025","kind":"peak","name":"جبل الزاحش","lat":13.1,"lon":43.733333,"elevationM":null},{"id":"node:1223276044","kind":"peak","name":"جبل الدامغة","lat":13.146986,"lon":43.762334,"elevationM":null},{"id":"node:1223276061","kind":"peak","name":"جبل الأعطف","lat":13.174014,"lon":43.75736,"elevationM":null},{"id":"node:1223276066","kind":"peak","name":"جبل الحمام","lat":13.094833,"lon":43.644315,"elevationM":null},{"id":"node:1223278392","kind":"peak","name":"جبل الحريم","lat":13.34151,"lon":43.976882,"elevationM":null},{"id":"node:1224317913","kind":"peak","name":"جبل يعاقبة","lat":13.80517,"lon":43.557748,"elevationM":null},{"id":"node:1224318015","kind":"peak","name":"جبل براشة","lat":13.8019422,"lon":43.5584511,"elevationM":null},{"id":"node:1224319779","kind":"peak","name":"جبل هكمان","lat":13.867564,"lon":43.66234,"elevationM":null},{"id":"node:1224319923","kind":"peak","name":"جبل الغازية","lat":13.83158,"lon":43.462104,"elevationM":null},{"id":"node:1224319954","kind":"peak","name":"جبل عبيش","lat":13.833333,"lon":43.683333,"elevationM":null},{"id":"node:1224320025","kind":"peak","name":"جبل حمر","lat":13.760355,"lon":43.529502,"elevationM":null},{"id":"node:1224320041","kind":"peak","name":"جبل البراشة","lat":13.847594,"lon":43.499911,"elevationM":null},{"id":"node:1224322301","kind":"peak","name":"جبل أنبر أمشة","lat":13.716667,"lon":43.633333,"elevationM":null},{"id":"node:1224322345","kind":"peak","name":"جبل عاقبة","lat":13.903328,"lon":43.699866,"elevationM":null},{"id":"node:1224322346","kind":"peak","name":"جبل أميمرة الأشعوب","lat":13.690834,"lon":43.691043,"elevationM":null},{"id":"node:1224322962","kind":"peak","name":"جبل غبة","lat":13.6997018,"lon":43.783451,"elevationM":null},{"id":"node:1224322989","kind":"peak","name":"جبل شعيب","lat":13.744303,"lon":43.796706,"elevationM":null},{"id":"node:1224323007","kind":"peak","name":"جبل ميرب","lat":13.75,"lon":43.8,"elevationM":null},{"id":"node:1224323421","kind":"peak","name":"جبل الذرعي","lat":13.764828,"lon":43.768763,"elevationM":null},{"id":"node:1224323605","kind":"peak","name":"جبل المنبر","lat":13.670199,"lon":43.696009,"elevationM":null},{"id":"node:1224326411","kind":"peak","name":"جبل غبة","lat":13.7,"lon":43.866667,"elevationM":null},{"id":"node:1224326442","kind":"peak","name":"جبل عكس","lat":13.6666627,"lon":43.8833299,"elevationM":null},{"id":"node:1224326706","kind":"peak","name":"جبل ضوار","lat":13.6738673,"lon":43.8698112,"elevationM":null},{"id":"node:1224326829","kind":"peak","name":"جبل خشران","lat":13.825,"lon":43.85,"elevationM":null},{"id":"node:1224328597","kind":"peak","name":"جبل عطف","lat":13.65,"lon":43.85,"elevationM":null},{"id":"node:1224329342","kind":"peak","name":"جبل هججة","lat":13.716667,"lon":43.95,"elevationM":null},{"id":"node:1226215737","kind":"peak","name":"جبل رمادي","lat":13.228646,"lon":43.983216,"elevationM":null},{"id":"node:1226216038","kind":"peak","name":"جبل العشة","lat":13.210872,"lon":43.992544,"elevationM":null},{"id":"node:1226216348","kind":"peak","name":"جبل شرق","lat":13.251579,"lon":43.96328,"elevationM":null},{"id":"node:1226350291","kind":"peak","name":"جبل الجرة","lat":13.5999683,"lon":43.9834357,"elevationM":null},{"id":"node:1226350303","kind":"peak","name":"جبل زنخ","lat":13.613373,"lon":43.985645,"elevationM":null},{"id":"node:1226350327","kind":"peak","name":"جبل برق","lat":13.603484,"lon":43.995658,"elevationM":null},{"id":"node:1226350406","kind":"peak","name":"جبل الوحيد","lat":13.434476,"lon":43.968717,"elevationM":null},{"id":"node:1226350422","kind":"peak","name":"جبل النويد","lat":13.471966,"lon":43.949561,"elevationM":null},{"id":"node:1226350472","kind":"peak","name":"جبل حبشي","lat":13.473889,"lon":43.888056,"elevationM":null},{"id":"node:1226350669","kind":"peak","name":"جبل شنة","lat":13.446628,"lon":43.856067,"elevationM":null},{"id":"node:1226361258","kind":"peak","name":"جبل كعالة","lat":13.289722,"lon":43.988334,"elevationM":null},{"id":"node:1226362721","kind":"peak","name":"جبل عرد","lat":13.350834,"lon":43.916945,"elevationM":null},{"id":"node:1226362722","kind":"peak","name":"جبل المشاعرة","lat":13.3725,"lon":43.936667,"elevationM":null},{"id":"node:1226362738","kind":"peak","name":"جبل رمشمش","lat":13.305607,"lon":43.935841,"elevationM":null},{"id":"node:1226362944","kind":"peak","name":"جبل المغدر","lat":13.331945,"lon":43.886111,"elevationM":null},{"id":"node:1226362986","kind":"peak","name":"جبل قناحو","lat":13.2162361,"lon":43.8373207,"elevationM":null},{"id":"node:1226362994","kind":"peak","name":"جبل كنهن","lat":13.2147712,"lon":43.8371343,"elevationM":null},{"id":"node:1226363060","kind":"peak","name":"جبل الشقوق","lat":13.122789,"lon":43.772369,"elevationM":null},{"id":"node:1226363069","kind":"peak","name":"جبل السيبارة","lat":13.124832,"lon":43.793617,"elevationM":null},{"id":"node:1226363088","kind":"peak","name":"جبل السدرة","lat":13.229007,"lon":43.797678,"elevationM":null},{"id":"node:1226363104","kind":"peak","name":"جبل القشع","lat":13.223972,"lon":43.772479,"elevationM":null},{"id":"node:1226363256","kind":"peak","name":"جبل راسن","lat":13.12,"lon":43.989167,"elevationM":null},{"id":"node:1226363263","kind":"peak","name":"جبل القهر","lat":13.0830473,"lon":43.8003399,"elevationM":null},{"id":"node:1226363264","kind":"peak","name":"جبل الفنقور","lat":13.0500091,"lon":43.8166391,"elevationM":null},{"id":"node:1226363266","kind":"peak","name":"جبل المفجور","lat":13.051669,"lon":43.633451,"elevationM":null},{"id":"node:1226363268","kind":"peak","name":"جبل حواب","lat":13.083333,"lon":43.816667,"elevationM":null},{"id":"node:1226363272","kind":"peak","name":"جبل المحراب","lat":13.197127,"lon":43.725006,"elevationM":null},{"id":"node:1226363308","kind":"peak","name":"جبل الإبدار","lat":13.062222,"lon":43.968889,"elevationM":null},{"id":"node:1226363311","kind":"peak","name":"جبل النجج","lat":13.101705,"lon":43.79593,"elevationM":null},{"id":"node:1226363316","kind":"peak","name":"قاعدة البطل","lat":13.103194,"lon":43.916511,"elevationM":null},{"id":"node:1226363324","kind":"peak","name":"جبل الكارة","lat":13.069555,"lon":43.696652,"elevationM":null},{"id":"node:1226363344","kind":"peak","name":"جبل الكري","lat":13.0697319,"lon":43.6966427,"elevationM":null},{"id":"node:1226363346","kind":"peak","name":"جبل الكارة","lat":13.0694008,"lon":43.6966427,"elevationM":null},{"id":"node:1226363347","kind":"peak","name":"جبل سيف","lat":13.083333,"lon":43.783333,"elevationM":null},{"id":"node:1226363388","kind":"peak","name":"جبل الكمرة","lat":13.000966,"lon":43.602855,"elevationM":null},{"id":"node:1226365750","kind":"peak","name":"جبل حمير","lat":13.452472,"lon":43.810174,"elevationM":null},{"id":"node:1226365776","kind":"peak","name":"جبل عزان","lat":13.481111,"lon":43.841944,"elevationM":null},{"id":"node:1226365779","kind":"peak","name":"جبل الشيخ سعيد","lat":13.434722,"lon":43.803056,"elevationM":null},{"id":"node:1226366035","kind":"peak","name":"جبل مقيّنة","lat":13.566667,"lon":43.616667,"elevationM":null},{"id":"node:1226367261","kind":"peak","name":"جبل البعادن","lat":13.901502,"lon":43.828273,"elevationM":null},{"id":"node:1226367613","kind":"peak","name":"جبل بني زهير","lat":13.916704,"lon":43.974737,"elevationM":null}]}