{"tileKey":"la_p61_lo_m72","version":"v1-1775891056926","entries":[{"id":"node:11345758546","kind":"peak","name":"Colline Itivia","lat":61.5628342,"lon":-71.6516457,"elevationM":null},{"id":"node:11345785496","kind":"peak","name":"Montagne Qarqaaluk","lat":61.609237,"lon":-71.9301952,"elevationM":null},{"id":"node:11345785583","kind":"peak","name":"Mont Isullualuk","lat":61.550997,"lon":-71.7747565,"elevationM":null},{"id":"node:11345785739","kind":"peak","name":"Mont Sarriuq","lat":61.2638889,"lon":-71.7391667,"elevationM":null},{"id":"node:11345785768","kind":"peak","name":"Colline Kinngalik","lat":61.4702778,"lon":-71.7163889,"elevationM":null},{"id":"node:11345785796","kind":"peak","name":"Mont Qaarniaq","lat":61.6437901,"lon":-71.9204267,"elevationM":null},{"id":"node:11345785898","kind":"peak","name":"Colline Qarqakallak","lat":61.5422222,"lon":-71.6266667,"elevationM":null},{"id":"node:11345785916","kind":"peak","name":"Colline Qingannguaq","lat":61.4088889,"lon":-71.5886111,"elevationM":null},{"id":"node:11345786111","kind":"peak","name":"Mont Bennett","lat":61.581137,"lon":-71.5997318,"elevationM":null},{"id":"node:11345786145","kind":"peak","name":"Colline Umiannguaq","lat":61.6020517,"lon":-71.9486675,"elevationM":null},{"id":"node:11345786169","kind":"peak","name":"Colline Akunnialuk","lat":61.552061,"lon":-71.7013505,"elevationM":null}]}