{"tileKey":"la_p37_lo_m81","version":"v1-1775891056926","entries":[{"id":"node:356514933","kind":"peak","name":"Smith Knob","lat":37.8734559,"lon":-80.1628438,"elevationM":1038},{"id":"node:356515149","kind":"peak","name":"Backus Mountain","lat":37.8476161,"lon":-80.967316,"elevationM":861},{"id":"node:356515337","kind":"peak","name":"Beelick Knob","lat":37.8648391,"lon":-80.8773133,"elevationM":991},{"id":"node:356515372","kind":"peak","name":"Bennett Mountain","lat":37.8259526,"lon":-80.6911949,"elevationM":892},{"id":"node:356515373","kind":"peak","name":"Bent Mountain","lat":37.447064,"lon":-80.97592,"elevationM":940},{"id":"node:356515482","kind":"peak","name":"Bickett Knob","lat":37.6309557,"lon":-80.5653501,"elevationM":1014},{"id":"node:356515488","kind":"peak","name":"Big Bend Mountain","lat":37.6620646,"lon":-80.7836938,"elevationM":791},{"id":"node:356515584","kind":"peak","name":"Bluestone Mountain","lat":37.6028968,"lon":-80.9612,"elevationM":756},{"id":"node:356515602","kind":"peak","name":"Boggs Hightop","lat":37.6979005,"lon":-80.3828469,"elevationM":921},{"id":"node:356515758","kind":"peak","name":"Buffalo Mountain","lat":37.9731744,"lon":-80.5567491,"elevationM":1204},{"id":"node:356515773","kind":"peak","name":"Bunker Hill","lat":37.5195654,"lon":-80.8195248,"elevationM":650},{"id":"node:356515792","kind":"peak","name":"Buster Knob","lat":37.960116,"lon":-80.8287026,"elevationM":997},{"id":"node:356516006","kind":"peak","name":"Cheney Knob","lat":37.8503947,"lon":-80.8937024,"elevationM":864},{"id":"node:356516288","kind":"peak","name":"Cross Mountain","lat":37.9726185,"lon":-80.590917,"elevationM":1271},{"id":"node:356516367","kind":"peak","name":"Davy Knob","lat":37.565675,"lon":-80.9492543,"elevationM":831},{"id":"node:356516390","kind":"peak","name":"Dempsey Mountain","lat":37.7056762,"lon":-80.683969,"elevationM":780},{"id":"node:356516874","kind":"peak","name":"Flat Top Mountain","lat":37.6801217,"lon":-80.5784083,"elevationM":975},{"id":"node:356516962","kind":"peak","name":"Fork Mountain","lat":37.9170613,"lon":-80.808701,"elevationM":1008},{"id":"node:356517143","kind":"peak","name":"Goddard Mountain","lat":37.9342842,"lon":-80.7475884,"elevationM":1003},{"id":"node:356517597","kind":"peak","name":"High Top","lat":37.5751217,"lon":-80.7070211,"elevationM":785},{"id":"node:356517611","kind":"peak","name":"Highland Mountain","lat":37.8809485,"lon":-80.9942619,"elevationM":849},{"id":"node:356517667","kind":"peak","name":"Hokes Mountain","lat":37.6506788,"lon":-80.4211788,"elevationM":842},{"id":"node:356517742","kind":"peak","name":"Huggins Knob","lat":37.9659522,"lon":-80.5578601,"elevationM":1204},{"id":"node:356517749","kind":"peak","name":"Hump Mountain","lat":37.8131733,"lon":-80.8778678,"elevationM":989},{"id":"node:356517796","kind":"peak","name":"Irish Mountain","lat":37.7595622,"lon":-80.9603697,"elevationM":940},{"id":"node:356517918","kind":"peak","name":"Jones Mountain","lat":37.6904005,"lon":-80.396458,"elevationM":918},{"id":"node:356517950","kind":"peak","name":"Keeney Knob","lat":37.7734531,"lon":-80.7053608,"elevationM":1195},{"id":"node:356518130","kind":"peak","name":"Leef Knob","lat":37.8315079,"lon":-80.7231405,"elevationM":827},{"id":"node:356518274","kind":"peak","name":"Little Sewell Mountain","lat":37.9520619,"lon":-80.7186989,"elevationM":1051},{"id":"node:356518501","kind":"peak","name":"Mann Mountain","lat":37.9092816,"lon":-80.9773174,"elevationM":955},{"id":"node:356519411","kind":"peak","name":"Myles Knob","lat":37.9748383,"lon":-80.8073134,"elevationM":1054},{"id":"node:356519803","kind":"peak","name":"Patricks Peak","lat":37.6312328,"lon":-80.6492426,"elevationM":813},{"id":"node:356520331","kind":"peak","name":"Plumley Knob","lat":37.8145611,"lon":-80.9737045,"elevationM":938},{"id":"node:356520333","kind":"peak","name":"Plumley Mountain","lat":37.7720617,"lon":-80.9848153,"elevationM":899},{"id":"node:356520599","kind":"peak","name":"Red Spring Mountain","lat":37.779564,"lon":-80.7161946,"elevationM":1169},{"id":"node:356521272","kind":"peak","name":"Sand Knob","lat":37.6192856,"lon":-80.9589781,"elevationM":749},{"id":"node:356521554","kind":"peak","name":"Sims Mountain","lat":37.9387281,"lon":-80.7795339,"elevationM":999},{"id":"node:356521706","kind":"peak","name":"Smith Mountain","lat":37.8056727,"lon":-80.9506479,"elevationM":907},{"id":"node:356521913","kind":"peak","name":"Stevens Knob","lat":37.9492831,"lon":-80.8112018,"elevationM":986},{"id":"node:356521942","kind":"peak","name":"Stonelick Knob","lat":37.6945638,"lon":-80.8420304,"elevationM":1006},{"id":"node:356522004","kind":"peak","name":"Sullivan Knob","lat":37.7692847,"lon":-80.9164794,"elevationM":786},{"id":"node:356522081","kind":"peak","name":"Tallery Mountain","lat":37.565675,"lon":-80.9492543,"elevationM":831},{"id":"node:356522129","kind":"peak","name":"The Swell","lat":37.8156753,"lon":-80.6531377,"elevationM":793},{"id":"node:356522501","kind":"peak","name":"Wallowhole Mountain","lat":37.8623399,"lon":-80.8042552,"elevationM":998},{"id":"node:356522527","kind":"peak","name":"Walnut Knob","lat":37.5312341,"lon":-80.6170151,"elevationM":777},{"id":"node:356522529","kind":"peak","name":"Walnut Knob","lat":37.9045598,"lon":-80.9442607,"elevationM":1049},{"id":"node:356522600","kind":"peak","name":"Weaver Knob","lat":37.8617874,"lon":-80.4497984,"elevationM":873},{"id":"node:356522895","kind":"peak","name":"Wolf Creek Mountain","lat":37.6512325,"lon":-80.653688,"elevationM":805},{"id":"node:356522897","kind":"peak","name":"Wolf Creek Mountain","lat":37.566787,"lon":-80.8525832,"elevationM":871},{"id":"node:356523173","kind":"peak","name":"Batlick Mountain","lat":37.7902074,"lon":-80.2043503,"elevationM":925},{"id":"node:356523457","kind":"peak","name":"Coles Mountain","lat":37.9051215,"lon":-80.2378477,"elevationM":936},{"id":"node:356523615","kind":"peak","name":"Fork Mountain","lat":37.4629029,"lon":-80.4933949,"elevationM":1190},{"id":"node:356523699","kind":"peak","name":"Greenbrier Mountain","lat":37.8173437,"lon":-80.3264604,"elevationM":1012},{"id":"node:356523778","kind":"peak","name":"Hickory Knob","lat":37.8195708,"lon":-80.2054089,"elevationM":1008},{"id":"node:356523780","kind":"peak","name":"High Head Mountain","lat":37.5979026,"lon":-80.3200611,"elevationM":1022},{"id":"node:356523820","kind":"peak","name":"Hopkins Mountain","lat":37.9459543,"lon":-80.2528489,"elevationM":1002},{"id":"node:356523848","kind":"peak","name":"Jesses Knob","lat":37.302064,"lon":-80.9800843,"elevationM":1164},{"id":"node:356523923","kind":"peak","name":"Little Allegheny Mountain","lat":37.9151227,"lon":-80.1336762,"elevationM":1016},{"id":"node:356523937","kind":"peak","name":"Little Mountain","lat":37.4401255,"lon":-80.4847826,"elevationM":1127},{"id":"node:356524064","kind":"peak","name":"Moss Mountain","lat":37.6281801,"lon":-80.2828394,"elevationM":943},{"id":"node:356524248","kind":"peak","name":"O'Neill Knob","lat":37.777622,"lon":-80.2609023,"elevationM":959},{"id":"node:356524359","kind":"peak","name":"Roaring Mountain","lat":37.7270668,"lon":-80.3203467,"elevationM":946},{"id":"node:356524563","kind":"peak","name":"Wicks Knob","lat":37.8615102,"lon":-80.3011826,"elevationM":970},{"id":"node:356524631","kind":"peak","name":"Bald Knob","lat":37.7428975,"lon":-80.7675844,"elevationM":1047},{"id":"node:356524640","kind":"peak","name":"Ballengee Knob","lat":37.7492864,"lon":-80.7611955,"elevationM":1095},{"id":"node:356524699","kind":"peak","name":"Boggs Knob","lat":37.9195616,"lon":-80.7800891,"elevationM":1102},{"id":"node:356524719","kind":"peak","name":"Brushy Mountain","lat":37.6934562,"lon":-80.3475677,"elevationM":974},{"id":"node:356524723","kind":"peak","name":"Brushy Mountain","lat":37.8084552,"lon":-80.2461801,"elevationM":966},{"id":"node:356524733","kind":"peak","name":"Buffalo Knob","lat":37.7834518,"lon":-80.8406436,"elevationM":920},{"id":"node:356524738","kind":"peak","name":"Butler Mountain","lat":37.977342,"lon":-80.4225777,"elevationM":840},{"id":"node:356524751","kind":"peak","name":"Carroll Hill","lat":37.9134536,"lon":-80.4328545,"elevationM":740},{"id":"node:356524753","kind":"peak","name":"Cashs Hill","lat":37.4503983,"lon":-80.8903602,"elevationM":661},{"id":"node:356524760","kind":"peak","name":"Chestnut Knob","lat":37.9517902,"lon":-80.0570063,"elevationM":978},{"id":"node:356524762","kind":"peak","name":"Chestnut Mountain","lat":37.7484519,"lon":-80.8806443,"elevationM":906},{"id":"node:356524767","kind":"peak","name":"Clark Knob","lat":37.5106761,"lon":-80.8759163,"elevationM":738},{"id":"node:356524795","kind":"peak","name":"Cove Mountain","lat":37.6220683,"lon":-80.3778425,"elevationM":1038},{"id":"node:356524802","kind":"peak","name":"Daugherty Mountain","lat":37.6476236,"lon":-80.3725659,"elevationM":954},{"id":"node:356524819","kind":"peak","name":"Dougher Knob","lat":37.8692857,"lon":-80.6603615,"elevationM":878},{"id":"node:356524833","kind":"peak","name":"Elk Knob","lat":37.6220683,"lon":-80.3778425,"elevationM":1038},{"id":"node:356524834","kind":"peak","name":"Elk Knob","lat":37.7245641,"lon":-80.7817511,"elevationM":1078},{"id":"node:356524852","kind":"peak","name":"Fisher Mountain","lat":37.8162298,"lon":-80.777031,"elevationM":968},{"id":"node:356524864","kind":"peak","name":"Fletcher Knob","lat":37.6896667,"lon":-80.3070485,"elevationM":961},{"id":"node:356524867","kind":"peak","name":"Ford Knob","lat":37.9187273,"lon":-80.8600916,"elevationM":1026},{"id":"node:356524883","kind":"peak","name":"Freezeland Mountain","lat":37.714285,"lon":-80.9537019,"elevationM":1040},{"id":"node:356524896","kind":"peak","name":"Goddard Knob","lat":37.858172,"lon":-80.9267592,"elevationM":974},{"id":"node:356524906","kind":"peak","name":"Greenwood Mountain","lat":37.8895596,"lon":-80.983984,"elevationM":875},{"id":"node:356524908","kind":"peak","name":"Gwinn Mountain","lat":37.8273401,"lon":-80.8334221,"elevationM":899},{"id":"node:356524960","kind":"peak","name":"Hominy Hill","lat":37.7895658,"lon":-80.423685,"elevationM":686},{"id":"node:356524972","kind":"peak","name":"Irish Mountain","lat":37.8592847,"lon":-80.7873101,"elevationM":1010},{"id":"node:356524997","kind":"peak","name":"Kates Mountain","lat":37.7640109,"lon":-80.3014589,"elevationM":1015},{"id":"node:356525010","kind":"peak","name":"Kibble Hill","lat":37.5453994,"lon":-80.7367438,"elevationM":608},{"id":"node:356525091","kind":"peak","name":"Meadow Mountain","lat":37.9028971,"lon":-80.5859151,"elevationM":826},{"id":"node:356525112","kind":"peak","name":"Moteshard Mountain","lat":37.4848225,"lon":-80.3668448,"elevationM":1136},{"id":"node:356525130","kind":"peak","name":"Nichols Knob","lat":37.890952,"lon":-80.66814,"elevationM":844},{"id":"node:356525160","kind":"peak","name":"Patterson Mountain","lat":37.865673,"lon":-80.8331451,"elevationM":954},{"id":"node:356525194","kind":"peak","name":"Pipestem Knob","lat":37.5145639,"lon":-80.9728656,"elevationM":904},{"id":"node:356525240","kind":"peak","name":"Rose Knob","lat":37.9770634,"lon":-80.5323039,"elevationM":1071},{"id":"node:356525245","kind":"peak","name":"Round Mountain","lat":37.9137323,"lon":-80.2656266,"elevationM":874},{"id":"node:356525253","kind":"peak","name":"Sassafras Knob","lat":37.7528975,"lon":-80.7484173,"elevationM":1116},{"id":"node:356525260","kind":"peak","name":"Sewell Mountain","lat":37.9351162,"lon":-80.8409247,"elevationM":979},{"id":"node:356525318","kind":"peak","name":"Sunset Hill","lat":37.6753968,"lon":-80.9075882,"elevationM":538},{"id":"node:356525328","kind":"peak","name":"Swell Mountain","lat":37.7026187,"lon":-80.912589,"elevationM":1004},{"id":"node:356525367","kind":"peak","name":"Turniphole Mountain","lat":37.8795624,"lon":-80.7595319,"elevationM":999},{"id":"node:356525381","kind":"peak","name":"Wagner Hill","lat":37.7956769,"lon":-80.4267407,"elevationM":698},{"id":"node:356525397","kind":"peak","name":"White Oak Mountain","lat":37.6915069,"lon":-80.9970365,"elevationM":977},{"id":"node:356525408","kind":"peak","name":"Wind Creek Mountain","lat":37.6359544,"lon":-80.7123011,"elevationM":737},{"id":"node:356525414","kind":"peak","name":"Wolf Hills","lat":37.6198467,"lon":-80.307562,"elevationM":915},{"id":"node:356526240","kind":"peak","name":"Negro Mountain","lat":37.644013,"lon":-80.2903407,"elevationM":864},{"id":"node:356526300","kind":"peak","name":"White Tree Hill","lat":37.4881772,"lon":-80.7775776,"elevationM":649},{"id":"node:356526566","kind":"peak","name":"Sewell Mountain","lat":37.7706745,"lon":-80.8181425,"elevationM":979},{"id":"node:356527577","kind":"peak","name":"Rich Mountain","lat":37.6859562,"lon":-80.3742347,"elevationM":989},{"id":"node:356539308","kind":"peak","name":"Calders Peak","lat":37.615,"lon":-80.5797222,"elevationM":981},{"id":"node:356560570","kind":"peak","name":"Cahas Mountain","lat":37.1173599,"lon":-80.0155925,"elevationM":1083},{"id":"node:356560573","kind":"peak","name":"Calfee Knob","lat":37.0326284,"lon":-80.4856086,"elevationM":858},{"id":"node:356561207","kind":"peak","name":"Den Hill","lat":37.1465201,"lon":-80.3197684,"elevationM":685},{"id":"node:356561648","kind":"peak","name":"Fishers View Mountain","lat":37.0904098,"lon":-80.2956007,"elevationM":816},{"id":"node:356562330","kind":"peak","name":"Hightop Mountain","lat":37.2051306,"lon":-80.3350469,"elevationM":796},{"id":"node:356562962","kind":"peak","name":"Little Brushy Mountain","lat":37.3065227,"lon":-80.0886526,"elevationM":585},{"id":"node:356563219","kind":"peak","name":"Masons Knob","lat":37.1745814,"lon":-80.0317045,"elevationM":961},{"id":"node:356563363","kind":"peak","name":"Mill Knob","lat":37.1984645,"lon":-80.3061567,"elevationM":627},{"id":"node:356564434","kind":"peak","name":"Peak Knob","lat":37.0246389,"lon":-80.7461737,"elevationM":1021},{"id":"node:356564532","kind":"peak","name":"Pilot Mountain","lat":37.0695752,"lon":-80.3578256,"elevationM":894},{"id":"node:356564720","kind":"peak","name":"Poorhouse Knob","lat":37.1084627,"lon":-80.4169947,"elevationM":721},{"id":"node:356570203","kind":"peak","name":"Angels Rest","lat":37.316233,"lon":-80.7617391,"elevationM":1105},{"id":"node:356570215","kind":"peak","name":"Aps Knob","lat":37.4873509,"lon":-80.135604,"elevationM":880},{"id":"node:356570224","kind":"peak","name":"Arnolds Knob","lat":37.4920708,"lon":-80.3439449,"elevationM":1186},{"id":"node:356570288","kind":"peak","name":"Bald Knob","lat":37.3501256,"lon":-80.5372822,"elevationM":1327},{"id":"node:356570296","kind":"peak","name":"Bald Mountain","lat":37.6151273,"lon":-80.0364408,"elevationM":1074},{"id":"node:356570333","kind":"peak","name":"Barringer Mountain","lat":37.1381839,"lon":-80.4689415,"elevationM":712},{"id":"node:356570684","kind":"peak","name":"Broad Run Mountain","lat":37.5170106,"lon":-80.0016904,"elevationM":884},{"id":"node:356570711","kind":"peak","name":"Bruisers Knob","lat":37.3531342,"lon":-80.3442273,"elevationM":1045},{"id":"node:356570723","kind":"peak","name":"Brushy Mountain","lat":37.4337372,"lon":-80.4386692,"elevationM":869},{"id":"node:356570735","kind":"peak","name":"Brushy Top","lat":37.3914364,"lon":-80.6004989,"elevationM":1236},{"id":"node:356570773","kind":"peak","name":"Buckeye Mountain","lat":37.256791,"lon":-80.6397855,"elevationM":879},{"id":"node:356571041","kind":"peak","name":"Chimney Rock","lat":37.4325412,"lon":-80.2146015,"elevationM":1108},{"id":"node:356571107","kind":"peak","name":"Clover Hollow Mountain","lat":37.3398493,"lon":-80.4478329,"elevationM":962},{"id":"node:356571111","kind":"peak","name":"Cloyds Mountain","lat":37.1934564,"lon":-80.690344,"elevationM":825},{"id":"node:356571221","kind":"peak","name":"Cove Mountain","lat":37.042897,"lon":-80.9461918,"elevationM":1002},{"id":"node:356571461","kind":"peak","name":"Dusenberry Knob","lat":37.0303981,"lon":-80.7806268,"elevationM":787},{"id":"node:356571727","kind":"peak","name":"Fork Mountain","lat":37.6476269,"lon":-80.0203308,"elevationM":1039},{"id":"node:356571806","kind":"peak","name":"Gap Mountain","lat":37.2771753,"lon":-80.4973412,"elevationM":902},{"id":"node:356571992","kind":"peak","name":"Grays Knob","lat":37.526518,"lon":-80.0289361,"elevationM":560},{"id":"node:356572202","kind":"peak","name":"Hayes Knob","lat":37.4179028,"lon":-80.5386735,"elevationM":1032},{"id":"node:356572267","kind":"peak","name":"High Knob","lat":37.2020741,"lon":-80.3828268,"elevationM":726},{"id":"node:356572282","kind":"peak","name":"High Rock","lat":37.1086581,"lon":-80.9703045,"elevationM":1153},{"id":"node:356572633","kind":"peak","name":"Jenny Knob","lat":37.1581234,"lon":-80.9745786,"elevationM":915},{"id":"node:356572660","kind":"peak","name":"Johns Creek Mountain","lat":37.3401257,"lon":-80.5328372,"elevationM":1121},{"id":"node:356572707","kind":"peak","name":"Kelly Knob","lat":37.3559603,"lon":-80.4406109,"elevationM":1141},{"id":"node:356572944","kind":"peak","name":"Little Mountain","lat":37.5412391,"lon":-80.1003279,"elevationM":733},{"id":"node:356572946","kind":"peak","name":"Little Mountain","lat":37.5976279,"lon":-80.0183837,"elevationM":712},{"id":"node:356573008","kind":"peak","name":"Lone Pine Peak","lat":37.4081813,"lon":-80.4945041,"elevationM":1232},{"id":"node:356573059","kind":"peak","name":"Lukes Mountain","lat":37.7945694,"lon":-80.0067246,"elevationM":490},{"id":"node:356573174","kind":"peak","name":"McAfee Knob","lat":37.392673,"lon":-80.0368156,"elevationM":974},{"id":"node:356573264","kind":"peak","name":"Middle Mountain","lat":37.5753469,"lon":-80.2195564,"elevationM":961},{"id":"node:356573320","kind":"peak","name":"Minie Ball Hill","lat":37.4076254,"lon":-80.5150607,"elevationM":1197},{"id":"node:356573786","kind":"peak","name":"Nutters Mountain","lat":37.5309613,"lon":-80.1261615,"elevationM":854},{"id":"node:356573858","kind":"peak","name":"Oliver Mountain","lat":37.9048583,"lon":-80.0443046,"elevationM":1088},{"id":"node:356573918","kind":"peak","name":"Paris Mountain","lat":37.2348526,"lon":-80.3358802,"elevationM":913},{"id":"node:356573960","kind":"peak","name":"Pearis Mountain","lat":37.3084553,"lon":-80.76035,"elevationM":1148},{"id":"node:356573998","kind":"peak","name":"Peters Hill","lat":37.5031838,"lon":-80.1558829,"elevationM":614},{"id":"node:356574068","kind":"peak","name":"Piney Mountain","lat":37.0634527,"lon":-80.9300799,"elevationM":878},{"id":"node:356574153","kind":"peak","name":"Potts Arm","lat":37.5737379,"lon":-80.1553316,"elevationM":1000},{"id":"node:356574159","kind":"peak","name":"Powell Mountain","lat":37.4006768,"lon":-80.8261891,"elevationM":726},{"id":"node:356574289","kind":"peak","name":"Rich Hill","lat":37.2737348,"lon":-80.6647876,"elevationM":694},{"id":"node:356574392","kind":"peak","name":"Rocky Knob","lat":37.580405,"lon":-80.1122749,"elevationM":570},{"id":"node:356574620","kind":"peak","name":"Sentinel Point","lat":37.3094851,"lon":-80.8057768,"elevationM":1050},{"id":"node:356574789","kind":"peak","name":"Sinking Creek Mountain","lat":37.4369087,"lon":-80.2012842,"elevationM":1117},{"id":"node:356574810","kind":"peak","name":"Slaty Mountain","lat":37.6617906,"lon":-80.267841,"elevationM":901},{"id":"node:356574893","kind":"peak","name":"Spesard Knob","lat":37.454862,"lon":-80.0932558,"elevationM":620},{"id":"node:356574909","kind":"peak","name":"Spring Knob","lat":37.2828976,"lon":-80.961194,"elevationM":1012},{"id":"node:356575086","kind":"peak","name":"Sugar Run Mountain","lat":37.2475249,"lon":-80.8548072,"elevationM":1238},{"id":"node:356575266","kind":"peak","name":"Toms Knob","lat":37.6109596,"lon":-80.1386665,"elevationM":1031},{"id":"node:356575604","kind":"peak","name":"White Rock Mountain","lat":37.4070683,"lon":-80.6150664,"elevationM":1013},{"id":"node:356575814","kind":"peak","name":"Julian Knob","lat":37.3290159,"lon":-80.4647777,"elevationM":960},{"id":"node:356581701","kind":"peak","name":"Bear Wallow","lat":37.6959578,"lon":-80.1514497,"elevationM":921},{"id":"node:356581707","kind":"peak","name":"Bent Mountain","lat":37.1481912,"lon":-80.1053173,"elevationM":975},{"id":"node:356581715","kind":"peak","name":"Big Knob","lat":37.4967936,"lon":-80.2878315,"elevationM":750},{"id":"node:356581768","kind":"peak","name":"Bull Run Knob","lat":37.1481912,"lon":-80.1050395,"elevationM":972},{"id":"node:356581788","kind":"peak","name":"Catawba Mountain","lat":37.3889047,"lon":-80.060302,"elevationM":678},{"id":"node:356581829","kind":"peak","name":"Draper Mountain","lat":37.024565,"lon":-80.7461804,"elevationM":1021},{"id":"node:356581847","kind":"peak","name":"Frozen Knob","lat":37.6604025,"lon":-80.194227,"elevationM":976},{"id":"node:356581873","kind":"peak","name":"Gravel Hill","lat":37.3881835,"lon":-80.3542193,"elevationM":757},{"id":"node:356581875","kind":"peak","name":"Graveyard Knob","lat":37.0051388,"lon":-80.0100357,"elevationM":551},{"id":"node:356581922","kind":"peak","name":"Jingling Rocks","lat":37.7300415,"lon":-80.1322841,"elevationM":1021},{"id":"node:356581964","kind":"peak","name":"Lost Mountain","lat":37.2034682,"lon":-80.1194846,"elevationM":660},{"id":"node:356582033","kind":"peak","name":"Price Mountain","lat":37.1870726,"lon":-80.4614413,"elevationM":756},{"id":"node:356582064","kind":"peak","name":"Sevenmile Mountain","lat":37.4616311,"lon":-80.3374641,"elevationM":846},{"id":"node:356582074","kind":"peak","name":"Lick Mountain","lat":37.498185,"lon":-80.0489352,"elevationM":628},{"id":"node:356582084","kind":"peak","name":"North Mountain","lat":37.419322,"lon":-80.0797006,"elevationM":925},{"id":"node:356582133","kind":"peak","name":"Sugarloaf Mountain","lat":37.2376363,"lon":-80.0411498,"elevationM":527},{"id":"node:356582163","kind":"peak","name":"Twelve O'clock Knob","lat":37.2484987,"lon":-80.0843899,"elevationM":792},{"id":"node:356582169","kind":"peak","name":"Well Hill","lat":37.37985,"lon":-80.3692197,"elevationM":770},{"id":"node:356582542","kind":"peak","name":"Butt Mountain","lat":37.3695684,"lon":-80.6220101,"elevationM":1282},{"id":"node:356582546","kind":"peak","name":"Doe Mountain","lat":37.355125,"lon":-80.5692287,"elevationM":1211},{"id":"node:356582572","kind":"peak","name":"Poor Mountain","lat":37.1976343,"lon":-80.1522631,"elevationM":1141},{"id":"node:356582618","kind":"peak","name":"Spruce Run Mountain","lat":37.2865148,"lon":-80.550892,"elevationM":959},{"id":"node:356583003","kind":"peak","name":"Lookoff Rock","lat":37.3662352,"lon":-80.619232,"elevationM":1256},{"id":"node:356583283","kind":"peak","name":"Bear Knob","lat":37.3159653,"lon":-80.1797661,"elevationM":677},{"id":"node:356583302","kind":"peak","name":"Brush Mountain","lat":37.3616302,"lon":-80.2309227,"elevationM":943},{"id":"node:356583410","kind":"peak","name":"Cove Mountain","lat":37.3620602,"lon":-80.1730846,"elevationM":922},{"id":"node:356583422","kind":"peak","name":"Texas Knob","lat":37.3084654,"lon":-80.183377,"elevationM":800},{"id":"node:356583433","kind":"peak","name":"Acre of Rocks","lat":37.2767979,"lon":-80.268656,"elevationM":694},{"id":"node:356583495","kind":"peak","name":"Brushy Mountain","lat":37.8106785,"lon":-80.1711767,"elevationM":960},{"id":"node:356583540","kind":"peak","name":"Dee Cee Hill","lat":37.1676311,"lon":-80.3192128,"elevationM":606},{"id":"node:356583548","kind":"peak","name":"Double Mountain","lat":37.1845496,"lon":-80.8865136,"elevationM":877},{"id":"node:356583550","kind":"peak","name":"Double Ridge Knob","lat":37.320262,"lon":-80.3104891,"elevationM":940},{"id":"node:356583558","kind":"peak","name":"Earn Knob","lat":37.4417395,"lon":-80.1816183,"elevationM":1097},{"id":"node:356583578","kind":"peak","name":"Foster Knob","lat":37.4031788,"lon":-80.6631246,"elevationM":866},{"id":"node:356583606","kind":"peak","name":"Half Acre of Rocks","lat":37.2673532,"lon":-80.2847675,"elevationM":679},{"id":"node:356583612","kind":"peak","name":"Harles Hill","lat":37.3679061,"lon":-80.3500518,"elevationM":750},{"id":"node:356583626","kind":"peak","name":"Hickory Hill","lat":37.7017916,"lon":-80.1056148,"elevationM":625},{"id":"node:356583640","kind":"peak","name":"Huckleberry Knob","lat":37.3734624,"lon":-80.2908827,"elevationM":735},{"id":"node:356583673","kind":"peak","name":"Little Mountain","lat":37.6315152,"lon":-80.1017218,"elevationM":948},{"id":"node:356583681","kind":"peak","name":"Locust Knob","lat":37.4373466,"lon":-80.5695092,"elevationM":1046},{"id":"node:356583707","kind":"peak","name":"Middle Piece Mountain","lat":37.1845765,"lon":-80.2667105,"elevationM":606},{"id":"node:356583719","kind":"peak","name":"Morning Knob","lat":37.7142913,"lon":-80.1128381,"elevationM":1035},{"id":"node:356583739","kind":"peak","name":"Nicholls Knob","lat":37.6640155,"lon":-80.0239429,"elevationM":1084},{"id":"node:356583805","kind":"peak","name":"Rocky Mountain","lat":37.425125,"lon":-80.5297844,"elevationM":1020},{"id":"node:356583814","kind":"peak","name":"Round Mountain","lat":37.0520639,"lon":-80.9125788,"elevationM":891},{"id":"node:356583961","kind":"peak","name":"Wind Rock","lat":37.4141412,"lon":-80.5191958,"elevationM":1246},{"id":"node:356583968","kind":"peak","name":"Lugar Hill","lat":37.3715167,"lon":-80.3794976,"elevationM":736},{"id":"node:356583974","kind":"peak","name":"Epperly Knob","lat":37.0112436,"lon":-80.2906006,"elevationM":831},{"id":"node:356584377","kind":"peak","name":"Cabes Hill","lat":37.1062434,"lon":-80.2783778,"elevationM":623},{"id":"node:356584385","kind":"peak","name":"Coles Knob","lat":37.0231884,"lon":-80.2758778,"elevationM":879},{"id":"node:356584389","kind":"peak","name":"Craig Mountain","lat":37.0837425,"lon":-80.3278244,"elevationM":769},{"id":"node:356584405","kind":"peak","name":"Guinea Mountain","lat":37.290679,"lon":-80.681178,"elevationM":695},{"id":"node:356584413","kind":"peak","name":"Huffmans Knob","lat":37.5181846,"lon":-80.0439361,"elevationM":523},{"id":"node:356584415","kind":"peak","name":"Keister Hill","lat":37.3081825,"lon":-80.4850556,"elevationM":753},{"id":"node:356584419","kind":"peak","name":"Kingery Hill","lat":37.0445768,"lon":-80.290045,"elevationM":844},{"id":"node:356584451","kind":"peak","name":"Ragged Mountain","lat":37.2878977,"lon":-80.9528604,"elevationM":964},{"id":"node:356584468","kind":"peak","name":"Wylie Mountain","lat":37.3970657,"lon":-80.811466,"elevationM":676},{"id":"node:356584472","kind":"peak","name":"Smith Hill","lat":37.0340215,"lon":-80.2817113,"elevationM":874},{"id":"node:356584492","kind":"peak","name":"Turnhole Knob","lat":37.3542884,"lon":-80.7772965,"elevationM":694},{"id":"node:356584498","kind":"peak","name":"Wolf Knob","lat":37.3540163,"lon":-80.4172765,"elevationM":784},{"id":"node:356586744","kind":"peak","name":"Hanging Rock","lat":37.5630476,"lon":-80.1996052,"elevationM":1102},{"id":"node:356586774","kind":"peak","name":"Ingles Mountain","lat":37.1051261,"lon":-80.5620022,"elevationM":700},{"id":"node:356586793","kind":"peak","name":"Kire Mountain","lat":37.4362364,"lon":-80.4978386,"elevationM":1034},{"id":"node:356586807","kind":"peak","name":"Little Mountain","lat":37.0306758,"lon":-80.7956276,"elevationM":775},{"id":"node:356586946","kind":"peak","name":"Rose Hill","lat":37.1056853,"lon":-80.4056054,"elevationM":751},{"id":"node:356586962","kind":"peak","name":"Salt Pond Mountain","lat":37.408459,"lon":-80.4945041,"elevationM":1231},{"id":"node:356586983","kind":"peak","name":"Flat Top Mountain","lat":37.2409541,"lon":-80.8692436,"elevationM":1179},{"id":"node:356586985","kind":"peak","name":"Fork Mountain","lat":37.4631807,"lon":-80.4933949,"elevationM":1192},{"id":"node:356590260","kind":"peak","name":"Buckhorn Knob","lat":37.2926377,"lon":-80.980145,"elevationM":1239},{"id":"node:356590411","kind":"peak","name":"Sweet Springs Mountain","lat":37.6995683,"lon":-80.1981184,"elevationM":957},{"id":"node:356591392","kind":"peak","name":"Pond Hill","lat":37.1273539,"lon":-80.3028233,"elevationM":631},{"id":"node:356593089","kind":"peak","name":"Hemppatch Mountain","lat":37.1706916,"lon":-80.0792056,"elevationM":935},{"id":"node:6742592588","kind":"peak","name":"Wrights Peak","lat":37.4769124,"lon":-80.5246494,"elevationM":1242},{"id":"node:8081826032","kind":"peak","name":"Hanging Rock","lat":37.5044779,"lon":-80.4530488,"elevationM":1153},{"id":"node:9275225961","kind":"peak","name":"Fort Lewis Mountain","lat":37.30891,"lon":-80.1600552,"elevationM":998},{"id":"node:9275305187","kind":"peak","name":"Sandstone Ridge","lat":37.3369164,"lon":-80.2015049,"elevationM":723},{"id":"node:10210261893","kind":"peak","name":"High Point","lat":37.2343379,"lon":-80.7966368,"elevationM":null},{"id":"node:11373908492","kind":"peak","name":"Pynes Mountain","lat":37.52868,"lon":-80.56353,"elevationM":null}]}