{"tileKey":"la_p55_lo_p41","version":"v1-1775891056926","entries":[{"id":"node:5762432539","kind":"peak","name":"Чертежная","lat":55.2353792,"lon":41.8243887,"elevationM":null},{"id":"node:10766350149","kind":"peak","name":"Полонова гора","lat":55.3385106,"lon":41.629612,"elevationM":null},{"id":"node:10766359162","kind":"peak","name":"Бушуева гора","lat":55.3365653,"lon":41.6367386,"elevationM":null},{"id":"node:10857611490","kind":"peak","name":"Забелина гора","lat":55.3370555,"lon":41.6390574,"elevationM":null},{"id":"node:10857611491","kind":"peak","name":"Щепетова гора","lat":55.3359052,"lon":41.6344234,"elevationM":null},{"id":"node:10857611492","kind":"peak","name":"Рощина гора","lat":55.3351705,"lon":41.6323459,"elevationM":null},{"id":"node:10857612305","kind":"peak","name":"Конюхова гора","lat":55.3410066,"lon":41.6307518,"elevationM":null},{"id":"node:11236915101","kind":"peak","name":"Синяя гора","lat":55.3354605,"lon":41.6457534,"elevationM":null},{"id":"node:11405596195","kind":"peak","name":"На Святом","lat":55.3437637,"lon":41.6123268,"elevationM":null}]}