{"tileKey":"la_p9_lo_p43","version":"v1-1775891056926","entries":[{"id":"node:1401884234","kind":"peak","name":"Buuraha Dhabiyo","lat":9.858293,"lon":43.530457,"elevationM":null},{"id":"node:1401884239","kind":"peak","name":"Buur Shallowdheere","lat":9.897702,"lon":43.441944,"elevationM":1601},{"id":"node:1401884365","kind":"peak","name":"Buuraha Adeeryaale","lat":9.829722,"lon":43.799722,"elevationM":null},{"id":"node:1401884633","kind":"peak","name":"Buuraha Carmo","lat":9.90287,"lon":43.313909,"elevationM":null},{"id":"node:1401885617","kind":"peak","name":"Buuraha Caano Dhowe","lat":9.858657,"lon":43.350428,"elevationM":null},{"id":"node:1401886880","kind":"peak","name":"Buuraha Barka Hager","lat":9.869748,"lon":43.798757,"elevationM":null},{"id":"node:1401887040","kind":"peak","name":"Buur Awordil","lat":9.91005,"lon":43.270843,"elevationM":1773},{"id":"node:1401888238","kind":"peak","name":"Buur Cagwiyille","lat":9.858203,"lon":43.399017,"elevationM":1590},{"id":"node:1401890430","kind":"peak","name":"Buur Cowsguduudle","lat":9.882597,"lon":43.251294,"elevationM":1715},{"id":"node:1401892443","kind":"peak","name":"Dhubbato","lat":9.733333,"lon":43.45,"elevationM":null},{"id":"node:1401893633","kind":"peak","name":"Buur Cabaaddheer","lat":9.921061,"lon":43.372702,"elevationM":1680},{"id":"node:1401894240","kind":"peak","name":"Buuraha Hog","lat":9.923159,"lon":43.739958,"elevationM":null},{"id":"node:1401894902","kind":"peak","name":"Baledid","lat":9.583333,"lon":43.666667,"elevationM":null},{"id":"node:1401897020","kind":"peak","name":"Buuraha Awordil","lat":9.906052,"lon":43.26123,"elevationM":null},{"id":"node:1401897403","kind":"peak","name":"Buur Abaarso","lat":9.564135,"lon":43.96602,"elevationM":1463},{"id":"node:1401897898","kind":"peak","name":"Buuraha Aloog","lat":9.975322,"lon":43.265288,"elevationM":null},{"id":"node:1401898602","kind":"peak","name":"Buur Raariile","lat":9.976677,"lon":43.2666,"elevationM":1834},{"id":"node:1401899490","kind":"peak","name":"Buur Geelwanaaje","lat":9.932929,"lon":43.401868,"elevationM":1563},{"id":"node:1401899776","kind":"peak","name":"Jifu Meider","lat":9.733333,"lon":43.283333,"elevationM":null},{"id":"node:1401900510","kind":"peak","name":"Buuraha Dhakabweyne","lat":9.920001,"lon":43.352852,"elevationM":null},{"id":"node:1401901091","kind":"peak","name":"Buuraha Dhibi Adad","lat":9.991276,"lon":43.29979,"elevationM":null},{"id":"node:1401902077","kind":"peak","name":"Buuraha Geel Wanaaje","lat":9.920816,"lon":43.433748,"elevationM":null},{"id":"node:1401903305","kind":"peak","name":"Buuraha Qalalow","lat":9.873003,"lon":43.718921,"elevationM":null}]}