{"tileKey":"la_p38_lo_m88","version":"v1-1775891056926","entries":[{"id":"node:354095876","kind":"peak","name":"Bristol Hill","lat":38.9819874,"lon":-87.5750233,"elevationM":164},{"id":"node:354115088","kind":"peak","name":"Indian Mound","lat":38.9803124,"lon":-87.6157427,"elevationM":161},{"id":"node:354140306","kind":"peak","name":"Shawn Hill","lat":38.9769875,"lon":-87.5555784,"elevationM":165},{"id":"node:354141563","kind":"peak","name":"Robeson Hills","lat":38.7067135,"lon":-87.5294657,"elevationM":153},{"id":"node:354217152","kind":"peak","name":"Red Hill","lat":38.7422731,"lon":-87.8355722,"elevationM":193},{"id":"node:358648534","kind":"peak","name":"Bald Hill","lat":38.3864351,"lon":-87.5641891,"elevationM":176},{"id":"node:358648594","kind":"peak","name":"Barefoot Nation Hills","lat":38.7736578,"lon":-87.365295,"elevationM":180},{"id":"node:358649399","kind":"peak","name":"Big Ditney Hill","lat":38.1328236,"lon":-87.3661219,"elevationM":193},{"id":"node:358649813","kind":"peak","name":"Brewer Hill","lat":38.912269,"lon":-87.0358418,"elevationM":180},{"id":"node:358650168","kind":"peak","name":"Bunker Hill","lat":38.6558803,"lon":-87.5352995,"elevationM":145},{"id":"node:358652985","kind":"peak","name":"Dyson Knob","lat":38.2144928,"lon":-87.284175,"elevationM":197},{"id":"node:358655625","kind":"peak","name":"Harbstreit Hill","lat":38.7556033,"lon":-87.1672342,"elevationM":168},{"id":"node:358657737","kind":"peak","name":"Kennedy Hill","lat":38.2942139,"lon":-87.3797363,"elevationM":189},{"id":"node:358658683","kind":"peak","name":"Little Ditney Hill","lat":38.106711,"lon":-87.4339021,"elevationM":149},{"id":"node:358658926","kind":"peak","name":"Lost Hill","lat":38.1825455,"lon":-87.4127916,"elevationM":132},{"id":"node:358659489","kind":"peak","name":"Maumee Hill","lat":38.8822695,"lon":-87.0041742,"elevationM":194},{"id":"node:358660319","kind":"peak","name":"Moore Hill","lat":38.2850473,"lon":-87.3691802,"elevationM":178},{"id":"node:358664709","kind":"peak","name":"Ringham Hill","lat":38.2153256,"lon":-87.3138987,"elevationM":186},{"id":"node:358666762","kind":"peak","name":"Sand Hill","lat":38.356157,"lon":-87.6558584,"elevationM":140},{"id":"node:358667069","kind":"peak","name":"Scudder Hill","lat":38.8247686,"lon":-87.2555702,"elevationM":175},{"id":"node:358667107","kind":"peak","name":"Sefert Hill","lat":38.6750486,"lon":-87.1466772,"elevationM":192},{"id":"node:358667624","kind":"peak","name":"Simpson Hill","lat":38.9953238,"lon":-87.0150082,"elevationM":175},{"id":"node:358669151","kind":"peak","name":"Toms Hill","lat":38.6669924,"lon":-87.2502916,"elevationM":145},{"id":"node:358669447","kind":"peak","name":"Turkey Hill","lat":38.3617156,"lon":-87.2897334,"elevationM":172},{"id":"node:358670645","kind":"peak","name":"Wilson Hill","lat":38.2739364,"lon":-87.3575128,"elevationM":190},{"id":"node:358670734","kind":"peak","name":"Wolf Hill","lat":38.7989349,"lon":-87.4844645,"elevationM":159}]}