{"tileKey":"la_p25_lo_p56","version":"v1-1775891056926","entries":[{"id":"node:226947417","kind":"peak","name":"Jabal Sal","lat":25.9325096,"lon":56.1692023,"elevationM":1575},{"id":"node:1330432119","kind":"peak","name":"Jebel Qihwi - جبل قهوي","lat":25.7432397,"lon":56.2101007,"elevationM":1735},{"id":"node:1718026691","kind":"peak","name":"Jabal Khabb","lat":25.7391943,"lon":56.2111112,"elevationM":1708},{"id":"node:1718026694","kind":"peak","name":"Jibal Asasimah جبال أساسمة","lat":25.7335063,"lon":56.2030446,"elevationM":1524},{"id":"node:1719433908","kind":"peak","name":"جبل ليماء","lat":25.9298807,"lon":56.3799462,"elevationM":null},{"id":"node:1719435859","kind":"peak","name":"جبل حفة","lat":25.7694132,"lon":56.3305012,"elevationM":355},{"id":"node:1719437468","kind":"peak","name":"Jabal Hagab - جبل حقب","lat":25.829011,"lon":56.230119,"elevationM":1470},{"id":"node:1719439435","kind":"peak","name":"جبل خنزور","lat":25.9480878,"lon":56.2089496,"elevationM":1560},{"id":"node:1719439461","kind":"peak","name":"Jabal al Ḩarīm - جبل الحريم","lat":25.9763281,"lon":56.2322425,"elevationM":2087},{"id":"node:1719439753","kind":"peak","name":"Jabal as Sayh","lat":25.9719895,"lon":56.1914373,"elevationM":1746},{"id":"node:4527969537","kind":"peak","name":"Jabal Qada'ah (major)","lat":25.7779855,"lon":56.1421293,"elevationM":1375},{"id":"node:4527974704","kind":"peak","name":"Jabal ar Rahrah - جبل الراعي","lat":25.9442882,"lon":56.1521307,"elevationM":1691},{"id":"node:4527974705","kind":"peak","name":"Jabal Rahabah","lat":25.9262649,"lon":56.1171472,"elevationM":1543},{"id":"node:5121801834","kind":"peak","name":"Jebel Jais - جبل جيس","lat":25.9534256,"lon":56.1843109,"elevationM":1911},{"id":"node:5606954615","kind":"peak","name":"Jabal Aqqah - جبل العقة","lat":25.4842724,"lon":56.3337351,"elevationM":575},{"id":"node:5762365788","kind":"peak","name":"Jabal Safad","lat":25.232,"lon":56.2838,"elevationM":644},{"id":"node:6079758693","kind":"peak","name":"جبل زكت","lat":25.513865,"lon":56.3120192,"elevationM":247},{"id":"node:6288511450","kind":"peak","name":"Jabal Harf Tila (minor)","lat":25.6865769,"lon":56.1557576,"elevationM":1555},{"id":"node:6288511451","kind":"peak","name":"Jabal Harf Tila (major)","lat":25.6899434,"lon":56.1588841,"elevationM":1568},{"id":"node:7231335198","kind":"peak","name":"Jebel Ghabib - جبل غبيب","lat":25.8956942,"lon":56.1901209,"elevationM":1332},{"id":"node:9892760230","kind":"peak","name":"جبل شقار","lat":25.6614121,"lon":56.2580301,"elevationM":172},{"id":"node:10603028362","kind":"peak","name":"Jabal Musaibat","lat":25.9125803,"lon":56.161711,"elevationM":1123},{"id":"node:10669577317","kind":"peak","name":"Jabal As Salwah","lat":25.7924371,"lon":56.1200141,"elevationM":889},{"id":"node:10673680366","kind":"peak","name":"Jabal ar Rabbah","lat":25.3906116,"lon":56.0664385,"elevationM":312},{"id":"node:10673684911","kind":"peak","name":"Jabal al Qumar al Janūbī","lat":25.4302214,"lon":56.0542197,"elevationM":466},{"id":"node:10679272188","kind":"peak","name":"Jabal Mubraḩah","lat":25.5515114,"lon":56.1278619,"elevationM":593},{"id":"node:10679290573","kind":"peak","name":"Jabal Ruwaydah","lat":25.5048582,"lon":56.0898312,"elevationM":515},{"id":"node:10679323147","kind":"peak","name":"Jabal al Qumar ash Shamālī","lat":25.4654512,"lon":56.0480229,"elevationM":555},{"id":"node:10680012562","kind":"peak","name":"Jabal Dād","lat":25.4550741,"lon":56.2254653,"elevationM":1054},{"id":"node:10683379467","kind":"peak","name":"Jabal Shintal","lat":25.9418256,"lon":56.1351214,"elevationM":1435},{"id":"node:10684637326","kind":"peak","name":"Jabal Qutayyib","lat":25.9402392,"lon":56.0935859,"elevationM":755},{"id":"node:10685113935","kind":"peak","name":"جبل جباس","lat":25.8478729,"lon":56.1525365,"elevationM":1100},{"id":"node:10685988597","kind":"peak","name":"Jabal Sall","lat":25.7613823,"lon":56.0880023,"elevationM":778},{"id":"node:10687229090","kind":"peak","name":"Jabal Yibir / Jabal Al-Mebrah","lat":25.648702,"lon":56.128685,"elevationM":1527},{"id":"node:10687491334","kind":"peak","name":"Qarn Ḩarf","lat":25.723917,"lon":56.0167036,"elevationM":42},{"id":"node:10740149870","kind":"peak","name":"Jabal Wamm","lat":25.6012523,"lon":56.1997122,"elevationM":825},{"id":"node:10746782755","kind":"peak","name":"جبل يبانة‎","lat":25.8753882,"lon":56.1596113,"elevationM":1480},{"id":"node:10746790108","kind":"peak","name":"Jabal Yabana (minor)","lat":25.8753947,"lon":56.1583009,"elevationM":1472},{"id":"node:10753783709","kind":"peak","name":"Jabal Bulaydah","lat":25.2183201,"lon":56.1773423,"elevationM":830},{"id":"node:10753800507","kind":"peak","name":"Jabal Ghadf","lat":25.2882901,"lon":56.1873044,"elevationM":705},{"id":"node:10753811809","kind":"peak","name":"Jabal Salhal","lat":25.2591949,"lon":56.1851135,"elevationM":605},{"id":"node:10753962935","kind":"peak","name":"Jabal Thawban","lat":25.3296315,"lon":56.1030931,"elevationM":715},{"id":"node:10753984924","kind":"peak","name":"Jabal Janubi","lat":25.3345559,"lon":56.0992717,"elevationM":645},{"id":"node:10753995467","kind":"peak","name":"Al Khurays","lat":25.3150143,"lon":56.1157436,"elevationM":747},{"id":"node:10754022543","kind":"peak","name":"Jabal Tus","lat":25.3000777,"lon":56.1102366,"elevationM":557},{"id":"node:10754024384","kind":"peak","name":"Jabal Dafta جبل دفتا","lat":25.2896659,"lon":56.2169672,"elevationM":878},{"id":"node:10754044106","kind":"peak","name":"Jabal Sharmah","lat":25.2840513,"lon":56.1278121,"elevationM":568},{"id":"node:10754051254","kind":"peak","name":"Jabal Shariyah","lat":25.2917852,"lon":56.1475558,"elevationM":609},{"id":"node:10754076189","kind":"peak","name":"Jabal Shauka - جبل شوكة","lat":25.0998866,"lon":56.0420112,"elevationM":439},{"id":"node:10754080271","kind":"peak","name":"Jabal Gharib","lat":25.1104752,"lon":56.1306386,"elevationM":578},{"id":"node:10754086131","kind":"peak","name":"Jabal Al Hinnah","lat":25.0688543,"lon":56.0413,"elevationM":637},{"id":"node:10754101889","kind":"peak","name":"Jabal Sharab","lat":25.0127023,"lon":56.0340787,"elevationM":668},{"id":"node:10754113635","kind":"peak","name":"Jabal al Hasan","lat":25.1459167,"lon":56.0926004,"elevationM":618},{"id":"node:10754113732","kind":"peak","name":"Jabal Khanah","lat":25.0666498,"lon":56.0962517,"elevationM":704},{"id":"node:10754130980","kind":"peak","name":"Jabal Mazari`","lat":25.1318207,"lon":56.139433,"elevationM":861},{"id":"node:10754152532","kind":"peak","name":"Jabal Sa'ad","lat":25.1450706,"lon":56.1247838,"elevationM":699},{"id":"node:10754161014","kind":"peak","name":"Jabal Silhu Bilhu","lat":25.1513555,"lon":56.0677272,"elevationM":599},{"id":"node:10754168956","kind":"peak","name":"Jabal al Fa'rat","lat":25.155571,"lon":56.0921414,"elevationM":467},{"id":"node:10754204985","kind":"peak","name":"Jabal Sa`d","lat":25.1138327,"lon":56.1167815,"elevationM":643},{"id":"node:10754222978","kind":"peak","name":"Jabal Darah","lat":25.1171763,"lon":56.0838944,"elevationM":718},{"id":"node:10754617052","kind":"peak","name":"Jabal Umm al Farfar","lat":25.1221437,"lon":56.2269484,"elevationM":729},{"id":"node:10754620002","kind":"peak","name":"Jabal Buta","lat":25.1146202,"lon":56.2292778,"elevationM":749},{"id":"node:10754639844","kind":"peak","name":"Jabal Najdayn","lat":25.181174,"lon":56.1725815,"elevationM":875},{"id":"node:10754659093","kind":"peak","name":"Jabal Siji","lat":25.2445696,"lon":56.1238296,"elevationM":665},{"id":"node:10754662995","kind":"peak","name":"Jabal Mimduk","lat":25.1407209,"lon":56.1862783,"elevationM":808},{"id":"node:10754682482","kind":"peak","name":"Jabal Samah","lat":25.1259195,"lon":56.1707963,"elevationM":937},{"id":"node:10754686135","kind":"peak","name":"Jabal Ra's","lat":25.3261274,"lon":56.3700017,"elevationM":322},{"id":"node:10754692391","kind":"peak","name":"Jabal Khawr Fakkan","lat":25.3338796,"lon":56.365565,"elevationM":379},{"id":"node:10754709140","kind":"peak","name":"Jabal Qidfa`","lat":25.3319722,"lon":56.3225009,"elevationM":466},{"id":"node:10755521113","kind":"peak","name":"جبل ثيب","lat":25.2587769,"lon":56.3129569,"elevationM":397},{"id":"node:10755534692","kind":"peak","name":"Jabal ar Rukham","lat":25.2833346,"lon":56.2499242,"elevationM":758},{"id":"node:10755541713","kind":"peak","name":"Jabal Masafi","lat":25.3112476,"lon":56.2095759,"elevationM":1134},{"id":"node:10755557749","kind":"peak","name":"Jabal al `Alam","lat":25.4577909,"lon":56.2658898,"elevationM":732},{"id":"node:10755563562","kind":"peak","name":"Jabal Hafarah جبل احفرة","lat":25.052004,"lon":56.3126207,"elevationM":112},{"id":"node:10755566998","kind":"peak","name":"Jabal al Kubus","lat":25.5730834,"lon":56.3251994,"elevationM":448},{"id":"node:10755571173","kind":"peak","name":"Jabal Qitab","lat":25.0206136,"lon":56.241582,"elevationM":998},{"id":"node:10755571667","kind":"peak","name":"Jabal Rumh","lat":25.029733,"lon":56.2805947,"elevationM":365},{"id":"node:10755596629","kind":"peak","name":"Qur ar Rakibi","lat":25.5833469,"lon":56.3272854,"elevationM":355},{"id":"node:10755618394","kind":"peak","name":"Jabal Gral","lat":25.0521852,"lon":56.2405496,"elevationM":668},{"id":"node:10757632584","kind":"peak","name":"Jabal al Ma`tan","lat":25.8569524,"lon":56.1841525,"elevationM":1321},{"id":"node:10766472071","kind":"peak","name":"Jabal Maqatail","lat":25.9500225,"lon":56.1422446,"elevationM":1556},{"id":"node:10780164968","kind":"peak","name":"Jabal ad Dahir","lat":25.4124122,"lon":56.2833726,"elevationM":515},{"id":"node:10780175906","kind":"peak","name":"Jabal Sha`ab ash Shaybah","lat":25.4013412,"lon":56.3041644,"elevationM":405},{"id":"node:10781470933","kind":"peak","name":"Jabal Diqayyiqq","lat":25.5285597,"lon":56.2922001,"elevationM":565},{"id":"node:10781471089","kind":"peak","name":"Jabal Khuwais","lat":25.5362789,"lon":56.2576962,"elevationM":575},{"id":"node:10784710868","kind":"peak","name":"قرن الحاقميّة","lat":25.6413231,"lon":56.2127336,"elevationM":540},{"id":"node:10788316672","kind":"peak","name":"Jabal Ghina","lat":25.174989,"lon":56.2108266,"elevationM":665},{"id":"node:10788320518","kind":"peak","name":"Jabal Ghura","lat":25.2002977,"lon":56.1999969,"elevationM":730},{"id":"node:10788350141","kind":"peak","name":"Jabal Ar Riweshbiyah","lat":25.2427567,"lon":56.1776655,"elevationM":575},{"id":"node:10788350158","kind":"peak","name":"Jabal Yis","lat":25.3561253,"lon":56.1144304,"elevationM":750},{"id":"node:10790394667","kind":"peak","name":"Jabal Naqat","lat":25.8880917,"lon":56.0894766,"elevationM":900},{"id":"node:10809062592","kind":"peak","name":"Jabal Rams","lat":25.869788,"lon":56.0692899,"elevationM":761},{"id":"node:10822053632","kind":"peak","name":"Jabal Hawari","lat":25.8283563,"lon":56.0888016,"elevationM":655},{"id":"node:10822869482","kind":"peak","name":"Jabal La'sheb","lat":25.8768672,"lon":56.0724839,"elevationM":698},{"id":"node:10830509669","kind":"peak","name":"Jabal Ashqar","lat":25.3085744,"lon":56.018244,"elevationM":270},{"id":"node:10836227478","kind":"peak","name":"Jabal Fariq","lat":25.1987842,"lon":56.298847,"elevationM":690},{"id":"node:10836228227","kind":"peak","name":"Jabal Yabsah","lat":25.2007623,"lon":56.2779667,"elevationM":874},{"id":"node:10836243329","kind":"peak","name":"Jabal Bayqah","lat":25.1947679,"lon":56.2498044,"elevationM":450},{"id":"node:10836258725","kind":"peak","name":"Jabal Muthrad","lat":25.1569756,"lon":56.2894021,"elevationM":380},{"id":"node:10837189608","kind":"peak","name":"Jabal Ajila`","lat":25.4714416,"lon":56.131675,"elevationM":500},{"id":"node:10845848756","kind":"peak","name":"Jabal Sawda'","lat":25.2007769,"lon":56.3389449,"elevationM":330},{"id":"node:10847469390","kind":"peak","name":"Jabal Sakhbiri","lat":25.1056683,"lon":56.0369091,"elevationM":360},{"id":"node:10897670714","kind":"peak","name":"Jabal Harf","lat":25.6679298,"lon":56.1113915,"elevationM":1420},{"id":"node:10897674556","kind":"peak","name":"Aqabat Nikid","lat":25.6375163,"lon":56.1484381,"elevationM":1190},{"id":"node:10897730622","kind":"peak","name":"Jabal Al Yafnah","lat":25.7469578,"lon":56.1101697,"elevationM":938},{"id":"node:10899736296","kind":"peak","name":"Jabal Al Abam","lat":25.8565943,"lon":56.0530111,"elevationM":550},{"id":"node:10899819068","kind":"peak","name":"Jabal Al Azir","lat":25.8550768,"lon":56.0454001,"elevationM":550},{"id":"node:10899943711","kind":"peak","name":"Jabal Ra'alat Ad Dufūn","lat":25.8836842,"lon":56.0764287,"elevationM":568},{"id":"node:10900648118","kind":"peak","name":"Jibal Asmat As Siʻeli","lat":25.8658727,"lon":56.1048217,"elevationM":700},{"id":"node:10902396096","kind":"peak","name":"Jabal Al Qised","lat":25.0632346,"lon":56.1099528,"elevationM":817},{"id":"node:10902418622","kind":"peak","name":"Jabal Al Ghunah","lat":25.066833,"lon":56.1646042,"elevationM":1020},{"id":"node:10902790316","kind":"peak","name":"Jabal Huwarah","lat":25.0891013,"lon":56.1416291,"elevationM":890},{"id":"node:10905217105","kind":"peak","name":"Jabal Hebs","lat":25.8003943,"lon":56.1397917,"elevationM":980},{"id":"node:10905414221","kind":"peak","name":"Jabal Ash Shu","lat":25.1258342,"lon":56.1587633,"elevationM":950},{"id":"node:10905727578","kind":"peak","name":"جبل طوي خالد","lat":25.3025896,"lon":56.3197296,"elevationM":500},{"id":"node:10905847417","kind":"peak","name":"جبل الحيل","lat":25.0578043,"lon":56.2279123,"elevationM":860},{"id":"node:10905860394","kind":"peak","name":"Jabal Shiela","lat":25.0723888,"lon":56.179109,"elevationM":1010},{"id":"node:10909250185","kind":"peak","name":"Jabal As Sowdah","lat":25.5987461,"lon":56.1183352,"elevationM":635},{"id":"node:11521971533","kind":"peak","name":"Jabal Satif","lat":25.4988546,"lon":56.0488475,"elevationM":367},{"id":"node:11522141233","kind":"peak","name":"Jabal Khadra'","lat":25.5069127,"lon":56.042018,"elevationM":338},{"id":"node:11539988281","kind":"peak","name":"Najd Al Baqar","lat":25.1396738,"lon":56.2919124,"elevationM":232},{"id":"node:11542195606","kind":"peak","name":"Jabal Ad Dīrī","lat":25.7806602,"lon":56.0996487,"elevationM":612},{"id":"node:11587312737","kind":"peak","name":"Jabal Ar Ra'il","lat":25.7774795,"lon":56.1098377,"elevationM":768},{"id":"node:11597188469","kind":"peak","name":"Jabal Qada'ah (minor)","lat":25.7805509,"lon":56.1366584,"elevationM":1345},{"id":"node:11613652416","kind":"peak","name":"Jabal An Ned","lat":25.9305937,"lon":56.1077934,"elevationM":1078},{"id":"node:11625149528","kind":"peak","name":"Jabal Tafif","lat":25.7278598,"lon":56.1692211,"elevationM":1598},{"id":"node:11628677672","kind":"peak","name":"Jabal Baqal","lat":25.6884,"lon":56.0980267,"elevationM":1026},{"id":"node:11638838181","kind":"peak","name":"Jabal Ar Ra'alah","lat":25.8847768,"lon":56.1151286,"elevationM":869},{"id":"node:11638890712","kind":"peak","name":"Jabal Ayuzah","lat":25.6192631,"lon":56.1951229,"elevationM":1005},{"id":"node:11683845555","kind":"peak","name":"Jabal Al Kharas","lat":25.6677503,"lon":56.1352888,"elevationM":1477},{"id":"node:11684932828","kind":"peak","name":"Jabal Khasha'","lat":25.4966958,"lon":56.0136818,"elevationM":210},{"id":"node:11685008781","kind":"peak","name":"Jabal al ‘Utayfah","lat":25.5099116,"lon":56.0293235,"elevationM":262},{"id":"node:11692371917","kind":"peak","name":"Aqabat al Hadid","lat":25.5930194,"lon":56.3276251,"elevationM":171},{"id":"node:11692792033","kind":"peak","name":"Aqabat Bin Ali","lat":25.5973258,"lon":56.0621675,"elevationM":569},{"id":"node:11693015156","kind":"peak","name":"Jabal Ar Ras Ash Sharqi","lat":25.606811,"lon":56.0984479,"elevationM":789},{"id":"node:11700166457","kind":"peak","name":"Jabal Bahar","lat":25.7563204,"lon":56.1816276,"elevationM":1460},{"id":"node:11729901453","kind":"peak","name":"Jabal Raham","lat":25.1116252,"lon":56.2240409,"elevationM":758},{"id":"node:11733714667","kind":"peak","name":"Aqbat Al Kibs","lat":25.6487618,"lon":56.1080787,"elevationM":1209},{"id":"node:11733779631","kind":"peak","name":"Aqabat Ar Rakbi","lat":25.5727093,"lon":56.2984866,"elevationM":249},{"id":"node:11734198244","kind":"peak","name":"Aqabat Al Hati","lat":25.206715,"lon":56.2524825,"elevationM":470},{"id":"node:11734889233","kind":"peak","name":"Al Jabal Al Ahmar","lat":25.1767952,"lon":56.3458591,"elevationM":155},{"id":"node:11741283794","kind":"peak","name":"Jabal Al Shahs","lat":25.3369863,"lon":56.3674682,"elevationM":349},{"id":"node:11780797622","kind":"peak","name":"Jabal Ghumaylah","lat":25.4688248,"lon":56.0367265,"elevationM":382},{"id":"node:11781616472","kind":"peak","name":"Jabal Raddat As Sidrah","lat":25.5752517,"lon":56.2764895,"elevationM":259},{"id":"node:11781680144","kind":"peak","name":"Jabal Yawwid","lat":25.5836745,"lon":56.109832,"elevationM":638},{"id":"node:11782771267","kind":"peak","name":"Jabal Hilqah","lat":25.3136299,"lon":56.2019313,"elevationM":1058},{"id":"node:11786886233","kind":"peak","name":"Jabal Huq","lat":25.502832,"lon":56.1260249,"elevationM":629},{"id":"node:11787331687","kind":"peak","name":"Jabal Lihyul","lat":25.5146839,"lon":56.1409735,"elevationM":629},{"id":"node:11787494262","kind":"peak","name":"Jibal Lahshamat","lat":25.4899129,"lon":56.1319331,"elevationM":519},{"id":"node:11787500607","kind":"peak","name":"Jabal An Nakka'ah","lat":25.5096763,"lon":56.3322604,"elevationM":145},{"id":"node:11788495736","kind":"peak","name":"Jabal Ash Sharaf","lat":25.6438127,"lon":56.0726791,"elevationM":639},{"id":"node:11788578782","kind":"peak","name":"Jabal Mawarid","lat":25.6274672,"lon":56.0646895,"elevationM":649},{"id":"node:11793318833","kind":"peak","name":"Jabal Shemah","lat":25.460262,"lon":56.1325659,"elevationM":539},{"id":"node:11793333516","kind":"peak","name":"Jabal Mi'rad Al Fay","lat":25.4398906,"lon":56.1127536,"elevationM":479},{"id":"node:11793686448","kind":"peak","name":"Jabal Idhar Mabruk","lat":25.4380367,"lon":56.3230724,"elevationM":209},{"id":"node:11793709811","kind":"peak","name":"Aqabat al Khurus","lat":25.4398218,"lon":56.2950699,"elevationM":529},{"id":"node:11793710960","kind":"peak","name":"Jabal Ash Shahsiyyah","lat":25.4403322,"lon":56.3115212,"elevationM":226},{"id":"node:11795279767","kind":"peak","name":"Jabal Rogh Al Handal","lat":25.5291868,"lon":56.332153,"elevationM":63},{"id":"node:11799963371","kind":"peak","name":"Jibal Al Masalil","lat":25.4928348,"lon":56.0045844,"elevationM":178},{"id":"node:11800602735","kind":"peak","name":"Jabal Limsah","lat":25.4247266,"lon":56.3627723,"elevationM":69},{"id":"node:11801166955","kind":"peak","name":"Jabal Dadna","lat":25.5174278,"lon":56.3604547,"elevationM":102},{"id":"node:11801223118","kind":"peak","name":"Jabal Badiyah","lat":25.4593047,"lon":56.3422349,"elevationM":459},{"id":"node:11811981940","kind":"peak","name":"Najd Al 'Umur","lat":25.531212,"lon":56.1018777,"elevationM":454},{"id":"node:11811990603","kind":"peak","name":"Jabal Ar Ra'lah","lat":25.5213554,"lon":56.1275349,"elevationM":536},{"id":"node:11812042051","kind":"peak","name":"Najd Limshalla","lat":25.5297244,"lon":56.0580142,"elevationM":392},{"id":"node:11812177378","kind":"peak","name":"Jabal Al Gharaf","lat":25.5433509,"lon":56.0973141,"elevationM":440},{"id":"node:11823151387","kind":"peak","name":"Jabal an Nakhlah","lat":25.7068233,"lon":56.255323,"elevationM":629},{"id":"node:11824312261","kind":"peak","name":"Jabal Al Kisuh","lat":25.1035521,"lon":56.1063347,"elevationM":648},{"id":"node:11832728914","kind":"peak","name":"Jabal Al Hamri","lat":25.575894,"lon":56.1546683,"elevationM":803},{"id":"node:11861624954","kind":"peak","name":"Jabal Al Kharis","lat":25.1833343,"lon":56.2083179,"elevationM":668},{"id":"node:11888575710","kind":"peak","name":"Jabal Ishub","lat":25.1625152,"lon":56.2379283,"elevationM":369},{"id":"node:11889056965","kind":"peak","name":"Jabal Abu Ziba","lat":25.2743116,"lon":56.3447009,"elevationM":248},{"id":"node:11889110096","kind":"peak","name":"Jabal Abu Al Hod","lat":25.0523427,"lon":56.0474917,"elevationM":552},{"id":"node:11889464443","kind":"peak","name":"Jabal Al 'Arfay","lat":25.2674786,"lon":56.0310714,"elevationM":252},{"id":"node:11889525140","kind":"peak","name":"Jabal Al Nakhal","lat":25.0882959,"lon":56.2034624,"elevationM":568},{"id":"node:11889959690","kind":"peak","name":"Jabal Al Lattan","lat":25.0275029,"lon":56.1746616,"elevationM":845},{"id":"node:11890004071","kind":"peak","name":"Jabal Al Makhatta","lat":25.2106724,"lon":56.3124322,"elevationM":575},{"id":"node:11891546465","kind":"peak","name":"Jabal Al Itim","lat":25.1041675,"lon":56.1701881,"elevationM":1017},{"id":"node:11891617338","kind":"peak","name":"جبل العزام","lat":25.2541036,"lon":56.2998787,"elevationM":452},{"id":"node:11891855594","kind":"peak","name":"Jibal Al Misyal","lat":25.4009215,"lon":56.0301094,"elevationM":292},{"id":"node:11892007149","kind":"peak","name":"Jabal Hakimah","lat":25.4287452,"lon":56.1858699,"elevationM":549},{"id":"node:11892094519","kind":"peak","name":"Jabal Al Ba'ud","lat":25.0871691,"lon":56.0639426,"elevationM":486},{"id":"node:11892115756","kind":"peak","name":"Jabal As Sibetah","lat":25.1791447,"lon":56.189828,"elevationM":633},{"id":"node:11892283777","kind":"peak","name":"جبل الحبلية","lat":25.2921373,"lon":56.3374103,"elevationM":196},{"id":"node:11892944871","kind":"peak","name":"Jabal As Siderah","lat":25.092351,"lon":56.1201502,"elevationM":649},{"id":"node:11892956132","kind":"peak","name":"Jabal Ghiden","lat":25.0665313,"lon":56.1009236,"elevationM":840},{"id":"node:11895302714","kind":"peak","name":"Jabal As Sudah","lat":25.5530859,"lon":56.1439955,"elevationM":409},{"id":"node:11895319049","kind":"peak","name":"Jabal Wa‘bayn","lat":25.5667045,"lon":56.1292108,"elevationM":470},{"id":"node:11895364816","kind":"peak","name":"Jabal Haryat Al Sidrah","lat":25.5632973,"lon":56.3221951,"elevationM":332},{"id":"node:11895384804","kind":"peak","name":"Jabal Hidehid","lat":25.3193643,"lon":56.1086055,"elevationM":717},{"id":"node:11895698371","kind":"peak","name":"Jabal Ash Shibkah","lat":25.2055256,"lon":56.0460956,"elevationM":265},{"id":"node:11902515150","kind":"peak","name":"Jabal Ḩaffah","lat":25.7747614,"lon":56.3306694,"elevationM":330},{"id":"node:11931236886","kind":"peak","name":"Jabal Shariya","lat":25.6005711,"lon":56.1756829,"elevationM":999},{"id":"node:11948420469","kind":"peak","name":"Qarn Fardah","lat":25.5523232,"lon":56.1855719,"elevationM":310},{"id":"node:11986693256","kind":"peak","name":"Jabal Nim","lat":25.1151599,"lon":56.0666086,"elevationM":598},{"id":"node:11986723451","kind":"peak","name":"Jabal Ash Shahayrah","lat":25.0541124,"lon":56.0785808,"elevationM":532},{"id":"node:11989149239","kind":"peak","name":"Jabal Mozuh","lat":25.196377,"lon":56.3186597,"elevationM":539},{"id":"node:11993197436","kind":"peak","name":"Jabal Siha","lat":25.3388795,"lon":56.2766644,"elevationM":770},{"id":"node:12110489842","kind":"peak","name":"Jabal Tawah","lat":25.0144258,"lon":56.1150595,"elevationM":715},{"id":"node:12122237185","kind":"peak","name":"Jabal as Saghir","lat":25.3837349,"lon":56.341664,"elevationM":291},{"id":"node:12122333272","kind":"peak","name":"Jabal ad Daya","lat":25.3852462,"lon":56.337228,"elevationM":271},{"id":"node:12122469694","kind":"peak","name":"Jabal al Hurayyah","lat":25.4150695,"lon":56.356812,"elevationM":52},{"id":"node:12122493617","kind":"peak","name":"Jabal al Habil","lat":25.4563447,"lon":56.3549529,"elevationM":288},{"id":"node:12174860071","kind":"peak","name":"Jabal al Huwaybit","lat":25.4697563,"lon":56.3261298,"elevationM":375},{"id":"node:12177139437","kind":"peak","name":"Jibal Ghel Sammah","lat":25.4707602,"lon":56.2233542,"elevationM":685},{"id":"node:12183857608","kind":"peak","name":"Jabal al MInab","lat":25.4768324,"lon":56.355149,"elevationM":156},{"id":"node:12186197352","kind":"peak","name":"Jabal al Balush","lat":25.4302852,"lon":56.349819,"elevationM":23},{"id":"node:12296050950","kind":"peak","name":"جبل الرّابي","lat":25.2708693,"lon":56.3272243,"elevationM":201},{"id":"node:12296078771","kind":"peak","name":"عقاب شوابق","lat":25.3015541,"lon":56.3287753,"elevationM":240},{"id":"node:12296155605","kind":"peak","name":"Jabal al Qitayliyah","lat":25.3070213,"lon":56.339589,"elevationM":323},{"id":"node:12296238539","kind":"peak","name":"جبل الردّه","lat":25.2770276,"lon":56.2930664,"elevationM":597},{"id":"node:12297314058","kind":"peak","name":"جبل البدعة","lat":25.3221218,"lon":56.2671669,"elevationM":759},{"id":"node:12297338426","kind":"peak","name":"Jabal al ‘Uwayyin","lat":25.3606273,"lon":56.323586,"elevationM":575},{"id":"node:12299842721","kind":"peak","name":"Jabal al Qusīy","lat":25.0635577,"lon":56.316941,"elevationM":109},{"id":"node:12361794929","kind":"peak","name":"جبل معجمت","lat":25.241231,"lon":56.2726434,"elevationM":614},{"id":"node:12361808576","kind":"peak","name":"Jabal Half جبل حلف","lat":25.2423961,"lon":56.2591303,"elevationM":569},{"id":"node:12415623555","kind":"peak","name":"Jabal Al Hawrah جبل الحورة","lat":25.3164638,"lon":56.2675917,"elevationM":607},{"id":"node:12415690801","kind":"peak","name":"جبل محمد بن سالم","lat":25.2557333,"lon":56.2469204,"elevationM":516},{"id":"node:12509440246","kind":"peak","name":"Jabal Miribah","lat":25.5867821,"lon":56.1342863,"elevationM":405},{"id":"node:12526228806","kind":"peak","name":"Jabal Dardur","lat":25.6547494,"lon":56.1294237,"elevationM":1398}]}