{"tileKey":"la_p41_lo_p75","version":"v1-1775891056926","entries":[{"id":"node:5141080323","kind":"peak","name":"Peak Connewitz","lat":41.757264,"lon":75.143238,"elevationM":3160},{"id":"node:5604556424","kind":"peak","name":"Жель-Тегеимен","lat":41.0252056,"lon":75.8973472,"elevationM":4600},{"id":"node:5604556426","kind":"peak","name":"Стефан","lat":41.019765,"lon":75.915719,"elevationM":4480},{"id":"node:5604556429","kind":"peak","name":"Pt Atta","lat":41.016637,"lon":75.910998,"elevationM":4490},{"id":"node:5604556431","kind":"peak","name":"Инек","lat":41.018803,"lon":75.899715,"elevationM":4560},{"id":"node:5604556433","kind":"peak","name":"Дом Белый","lat":41.0175528,"lon":75.9096278,"elevationM":4550},{"id":"node:5604556434","kind":"peak","name":"Даршана","lat":41.0090361,"lon":75.8967889,"elevationM":4570},{"id":"node:5604556435","kind":"peak","name":"Beersh Berkut","lat":41.006534,"lon":75.898365,"elevationM":4600},{"id":"node:5604556436","kind":"peak","name":"Башня","lat":41.002422,"lon":75.930562,"elevationM":4690},{"id":"node:5822463233","kind":"peak","name":"Peak Karol","lat":41.7296157,"lon":75.1637414,"elevationM":3270},{"id":"node:12133554997","kind":"peak","name":"Peak Magdelkiez","lat":41.7256137,"lon":75.1261967,"elevationM":3509}]}