{"tileKey":"la_p30_lo_p118","version":"v1-1775891056926","entries":[{"id":"node:793824924","kind":"peak","name":"光明顶","lat":30.1346774,"lon":118.1640111,"elevationM":1860},{"id":"node:1508733195","kind":"peak","name":"炼丹峰","lat":30.1339365,"lon":118.1649164,"elevationM":1821},{"id":"node:1586565082","kind":"peak","name":"清凉峰","lat":30.1011923,"lon":118.8619788,"elevationM":1787},{"id":"node:1993281710","kind":"peak","name":"黑门尖","lat":30.0740025,"lon":118.2922755,"elevationM":1400},{"id":"node:1993281713","kind":"peak","name":"米盘尖","lat":30.0756912,"lon":118.0786244,"elevationM":1432},{"id":"node:1993281781","kind":"peak","name":"粪箕坞","lat":30.1001744,"lon":118.1230097,"elevationM":null},{"id":"node:2234823263","kind":"peak","name":"丹霞峰","lat":30.1440836,"lon":118.1573259,"elevationM":1708},{"id":"node:2239653006","kind":"peak","name":"莲花峰","lat":30.1271128,"lon":118.1652327,"elevationM":1865},{"id":"node:2243294203","kind":"peak","name":"鳌鱼峰","lat":30.1302543,"lon":118.1615502,"elevationM":1789},{"id":"node:2432188961","kind":"peak","name":"四顾山","lat":30.6592796,"lon":118.2627572,"elevationM":640},{"id":"node:2755542483","kind":"peak","name":"云门峰","lat":30.1135977,"lon":118.1372103,"elevationM":1665},{"id":"node:2837327536","kind":"peak","name":"高峰","lat":30.5556937,"lon":118.6893642,"elevationM":1153},{"id":"node:2837327537","kind":"peak","name":"一峰尖","lat":30.5694633,"lon":118.7003649,"elevationM":1095},{"id":"node:2837327540","kind":"peak","name":"香炉尖","lat":30.5897275,"lon":118.7038735,"elevationM":905},{"id":"node:2918623157","kind":"peak","name":"贡阳山","lat":30.1394856,"lon":118.1649743,"elevationM":1800},{"id":"node:3071495422","kind":"peak","name":"天都峰","lat":30.1210193,"lon":118.1737115,"elevationM":1829},{"id":"node:4475446902","kind":"peak","name":"品岭","lat":30.4875017,"lon":118.6240396,"elevationM":null},{"id":"node:4475449696","kind":"peak","name":"十八肩","lat":30.5859355,"lon":118.5804716,"elevationM":947},{"id":"node:4726440923","kind":"peak","name":"叶山","lat":30.953087,"lon":118.032992,"elevationM":null},{"id":"node:5263012083","kind":"peak","name":"仙桃峰","lat":30.1354419,"lon":118.1526719,"elevationM":1742},{"id":"node:5263012084","kind":"peak","name":"桃花峰","lat":30.1082616,"lon":118.1483442,"elevationM":1459},{"id":"node:5474894328","kind":"peak","name":"龙塘山","lat":30.1251786,"lon":118.8938012,"elevationM":1586},{"id":"node:5474894331","kind":"peak","name":"毛塆岗","lat":30.1185771,"lon":118.939688,"elevationM":892},{"id":"node:5474894332","kind":"peak","name":"帽尖山","lat":30.1319555,"lon":118.9801406,"elevationM":726},{"id":"node:5474894334","kind":"peak","name":"长坪尖","lat":30.1609579,"lon":118.8425254,"elevationM":1227},{"id":"node:5474894335","kind":"peak","name":"大石头","lat":30.1872155,"lon":118.8963861,"elevationM":1464},{"id":"node:5480471672","kind":"peak","name":"避风岭","lat":30.1945239,"lon":118.9942878,"elevationM":1267},{"id":"node:5494805016","kind":"peak","name":"高尖","lat":30.2905249,"lon":118.8699584,"elevationM":788},{"id":"node:5534180589","kind":"peak","name":"太子尖","lat":30.1755988,"lon":118.899697,"elevationM":1557},{"id":"node:6765953759","kind":"peak","name":"湖田山","lat":30.0814352,"lon":118.7668084,"elevationM":1248},{"id":"node:6765953760","kind":"peak","name":"峰高岭","lat":30.0724295,"lon":118.7648987,"elevationM":null},{"id":"node:7742121504","kind":"peak","name":"搁船尖","lat":30.0122925,"lon":118.8850652,"elevationM":1481},{"id":"node:7742121533","kind":"peak","name":"雨伞尖","lat":30.0125167,"lon":118.9189264,"elevationM":1460},{"id":"node:7742121534","kind":"peak","name":"大岭塔","lat":30.0219638,"lon":118.9503835,"elevationM":1447},{"id":"node:7742140478","kind":"peak","name":"龙须山","lat":30.0628888,"lon":118.6974444,"elevationM":1048},{"id":"node:7940777613","kind":"peak","name":"蒋军山","lat":30.9171557,"lon":118.6104075,"elevationM":null},{"id":"node:8432560895","kind":"peak","name":"中马啸岭","lat":30.186355,"lon":118.9487049,"elevationM":1448},{"id":"node:8432560896","kind":"peak","name":"上马啸岭","lat":30.1866652,"lon":118.9300924,"elevationM":1398},{"id":"node:8437784618","kind":"peak","name":"石凫山","lat":30.3669139,"lon":118.5949552,"elevationM":1087},{"id":"node:8928239047","kind":"peak","name":"上金山","lat":30.1491351,"lon":118.3940577,"elevationM":1075},{"id":"node:8928239048","kind":"peak","name":"竹根尖","lat":30.1444592,"lon":118.4147858,"elevationM":1056},{"id":"node:8928239051","kind":"peak","name":"小岭头","lat":30.10159,"lon":118.3291992,"elevationM":1070},{"id":"node:8928239054","kind":"peak","name":"三亩六亩","lat":30.076336,"lon":118.360691,"elevationM":885},{"id":"node:8928239055","kind":"peak","name":"上阳尖","lat":30.0993769,"lon":118.3790266,"elevationM":1402},{"id":"node:8928239056","kind":"peak","name":"仙人石尖","lat":30.0855827,"lon":118.3790588,"elevationM":1268},{"id":"node:8928239058","kind":"peak","name":"关山","lat":30.0546827,"lon":118.39468,"elevationM":741},{"id":"node:8929757664","kind":"peak","name":"天顶山","lat":30.1392635,"lon":118.5117101,"elevationM":709},{"id":"node:8929757671","kind":"peak","name":"家山","lat":30.1101207,"lon":118.4762936,"elevationM":null},{"id":"node:8929822906","kind":"peak","name":"青罗山","lat":30.1566311,"lon":118.4092712,"elevationM":1175},{"id":"node:8929822907","kind":"peak","name":"杨桃岭","lat":30.1757378,"lon":118.4176012,"elevationM":null},{"id":"node:8929822908","kind":"peak","name":"大会山","lat":30.185088,"lon":118.432188,"elevationM":1259},{"id":"node:8929822909","kind":"peak","name":"金岭山","lat":30.1888718,"lon":118.4613275,"elevationM":788},{"id":"node:8929822910","kind":"peak","name":"牛栏平","lat":30.2099208,"lon":118.4708762,"elevationM":null},{"id":"node:8929822911","kind":"peak","name":"南山","lat":30.1920989,"lon":118.5025262,"elevationM":null},{"id":"node:8929822914","kind":"peak","name":"马山","lat":30.1720664,"lon":118.540678,"elevationM":null},{"id":"node:8929827517","kind":"peak","name":"仙人岩尖","lat":30.1532172,"lon":118.5682725,"elevationM":1117},{"id":"node:9024131511","kind":"peak","name":"黎明尖","lat":30.1273243,"lon":118.769301,"elevationM":1324},{"id":"node:9024156383","kind":"peak","name":"社母娘娘尖","lat":30.156647,"lon":118.7846392,"elevationM":1305},{"id":"node:9024161647","kind":"peak","name":"饭甑尖","lat":30.192222,"lon":118.8103319,"elevationM":1350},{"id":"node:9024438015","kind":"peak","name":"黄子山","lat":30.4852574,"lon":118.5244604,"elevationM":1175},{"id":"node:9025764241","kind":"peak","name":"下阳尖","lat":30.0928613,"lon":118.4036217,"elevationM":null},{"id":"node:9025764242","kind":"peak","name":"大脚山","lat":30.077757,"lon":118.3709078,"elevationM":1120},{"id":"node:9025764243","kind":"peak","name":"高山尾尖","lat":30.0640706,"lon":118.3624373,"elevationM":null},{"id":"node:9025769449","kind":"peak","name":"笆篱岩","lat":30.1183733,"lon":118.8497899,"elevationM":1613},{"id":"node:9025774048","kind":"peak","name":"东岙头","lat":30.1244606,"lon":118.8854988,"elevationM":1618},{"id":"node:9025774050","kind":"peak","name":"银孔洞","lat":30.1119148,"lon":118.8428819,"elevationM":1624},{"id":"node:9025775463","kind":"peak","name":"白鹤池","lat":30.0646605,"lon":118.7751524,"elevationM":971},{"id":"node:9025795270","kind":"peak","name":"上灶岭","lat":30.1461296,"lon":118.7801696,"elevationM":1187},{"id":"node:9025795271","kind":"peak","name":"栈岭脚","lat":30.1476156,"lon":118.8842057,"elevationM":1007},{"id":"node:9025795888","kind":"peak","name":"百萝园","lat":30.251134,"lon":118.667339,"elevationM":1006},{"id":"node:9025795889","kind":"peak","name":"坑南坞尖","lat":30.2556852,"lon":118.6818513,"elevationM":950},{"id":"node:9025795890","kind":"peak","name":"乌焦尖","lat":30.2710407,"lon":118.6987397,"elevationM":740},{"id":"node:9025798624","kind":"peak","name":"芦塘山","lat":30.2315473,"lon":118.6547234,"elevationM":983},{"id":"node:9025798625","kind":"peak","name":"黄花尖","lat":30.2016549,"lon":118.6420223,"elevationM":976},{"id":"node:9025798748","kind":"peak","name":"天子墓山","lat":30.0995048,"lon":118.8111571,"elevationM":1319},{"id":"node:9025807490","kind":"peak","name":"黄高山","lat":30.218071,"lon":118.4414783,"elevationM":1143},{"id":"node:9025807491","kind":"peak","name":"船山","lat":30.2233116,"lon":118.4398046,"elevationM":null},{"id":"node:9025807492","kind":"peak","name":"葫芦岭","lat":30.2108349,"lon":118.4341027,"elevationM":853},{"id":"node:9025808053","kind":"peak","name":"石耳尖","lat":30.0601063,"lon":118.8864951,"elevationM":1173},{"id":"node:9025808054","kind":"peak","name":"白石岩","lat":30.0850139,"lon":118.8540216,"elevationM":1380},{"id":"node:9025808055","kind":"peak","name":"鸡冠沿","lat":30.0925578,"lon":118.8566517,"elevationM":1625},{"id":"node:9025808556","kind":"peak","name":"古塘山","lat":30.1696229,"lon":118.4521191,"elevationM":848},{"id":"node:9025815985","kind":"peak","name":"凤龙山","lat":30.3923521,"lon":118.968155,"elevationM":1036},{"id":"node:9025815986","kind":"peak","name":"龙池山","lat":30.3199508,"lon":118.8881343,"elevationM":1087},{"id":"node:9025816138","kind":"peak","name":"西箬岭","lat":30.1068668,"lon":118.3062468,"elevationM":1016},{"id":"node:9025816140","kind":"peak","name":"天湖山","lat":30.0811234,"lon":118.2428498,"elevationM":1184},{"id":"node:9025816141","kind":"peak","name":"雪岭头","lat":30.0744135,"lon":118.2375152,"elevationM":1165},{"id":"node:9025880160","kind":"peak","name":"凹坞岭","lat":30.2156841,"lon":118.8530953,"elevationM":1150},{"id":"node:9025880161","kind":"peak","name":"笔架尖","lat":30.1916319,"lon":118.823093,"elevationM":1385},{"id":"node:9025880162","kind":"peak","name":"九龙戏珠","lat":30.2281487,"lon":118.8595835,"elevationM":1277},{"id":"node:9025880165","kind":"peak","name":"黄茅尖","lat":30.2478615,"lon":118.8774195,"elevationM":1303},{"id":"node:9025884257","kind":"peak","name":"门前岩","lat":30.2223892,"lon":118.8299398,"elevationM":1109},{"id":"node:9025884258","kind":"peak","name":"豺狗狼尖","lat":30.20979,"lon":118.8136577,"elevationM":1073},{"id":"node:9025897127","kind":"peak","name":"雄狮子岗","lat":30.2158561,"lon":118.917301,"elevationM":1182},{"id":"node:9058873750","kind":"peak","name":"朱砂峰","lat":30.1171375,"lon":118.1687575,"elevationM":1397},{"id":"node:9058873751","kind":"peak","name":"老人峰","lat":30.1206826,"lon":118.1699806,"elevationM":1530},{"id":"node:9058873752","kind":"peak","name":"紫石峰","lat":30.1156341,"lon":118.1787139,"elevationM":1649},{"id":"node:9058873753","kind":"peak","name":"眉毛峰","lat":30.1132582,"lon":118.1818252,"elevationM":1430},{"id":"node:9058873754","kind":"peak","name":"钵盂峰","lat":30.1214626,"lon":118.1777727,"elevationM":1666},{"id":"node:9058873755","kind":"peak","name":"青鸾峰","lat":30.1162153,"lon":118.1723783,"elevationM":1361},{"id":"node:9058873756","kind":"peak","name":"香炉峰","lat":30.1112677,"lon":118.1932101,"elevationM":945},{"id":"node:9058873757","kind":"peak","name":"罗汉峰","lat":30.1180021,"lon":118.1956073,"elevationM":1157},{"id":"node:9058873761","kind":"peak","name":"观音峰","lat":30.1439817,"lon":118.17525,"elevationM":1686},{"id":"node:9058873763","kind":"peak","name":"云外峰","lat":30.1430847,"lon":118.1399393,"elevationM":1631},{"id":"node:9059383016","kind":"peak","name":"翠微峰","lat":30.1619473,"lon":118.1223806,"elevationM":1589},{"id":"node:9059399183","kind":"peak","name":"石人峰","lat":30.1297859,"lon":118.1381751,"elevationM":1310},{"id":"node:9059399184","kind":"peak","name":"石柱峰","lat":30.1327875,"lon":118.1583535,"elevationM":1686},{"id":"node:9059409877","kind":"peak","name":"莲蕊峰","lat":30.1252409,"lon":118.1658168,"elevationM":1775},{"id":"node:9059409879","kind":"peak","name":"狮子峰","lat":30.1476609,"lon":118.1634297,"elevationM":1690},{"id":"node:9059456674","kind":"peak","name":"浮丘峰","lat":30.1113716,"lon":118.1310448,"elevationM":1546},{"id":"node:9059497822","kind":"peak","name":"枕头峰","lat":30.1814536,"lon":118.1621916,"elevationM":1005},{"id":"node:9059497823","kind":"peak","name":"夫子峰","lat":30.1950851,"lon":118.2081466,"elevationM":775},{"id":"node:9059497824","kind":"peak","name":"火龙尖","lat":30.1785816,"lon":118.2114371,"elevationM":1224},{"id":"node:9059497825","kind":"peak","name":"石门园","lat":30.1584926,"lon":118.207654,"elevationM":null},{"id":"node:9061401129","kind":"peak","name":"清潭峰","lat":30.1111735,"lon":118.1814423,"elevationM":1351},{"id":"node:9061406538","kind":"peak","name":"紫云峰","lat":30.1119896,"lon":118.1768699,"elevationM":1400},{"id":"node:9061406539","kind":"peak","name":"石门峰","lat":30.1370346,"lon":118.1660277,"elevationM":1822},{"id":"node:9061406540","kind":"peak","name":"玉屏峰","lat":30.1250773,"lon":118.1706167,"elevationM":1712},{"id":"node:9061406541","kind":"peak","name":"佛掌峰","lat":30.1254552,"lon":118.1739826,"elevationM":1690},{"id":"node:9061422642","kind":"peak","name":"高庵","lat":30.0736781,"lon":118.0164765,"elevationM":1048},{"id":"node:9061422643","kind":"peak","name":"殷溪岭","lat":30.0773126,"lon":118.029474,"elevationM":1151},{"id":"node:9061443979","kind":"peak","name":"石洞岭","lat":30.064361,"lon":118.2133901,"elevationM":801},{"id":"node:9061453117","kind":"peak","name":"九龙头","lat":30.0918511,"lon":118.0459255,"elevationM":1281},{"id":"node:9061453118","kind":"peak","name":"棠梨岭","lat":30.0890663,"lon":118.055796,"elevationM":1169},{"id":"node:9061453119","kind":"peak","name":"骑马岗","lat":30.1008315,"lon":118.0779277,"elevationM":1060},{"id":"node:9102595291","kind":"peak","name":"留犁尖","lat":30.0266808,"lon":118.3535867,"elevationM":null},{"id":"node:9102595303","kind":"peak","name":"猫鹰尖","lat":30.0439765,"lon":118.3826037,"elevationM":698},{"id":"node:9102595312","kind":"peak","name":"大山尖","lat":30.0240479,"lon":118.4203663,"elevationM":null},{"id":"node:9102595316","kind":"peak","name":"上庙尖","lat":30.0181462,"lon":118.4487578,"elevationM":null},{"id":"node:9102595323","kind":"peak","name":"三亩尖","lat":30.0185696,"lon":118.3354987,"elevationM":null},{"id":"node:9102595331","kind":"peak","name":"坞珠龙","lat":30.0270785,"lon":118.3855458,"elevationM":null},{"id":"node:9102595339","kind":"peak","name":"乌龙尖","lat":30.0013413,"lon":118.425855,"elevationM":null},{"id":"node:9102595353","kind":"peak","name":"杨梅尖","lat":30.0356921,"lon":118.3602942,"elevationM":null},{"id":"node:9106535809","kind":"peak","name":"土地堂","lat":30.262759,"lon":118.8127376,"elevationM":721},{"id":"node:9106535810","kind":"peak","name":"考坑岭","lat":30.2649372,"lon":118.7977326,"elevationM":null},{"id":"node:9106543082","kind":"peak","name":"关刀峰","lat":30.2193088,"lon":118.8870946,"elevationM":null},{"id":"node:9106543084","kind":"peak","name":"竹岭","lat":30.1829425,"lon":118.8062175,"elevationM":1065},{"id":"node:9106556890","kind":"peak","name":"莺咀岩","lat":30.2473848,"lon":118.8254356,"elevationM":null},{"id":"node:9106598436","kind":"peak","name":"下马啸岭","lat":30.185951,"lon":118.974692,"elevationM":1356},{"id":"node:9106599354","kind":"peak","name":"芦塘岭","lat":30.2629679,"lon":118.8973442,"elevationM":885},{"id":"node:9106607772","kind":"peak","name":"七姑山尖","lat":30.0683297,"lon":118.7142153,"elevationM":994},{"id":"node:9106640098","kind":"peak","name":"西直坞岭","lat":30.2519885,"lon":118.7639442,"elevationM":null},{"id":"node:9123769852","kind":"peak","name":"西毛山","lat":30.3834301,"lon":118.216141,"elevationM":849},{"id":"node:9133764228","kind":"peak","name":"成功山","lat":30.1737285,"lon":118.7497045,"elevationM":820},{"id":"node:9133766647","kind":"peak","name":"逍遥岩","lat":30.1468049,"lon":118.7695243,"elevationM":1043},{"id":"node:9133792359","kind":"peak","name":"大龙尖","lat":30.2069189,"lon":118.8412307,"elevationM":1270},{"id":"node:9133798073","kind":"peak","name":"莲花峰","lat":30.2013029,"lon":118.8062213,"elevationM":1083},{"id":"node:9133808212","kind":"peak","name":"屏风岩","lat":30.0868818,"lon":118.7579764,"elevationM":null},{"id":"node:9133820647","kind":"peak","name":"大岩顶","lat":30.1501486,"lon":118.8018287,"elevationM":1118},{"id":"node:9137627572","kind":"peak","name":"花石岩","lat":30.1960122,"lon":118.9559565,"elevationM":1485},{"id":"node:9137800787","kind":"peak","name":"狮子岩","lat":30.3974376,"lon":118.5929723,"elevationM":832},{"id":"node:9137802971","kind":"peak","name":"东门岗","lat":30.3741622,"lon":118.5999188,"elevationM":922},{"id":"node:9137833717","kind":"peak","name":"鸦鹊山","lat":30.3884978,"lon":118.5886807,"elevationM":754},{"id":"node:9139239902","kind":"peak","name":"石金山","lat":30.1259146,"lon":118.6604112,"elevationM":926},{"id":"node:9139239903","kind":"peak","name":"白虎顶","lat":30.1094246,"lon":118.6644434,"elevationM":null},{"id":"node:9139239904","kind":"peak","name":"石龙山","lat":30.1262794,"lon":118.6715433,"elevationM":777},{"id":"node:9139283099","kind":"peak","name":"千丈岭","lat":30.0319032,"lon":118.6818334,"elevationM":850},{"id":"node:9139283100","kind":"peak","name":"大枫山","lat":30.0357224,"lon":118.701615,"elevationM":650},{"id":"node:9139283101","kind":"peak","name":"铜坑岭","lat":30.0500936,"lon":118.6893152,"elevationM":670},{"id":"node:9141316118","kind":"peak","name":"夹刀岭","lat":30.0913272,"lon":118.7372132,"elevationM":null},{"id":"node:9141316119","kind":"peak","name":"牛脊背","lat":30.0851632,"lon":118.7617179,"elevationM":1145},{"id":"node:9141318754","kind":"peak","name":"鸡鸣尖","lat":30.1035309,"lon":118.7543191,"elevationM":1020},{"id":"node:9141501458","kind":"peak","name":"逍遥尖","lat":30.155345,"lon":118.8417184,"elevationM":1196},{"id":"node:9141521217","kind":"peak","name":"浙岭","lat":30.153229,"lon":118.839619,"elevationM":null},{"id":"node:9141523795","kind":"peak","name":"滴水岩","lat":30.2674705,"lon":118.9148726,"elevationM":1217},{"id":"node:9141524263","kind":"peak","name":"石和尚","lat":30.26722,"lon":118.9125092,"elevationM":1205},{"id":"node:9141537144","kind":"peak","name":"尖山岭","lat":30.2537337,"lon":118.8940229,"elevationM":853},{"id":"node:9141537145","kind":"peak","name":"纤岭","lat":30.2401149,"lon":118.9595875,"elevationM":1014},{"id":"node:9141545036","kind":"peak","name":"康山岭","lat":30.2147724,"lon":118.9308316,"elevationM":948},{"id":"node:9141545037","kind":"peak","name":"马啸岭","lat":30.18113,"lon":118.9208832,"elevationM":1502},{"id":"node:9143495085","kind":"peak","name":"笔架石","lat":30.2641176,"lon":118.8464651,"elevationM":620},{"id":"node:9143499488","kind":"peak","name":"苦石岭","lat":30.3032303,"lon":118.8782669,"elevationM":839},{"id":"node:9143505959","kind":"peak","name":"仙人峰","lat":30.2308176,"lon":118.8569243,"elevationM":1228},{"id":"node:9143564786","kind":"peak","name":"双峰山","lat":30.0878148,"lon":118.7995384,"elevationM":1292},{"id":"node:9143601626","kind":"peak","name":"龙王岗尖","lat":30.293924,"lon":118.7979537,"elevationM":887},{"id":"node:9143601627","kind":"peak","name":"交石岩","lat":30.1875895,"lon":118.7203958,"elevationM":797},{"id":"node:9143601628","kind":"peak","name":"花树岭","lat":30.2030133,"lon":118.7128279,"elevationM":null},{"id":"node:9143601629","kind":"peak","name":"音和岩尖","lat":30.1947184,"lon":118.7435638,"elevationM":null},{"id":"node:9143601632","kind":"peak","name":"大冲石","lat":30.2257403,"lon":118.7216661,"elevationM":792},{"id":"node:9143610219","kind":"peak","name":"丈尺山","lat":30.1844756,"lon":118.677496,"elevationM":695},{"id":"node:9143645618","kind":"peak","name":"高枧山","lat":30.1363192,"lon":118.5971919,"elevationM":826},{"id":"node:9143645619","kind":"peak","name":"王石山","lat":30.1137728,"lon":118.6032988,"elevationM":569},{"id":"node:9143645620","kind":"peak","name":"苍龙山","lat":30.1264045,"lon":118.5993862,"elevationM":715},{"id":"node:9143645621","kind":"peak","name":"锦屏山","lat":30.1618033,"lon":118.6164846,"elevationM":744},{"id":"node:9143655715","kind":"peak","name":"老虎头","lat":30.2258521,"lon":118.628636,"elevationM":null},{"id":"node:9143655716","kind":"peak","name":"岩山尖","lat":30.2191958,"lon":118.6276919,"elevationM":825},{"id":"node:9143661117","kind":"peak","name":"上岭头","lat":30.2301325,"lon":118.6273253,"elevationM":607},{"id":"node:9143661118","kind":"peak","name":"白石岗","lat":30.2650113,"lon":118.6413938,"elevationM":749},{"id":"node:9143661119","kind":"peak","name":"和尚尖","lat":30.2846282,"lon":118.6499122,"elevationM":719},{"id":"node:9143661120","kind":"peak","name":"吴培岗","lat":30.3181729,"lon":118.6900926,"elevationM":655},{"id":"node:9144174018","kind":"peak","name":"栏杆石","lat":30.0922387,"lon":118.3093743,"elevationM":1398},{"id":"node:9144202221","kind":"peak","name":"万箩山","lat":30.2124486,"lon":118.5368953,"elevationM":737},{"id":"node:9144202222","kind":"peak","name":"石洞岭","lat":30.2013035,"lon":118.5300807,"elevationM":468},{"id":"node:9144202223","kind":"peak","name":"梅王尖","lat":30.2448619,"lon":118.5553381,"elevationM":652},{"id":"node:9144202224","kind":"peak","name":"龙山","lat":30.2394606,"lon":118.5531725,"elevationM":null},{"id":"node:9144202225","kind":"peak","name":"牛头山","lat":30.2442189,"lon":118.5608724,"elevationM":648},{"id":"node:9144202226","kind":"peak","name":"山家岭","lat":30.2347461,"lon":118.551946,"elevationM":null},{"id":"node:9153508740","kind":"peak","name":"天星洞山","lat":30.1226394,"lon":118.349324,"elevationM":1144},{"id":"node:9153521494","kind":"peak","name":"天顶","lat":30.0906577,"lon":118.3318203,"elevationM":null},{"id":"node:9153521495","kind":"peak","name":"凤盔尖","lat":30.1014013,"lon":118.3385722,"elevationM":null},{"id":"node:9153521496","kind":"peak","name":"大岗头","lat":30.077931,"lon":118.3306292,"elevationM":1087},{"id":"node:9156762558","kind":"peak","name":"火云山","lat":30.5206044,"lon":118.3245835,"elevationM":812},{"id":"node:9156762559","kind":"peak","name":"东流山","lat":30.4875687,"lon":118.3123512,"elevationM":835},{"id":"node:9156777692","kind":"peak","name":"赤坑山","lat":30.4269607,"lon":118.3562374,"elevationM":1017},{"id":"node:9156777693","kind":"peak","name":"龙王坑","lat":30.409466,"lon":118.4802985,"elevationM":681},{"id":"node:9156777694","kind":"peak","name":"磨盘山","lat":30.4362097,"lon":118.5707806,"elevationM":1027},{"id":"node:9156777695","kind":"peak","name":"吴岭头","lat":30.701116,"lon":118.3060767,"elevationM":563},{"id":"node:9156783715","kind":"peak","name":"唐山","lat":30.4859685,"lon":118.6062425,"elevationM":1032},{"id":"node:9156783716","kind":"peak","name":"桃岭","lat":30.4896295,"lon":118.5825178,"elevationM":848},{"id":"node:9156792517","kind":"peak","name":"桃子尖","lat":30.4765417,"lon":118.513696,"elevationM":916},{"id":"node:9156792518","kind":"peak","name":"感庆山","lat":30.51975,"lon":118.5594124,"elevationM":925},{"id":"node:9156798638","kind":"peak","name":"望村岭","lat":30.4456918,"lon":118.5111761,"elevationM":628},{"id":"node:9156798639","kind":"peak","name":"夫人尖","lat":30.5415746,"lon":118.4860738,"elevationM":715},{"id":"node:9156803676","kind":"peak","name":"洋桃岭","lat":30.6708966,"lon":118.6422702,"elevationM":742},{"id":"node:9156803677","kind":"peak","name":"乌眉岭","lat":30.6707358,"lon":118.5968899,"elevationM":745},{"id":"node:9156803678","kind":"peak","name":"大峰尖","lat":30.6874098,"lon":118.6037039,"elevationM":706},{"id":"node:9156803997","kind":"peak","name":"蜡烛钎","lat":30.5383628,"lon":118.5828992,"elevationM":948},{"id":"node:9156803998","kind":"peak","name":"鸡公石","lat":30.5433281,"lon":118.5747985,"elevationM":645},{"id":"node:9156803999","kind":"peak","name":"金竹山","lat":30.5601907,"lon":118.5715764,"elevationM":796},{"id":"node:9156805119","kind":"peak","name":"朱砂山","lat":30.5971159,"lon":118.5464192,"elevationM":713},{"id":"node:9156805120","kind":"peak","name":"大岗坑脑","lat":30.5456811,"lon":118.5944691,"elevationM":935},{"id":"node:9156805122","kind":"peak","name":"罗汉肚子","lat":30.5956291,"lon":118.6554676,"elevationM":852},{"id":"node:9156805947","kind":"peak","name":"白蛇坑山","lat":30.5764134,"lon":118.6377587,"elevationM":865},{"id":"node:9156823441","kind":"peak","name":"土岭岗","lat":30.4712445,"lon":118.5958533,"elevationM":919},{"id":"node:9156823442","kind":"peak","name":"天竺山","lat":30.592665,"lon":118.7426155,"elevationM":820},{"id":"node:9156823443","kind":"peak","name":"父子岭","lat":30.5758365,"lon":118.7480013,"elevationM":null},{"id":"node:9156823445","kind":"peak","name":"黄花山","lat":30.5742448,"lon":118.7683512,"elevationM":785},{"id":"node:9156824784","kind":"peak","name":"梅岭","lat":30.4919046,"lon":118.6161915,"elevationM":975},{"id":"node:9156826046","kind":"peak","name":"老虎坪","lat":30.4844843,"lon":118.592712,"elevationM":825},{"id":"node:9156826049","kind":"peak","name":"纱帽山","lat":30.6224589,"lon":118.5733455,"elevationM":899},{"id":"node:9156855819","kind":"peak","name":"黄麻山","lat":30.5623297,"lon":118.5809435,"elevationM":837},{"id":"node:9156874356","kind":"peak","name":"承流山","lat":30.55224,"lon":118.3458969,"elevationM":823},{"id":"node:9156874357","kind":"peak","name":"放牛郎","lat":30.4694397,"lon":118.3682659,"elevationM":937},{"id":"node:9156874358","kind":"peak","name":"小龙山","lat":30.4752467,"lon":118.3622363,"elevationM":905},{"id":"node:9156874359","kind":"peak","name":"博道岭","lat":30.4608025,"lon":118.3636739,"elevationM":895},{"id":"node:9156874362","kind":"peak","name":"阳山","lat":30.4437443,"lon":118.379819,"elevationM":682},{"id":"node:9156877453","kind":"peak","name":"将军山","lat":30.4471645,"lon":118.4047529,"elevationM":292},{"id":"node:9156877454","kind":"peak","name":"举山","lat":30.4560848,"lon":118.4119087,"elevationM":558},{"id":"node:9156877455","kind":"peak","name":"龙头山","lat":30.3862273,"lon":118.3916865,"elevationM":758},{"id":"node:9156877456","kind":"peak","name":"阴山","lat":30.4050224,"lon":118.3487262,"elevationM":980},{"id":"node:9156877457","kind":"peak","name":"濂岭","lat":30.4093072,"lon":118.3532992,"elevationM":934},{"id":"node:9156890415","kind":"peak","name":"高石壁","lat":30.425315,"lon":118.5431746,"elevationM":894},{"id":"node:9156891329","kind":"peak","name":"万龙尖","lat":30.3979471,"lon":118.3330256,"elevationM":963},{"id":"node:9156891330","kind":"peak","name":"桃子山","lat":30.3897618,"lon":118.335553,"elevationM":null},{"id":"node:9156891331","kind":"peak","name":"叶家窝","lat":30.4051491,"lon":118.3153938,"elevationM":927},{"id":"node:9156902025","kind":"peak","name":"煤山","lat":30.429385,"lon":118.2690091,"elevationM":665},{"id":"node:9156902026","kind":"peak","name":"麻岭头","lat":30.3831061,"lon":118.2732552,"elevationM":550},{"id":"node:9156902033","kind":"peak","name":"天鹅荡","lat":30.3948366,"lon":118.2910973,"elevationM":894},{"id":"node:9156904494","kind":"peak","name":"丹山","lat":30.5154586,"lon":118.1046088,"elevationM":762},{"id":"node:9156904496","kind":"peak","name":"铜峰山","lat":30.5380104,"lon":118.0948987,"elevationM":525},{"id":"node:9156904498","kind":"peak","name":"岑山","lat":30.5365942,"lon":118.0099102,"elevationM":578},{"id":"node:9158090649","kind":"peak","name":"白马山","lat":30.5509931,"lon":118.4606465,"elevationM":709},{"id":"node:9158132677","kind":"peak","name":"大坞尖","lat":30.5968691,"lon":118.8335369,"elevationM":746},{"id":"node:9158151510","kind":"peak","name":"游马尖","lat":30.587576,"lon":118.4790958,"elevationM":647},{"id":"node:9158152757","kind":"peak","name":"太山头","lat":30.5330819,"lon":118.4197111,"elevationM":655},{"id":"node:9158152758","kind":"peak","name":"百花尖","lat":30.5574124,"lon":118.5099298,"elevationM":820},{"id":"node:9158245882","kind":"peak","name":"燕子坪","lat":30.6401072,"lon":118.6672571,"elevationM":867},{"id":"node:9158245883","kind":"peak","name":"柏枧山","lat":30.6572162,"lon":118.807792,"elevationM":995},{"id":"node:9158245884","kind":"peak","name":"白马平山","lat":30.685208,"lon":118.7949019,"elevationM":726},{"id":"node:9158245885","kind":"peak","name":"飞稻尖","lat":30.6186503,"lon":118.7844173,"elevationM":null},{"id":"node:9158245886","kind":"peak","name":"大岭头","lat":30.6119635,"lon":118.7974298,"elevationM":785},{"id":"node:9159708126","kind":"peak","name":"笔架山","lat":30.4242087,"lon":118.4923665,"elevationM":706},{"id":"node:9159708127","kind":"peak","name":"红沙坑","lat":30.6478362,"lon":118.6696868,"elevationM":751},{"id":"node:9159713231","kind":"peak","name":"齐云山","lat":30.4585152,"lon":118.2584528,"elevationM":750},{"id":"node:9159713232","kind":"peak","name":"香炉墩","lat":30.5714541,"lon":118.1280981,"elevationM":null},{"id":"node:9159713233","kind":"peak","name":"宝峰崖","lat":30.565128,"lon":118.099961,"elevationM":456},{"id":"node:9159713234","kind":"peak","name":"笠帽顶","lat":30.5742918,"lon":118.1041882,"elevationM":538},{"id":"node:9159713235","kind":"peak","name":"白沙山","lat":30.5871866,"lon":118.1019004,"elevationM":681},{"id":"node:9159713236","kind":"peak","name":"蓝山","lat":30.5934105,"lon":118.1871418,"elevationM":582},{"id":"node:9159713237","kind":"peak","name":"丁山","lat":30.5911571,"lon":118.1790523,"elevationM":666},{"id":"node:9159713238","kind":"peak","name":"四脚山","lat":30.5884418,"lon":118.1624011,"elevationM":714},{"id":"node:9159735370","kind":"peak","name":"冰山","lat":30.6250517,"lon":118.0732585,"elevationM":729},{"id":"node:9159735371","kind":"peak","name":"仙峰山","lat":30.714282,"lon":118.6126769,"elevationM":544},{"id":"node:9159735372","kind":"peak","name":"项山庵","lat":30.7196317,"lon":118.5983862,"elevationM":575},{"id":"node:9159741957","kind":"peak","name":"传山顶","lat":30.5016905,"lon":118.0090701,"elevationM":610},{"id":"node:9159741962","kind":"peak","name":"天河尖","lat":30.5766728,"lon":118.0138126,"elevationM":665},{"id":"node:9159746559","kind":"peak","name":"螺蛳旋","lat":30.5097102,"lon":118.3484358,"elevationM":817},{"id":"node:9159746560","kind":"peak","name":"芦盖山","lat":30.4719498,"lon":118.2956203,"elevationM":590},{"id":"node:9159749026","kind":"peak","name":"官坑山","lat":30.6630679,"lon":118.6489081,"elevationM":741},{"id":"node:9161884625","kind":"peak","name":"巫呈山","lat":30.638493,"lon":118.6074231,"elevationM":548},{"id":"node:9162478015","kind":"peak","name":"华云山","lat":30.412172,"lon":118.5710562,"elevationM":1002},{"id":"node:9162478016","kind":"peak","name":"玉屏山","lat":30.4020817,"lon":118.5281518,"elevationM":808},{"id":"node:9163687647","kind":"peak","name":"破塘尖","lat":30.1431502,"lon":118.4816216,"elevationM":null},{"id":"node:9166287122","kind":"peak","name":"金竹尖","lat":30.4380137,"lon":118.9320907,"elevationM":null},{"id":"node:9166287123","kind":"peak","name":"阳壕山","lat":30.4365809,"lon":118.9481981,"elevationM":971},{"id":"node:9166293043","kind":"peak","name":"阴山","lat":30.381135,"lon":118.9731072,"elevationM":1105},{"id":"node:9166296469","kind":"peak","name":"桃花岩","lat":30.4099141,"lon":118.9228291,"elevationM":null},{"id":"node:9166296470","kind":"peak","name":"玉屏山","lat":30.423639,"lon":118.9015867,"elevationM":null},{"id":"node:9176087525","kind":"peak","name":"游山","lat":30.474895,"lon":118.0796209,"elevationM":867},{"id":"node:9176102913","kind":"peak","name":"青山","lat":30.0776392,"lon":118.1322296,"elevationM":1301},{"id":"node:9229326896","kind":"peak","name":"平天矼","lat":30.1353031,"lon":118.1607776,"elevationM":1822},{"id":"node:9229359892","kind":"peak","name":"蛤蟆峰","lat":30.1139628,"lon":118.1778769,"elevationM":1455},{"id":"node:9229371277","kind":"peak","name":"圣泉峰","lat":30.1189341,"lon":118.1635242,"elevationM":1511},{"id":"node:9229373063","kind":"peak","name":"胜莲峰","lat":30.1277901,"lon":118.1647233,"elevationM":1835},{"id":"node:9229375514","kind":"peak","name":"容成峰","lat":30.1292191,"lon":118.1604103,"elevationM":1724},{"id":"node:9229390719","kind":"peak","name":"耕云峰","lat":30.1216466,"lon":118.1736512,"elevationM":1717},{"id":"node:9229397763","kind":"peak","name":"棋石峰","lat":30.137997,"lon":118.1656674,"elevationM":1812},{"id":"node:9229403401","kind":"peak","name":"石床峰","lat":30.1352876,"lon":118.15599,"elevationM":1683},{"id":"node:9229403402","kind":"peak","name":"石人峰","lat":30.1376259,"lon":118.1527499,"elevationM":1111},{"id":"node:9229403403","kind":"peak","name":"云际峰","lat":30.1268992,"lon":118.1520419,"elevationM":1720},{"id":"node:9661926535","kind":"peak","name":"杨岭","lat":30.2490343,"lon":118.0085566,"elevationM":538},{"id":"node:9661968009","kind":"peak","name":"虹山","lat":30.2414062,"lon":118.2204826,"elevationM":670},{"id":"node:9661969752","kind":"peak","name":"百步山","lat":30.2041939,"lon":118.0434639,"elevationM":783},{"id":"node:9661969753","kind":"peak","name":"马鞍山","lat":30.1970491,"lon":118.0474532,"elevationM":null},{"id":"node:9661997365","kind":"peak","name":"大阴山","lat":30.1954989,"lon":118.1062165,"elevationM":958},{"id":"node:9661998283","kind":"peak","name":"凤形山","lat":30.1825323,"lon":118.0202749,"elevationM":655},{"id":"node:9661999238","kind":"peak","name":"鹤山","lat":30.2088686,"lon":118.1174219,"elevationM":920},{"id":"node:9662001148","kind":"peak","name":"阳边山","lat":30.2176695,"lon":118.0122993,"elevationM":780},{"id":"node:9662004379","kind":"peak","name":"亚峰尖","lat":30.3285927,"lon":118.2041079,"elevationM":754},{"id":"node:9662016891","kind":"peak","name":"凤凰尖","lat":30.3747118,"lon":118.1666647,"elevationM":709},{"id":"node:9662019783","kind":"peak","name":"竹垄岗","lat":30.3227815,"lon":118.070568,"elevationM":653},{"id":"node:9662019784","kind":"peak","name":"磨盘尖","lat":30.3226757,"lon":118.0791775,"elevationM":682},{"id":"node:9662022271","kind":"peak","name":"黄梅尖","lat":30.4002396,"lon":118.1702166,"elevationM":573},{"id":"node:9662022272","kind":"peak","name":"龙王山","lat":30.318333,"lon":118.3050942,"elevationM":940},{"id":"node:9662022273","kind":"peak","name":"双龙尖","lat":30.2963126,"lon":118.315418,"elevationM":988},{"id":"node:9662035265","kind":"peak","name":"雾山","lat":30.3192662,"lon":118.1198654,"elevationM":716},{"id":"node:9662049921","kind":"peak","name":"天山","lat":30.1981653,"lon":118.3084261,"elevationM":791},{"id":"node:9662049922","kind":"peak","name":"观音崖","lat":30.1612564,"lon":118.3503663,"elevationM":797},{"id":"node:9662052115","kind":"peak","name":"大山","lat":30.446331,"lon":118.0048374,"elevationM":759},{"id":"node:9670221052","kind":"peak","name":"三县尖","lat":30.0268308,"lon":118.0990095,"elevationM":853},{"id":"node:9735238786","kind":"peak","name":"扁担凹","lat":30.2987859,"lon":118.6099349,"elevationM":811},{"id":"node:9735238787","kind":"peak","name":"邵顶岗","lat":30.2957809,"lon":118.6158804,"elevationM":887},{"id":"node:9736239877","kind":"peak","name":"马鞍山","lat":30.3136918,"lon":118.3487032,"elevationM":769},{"id":"node:9736239878","kind":"peak","name":"蚂蟥尖","lat":30.3488096,"lon":118.4239155,"elevationM":789},{"id":"node:9736254273","kind":"peak","name":"东山","lat":30.3830431,"lon":118.4612307,"elevationM":625},{"id":"node:9736272095","kind":"peak","name":"大洪山","lat":30.2262541,"lon":118.4161946,"elevationM":999},{"id":"node:9736272106","kind":"peak","name":"羊子岗","lat":30.3549126,"lon":118.3102832,"elevationM":806},{"id":"node:9736272107","kind":"peak","name":"驮鼓岭","lat":30.3134617,"lon":118.3127349,"elevationM":780},{"id":"node:9736272108","kind":"peak","name":"桃古岭","lat":30.307874,"lon":118.3172178,"elevationM":778},{"id":"node:9736274740","kind":"peak","name":"牛山","lat":30.2933831,"lon":118.4599063,"elevationM":1031},{"id":"node:9736274741","kind":"peak","name":"安山","lat":30.262262,"lon":118.4696679,"elevationM":984},{"id":"node:9736275101","kind":"peak","name":"洋山","lat":30.1947723,"lon":118.3437568,"elevationM":null},{"id":"node:9736275102","kind":"peak","name":"谢家大山","lat":30.2038574,"lon":118.285749,"elevationM":575},{"id":"node:9736275103","kind":"peak","name":"雀岭","lat":30.1707253,"lon":118.3278499,"elevationM":null},{"id":"node:9736275491","kind":"peak","name":"西山","lat":30.2886492,"lon":118.5145425,"elevationM":600},{"id":"node:9736275618","kind":"peak","name":"梨山尖","lat":30.2041744,"lon":118.4214237,"elevationM":838},{"id":"node:9736285434","kind":"peak","name":"铁帽山","lat":30.1685857,"lon":118.3805853,"elevationM":null},{"id":"node:9736369573","kind":"peak","name":"老鸦山","lat":30.3839797,"lon":118.8623225,"elevationM":734},{"id":"node:9812031249","kind":"peak","name":"阳龙尖","lat":30.1200159,"lon":118.0378271,"elevationM":822},{"id":"node:9812077629","kind":"peak","name":"汪家","lat":30.0840553,"lon":118.2525226,"elevationM":1216},{"id":"node:9812323668","kind":"peak","name":"翚岭头","lat":30.105552,"lon":118.5344453,"elevationM":null},{"id":"node:9812326755","kind":"peak","name":"阴窝山","lat":30.12423,"lon":118.4764438,"elevationM":null},{"id":"node:9812403866","kind":"peak","name":"黄柏山","lat":30.1245933,"lon":118.3648692,"elevationM":1270},{"id":"node:9812425035","kind":"peak","name":"大坞尖","lat":30.1210754,"lon":118.3833814,"elevationM":1295},{"id":"node:9812441820","kind":"peak","name":"黄会山","lat":30.173428,"lon":118.4120977,"elevationM":1024},{"id":"node:9812453489","kind":"peak","name":"雷鼓尖","lat":30.1803979,"lon":118.4237173,"elevationM":1131},{"id":"node:9812455806","kind":"peak","name":"大坞尖","lat":30.0477558,"lon":118.3508292,"elevationM":775},{"id":"node:9812457065","kind":"peak","name":"涌狮山","lat":30.1448501,"lon":118.4322014,"elevationM":663},{"id":"node:9812473998","kind":"peak","name":"东岗凹","lat":30.0031804,"lon":118.2759344,"elevationM":788},{"id":"node:9812511031","kind":"peak","name":"大孔尖","lat":30.0415557,"lon":118.2272733,"elevationM":842},{"id":"node:9812513623","kind":"peak","name":"四角兴","lat":30.0299003,"lon":118.3041716,"elevationM":906},{"id":"node:9812513624","kind":"peak","name":"大岭","lat":30.0250875,"lon":118.2633887,"elevationM":761},{"id":"node:9818814484","kind":"peak","name":"大塆尖","lat":30.2400106,"lon":118.9691622,"elevationM":1233},{"id":"node:9818830527","kind":"peak","name":"阴木山","lat":30.2227295,"lon":118.9909065,"elevationM":1338},{"id":"node:9818836386","kind":"peak","name":"苏坞尖","lat":30.0451885,"lon":118.9607436,"elevationM":1178},{"id":"node:9818836387","kind":"peak","name":"七峰尖","lat":30.0430409,"lon":118.9807694,"elevationM":1140},{"id":"node:9818883923","kind":"peak","name":"秀峰尖","lat":30.1063064,"lon":118.987443,"elevationM":636},{"id":"node:9818890217","kind":"peak","name":"石岩坞","lat":30.0470968,"lon":118.9311945,"elevationM":756},{"id":"node:9825458268","kind":"peak","name":"丹阳岗","lat":30.0160458,"lon":118.9052483,"elevationM":1099},{"id":"node:9825477228","kind":"peak","name":"柴金岩","lat":30.0925035,"lon":118.9131008,"elevationM":1025},{"id":"node:9833039164","kind":"peak","name":"大盆山","lat":30.1095919,"lon":118.938295,"elevationM":873},{"id":"node:9833052135","kind":"peak","name":"铁炉山","lat":30.1532432,"lon":118.9473256,"elevationM":820},{"id":"node:9833052136","kind":"peak","name":"大柴头","lat":30.1575786,"lon":118.9290459,"elevationM":1179},{"id":"node:9833389004","kind":"peak","name":"宁国尖","lat":30.299267,"lon":118.901564,"elevationM":705},{"id":"node:9833413462","kind":"peak","name":"金岗山","lat":30.2866486,"lon":118.8969661,"elevationM":671},{"id":"node:9833413528","kind":"peak","name":"仙灵山","lat":30.2863357,"lon":118.9120083,"elevationM":653},{"id":"node:9838679628","kind":"peak","name":"竹坞岭","lat":30.3077339,"lon":118.9496875,"elevationM":711},{"id":"node:9838687572","kind":"peak","name":"五渡坑山","lat":30.2120418,"lon":118.9981921,"elevationM":1358},{"id":"node:9838698422","kind":"peak","name":"庄沙岭","lat":30.0730609,"lon":118.8952745,"elevationM":907},{"id":"node:9841402126","kind":"peak","name":"高岗","lat":30.3671955,"lon":118.951378,"elevationM":980},{"id":"node:9841504754","kind":"peak","name":"前山尖","lat":30.1584044,"lon":118.8008403,"elevationM":1230},{"id":"node:9841504755","kind":"peak","name":"𱖇坑鿍","lat":30.1597314,"lon":118.8351854,"elevationM":1178},{"id":"node:9841506330","kind":"peak","name":"上仁源头","lat":30.1218416,"lon":118.8694167,"elevationM":1457},{"id":"node:9841521103","kind":"peak","name":"石猪栏","lat":30.1342062,"lon":118.8825287,"elevationM":1500},{"id":"node:9841522307","kind":"peak","name":"栈岭源头","lat":30.1397492,"lon":118.885257,"elevationM":1300},{"id":"node:9841535073","kind":"peak","name":"交椅形","lat":30.1269245,"lon":118.8231955,"elevationM":1011},{"id":"node:9841547943","kind":"peak","name":"清水鿍","lat":30.1350211,"lon":118.8752644,"elevationM":1309},{"id":"node:9841548695","kind":"peak","name":"上源培","lat":30.1299929,"lon":118.8340715,"elevationM":1280},{"id":"node:9841569732","kind":"peak","name":"东凹","lat":30.1309112,"lon":118.8805322,"elevationM":1384},{"id":"node:9841577013","kind":"peak","name":"罗燕石湾","lat":30.1319193,"lon":118.8621207,"elevationM":1157},{"id":"node:9841639297","kind":"peak","name":"放峰头","lat":30.1402339,"lon":118.8592899,"elevationM":1094},{"id":"node:9854865910","kind":"peak","name":"千山岭","lat":30.2354433,"lon":118.7917479,"elevationM":553},{"id":"node:9854877960","kind":"peak","name":"梓棚山","lat":30.2430336,"lon":118.7580754,"elevationM":736},{"id":"node:9854897439","kind":"peak","name":"窑鿍","lat":30.1414719,"lon":118.8696069,"elevationM":1021},{"id":"node:9854902518","kind":"peak","name":"高岭头","lat":30.1447276,"lon":118.8797284,"elevationM":1105},{"id":"node:9855646444","kind":"peak","name":"许家坟","lat":30.2011504,"lon":118.6844204,"elevationM":605},{"id":"node:9855646445","kind":"peak","name":"大冲石","lat":30.2100623,"lon":118.7144841,"elevationM":726},{"id":"node:9899867735","kind":"peak","name":"杉木岭","lat":30.0071844,"lon":118.9636044,"elevationM":1164},{"id":"node:9946448361","kind":"peak","name":"铁帽山","lat":30.3351263,"lon":118.8391053,"elevationM":764},{"id":"node:9946541782","kind":"peak","name":"灰石山","lat":30.3389165,"lon":118.8283441,"elevationM":650},{"id":"node:9946664320","kind":"peak","name":"黄毛尖","lat":30.3023149,"lon":118.8231589,"elevationM":789},{"id":"node:9984727993","kind":"peak","name":"大垄山","lat":30.0593433,"lon":118.7918492,"elevationM":1077},{"id":"node:9984738556","kind":"peak","name":"黄坛山","lat":30.0594682,"lon":118.8100802,"elevationM":861},{"id":"node:10026096394","kind":"peak","name":"青龙岗","lat":30.0706617,"lon":118.9802771,"elevationM":705},{"id":"node:10026709005","kind":"peak","name":"和尚尖","lat":30.0400239,"lon":118.7953143,"elevationM":null},{"id":"node:10039578570","kind":"peak","name":"黄茅坪","lat":30.0773161,"lon":118.9449408,"elevationM":858},{"id":"node:10039625357","kind":"peak","name":"大畈里","lat":30.0701825,"lon":118.9283459,"elevationM":572},{"id":"node:10075138310","kind":"peak","name":"岩顶山","lat":30.037318,"lon":118.7325255,"elevationM":667},{"id":"node:10075139325","kind":"peak","name":"大马坦","lat":30.064523,"lon":118.8009784,"elevationM":912},{"id":"node:10075146560","kind":"peak","name":"弯弓垄","lat":30.0589967,"lon":118.8675926,"elevationM":854},{"id":"node:10075153131","kind":"peak","name":"骡仓","lat":30.0211278,"lon":118.8708879,"elevationM":1073},{"id":"node:10077448858","kind":"peak","name":"大花尖","lat":30.0122185,"lon":118.8118402,"elevationM":731},{"id":"node:10108207305","kind":"peak","name":"红石壁","lat":30.6590469,"lon":118.6058384,"elevationM":670},{"id":"node:10123012559","kind":"peak","name":"五龙过谷","lat":30.0934059,"lon":118.379174,"elevationM":1295},{"id":"node:10123100027","kind":"peak","name":"新庵","lat":30.1085846,"lon":118.3421143,"elevationM":1040},{"id":"node:10123100028","kind":"peak","name":"金鸡石","lat":30.057775,"lon":118.3282346,"elevationM":860},{"id":"node:10123135643","kind":"peak","name":"放牛坦","lat":30.0975388,"lon":118.3652746,"elevationM":1031},{"id":"node:10212087466","kind":"peak","name":"西坑山","lat":30.483608,"lon":118.5493928,"elevationM":810},{"id":"node:10212119524","kind":"peak","name":"南山","lat":30.4425521,"lon":118.5895515,"elevationM":805},{"id":"node:10212119525","kind":"peak","name":"涧口石坑","lat":30.4437136,"lon":118.5805172,"elevationM":905},{"id":"node:10212139576","kind":"peak","name":"盘坑山","lat":30.4207434,"lon":118.5545073,"elevationM":965},{"id":"node:10212140988","kind":"peak","name":"大敏坑","lat":30.4368902,"lon":118.526667,"elevationM":814},{"id":"node:10212146029","kind":"peak","name":"涌溪北山","lat":30.4598596,"lon":118.5203011,"elevationM":750},{"id":"node:10212146707","kind":"peak","name":"石井坑","lat":30.4800206,"lon":118.5329254,"elevationM":930},{"id":"node:10212172491","kind":"peak","name":"羊皮坦","lat":30.5072325,"lon":118.5641959,"elevationM":755},{"id":"node:10212186350","kind":"peak","name":"枧槽坑","lat":30.5644022,"lon":118.5080252,"elevationM":886},{"id":"node:10212190828","kind":"peak","name":"五万坑","lat":30.5070966,"lon":118.534479,"elevationM":931},{"id":"node:10212212637","kind":"peak","name":"马家岭","lat":30.5568841,"lon":118.5854244,"elevationM":879},{"id":"node:10212215261","kind":"peak","name":"姚家脑","lat":30.5384016,"lon":118.6105209,"elevationM":852},{"id":"node:10212225040","kind":"peak","name":"黄莲坑","lat":30.5224738,"lon":118.5898175,"elevationM":815},{"id":"node:10212284705","kind":"peak","name":"方坑山","lat":30.5269545,"lon":118.585336,"elevationM":852},{"id":"node:10212300790","kind":"peak","name":"桃岭坑","lat":30.5106941,"lon":118.58487,"elevationM":825},{"id":"node:10213801381","kind":"peak","name":"泗水坑","lat":30.5909224,"lon":118.5991738,"elevationM":659},{"id":"node:10213828707","kind":"peak","name":"九里坑","lat":30.6052281,"lon":118.5818414,"elevationM":833},{"id":"node:10213838956","kind":"peak","name":"阴山","lat":30.5719775,"lon":118.5334724,"elevationM":561},{"id":"node:10213840899","kind":"peak","name":"鹞子山","lat":30.5866236,"lon":118.5333749,"elevationM":495},{"id":"node:10213859443","kind":"peak","name":"杨山头","lat":30.5635848,"lon":118.4939226,"elevationM":688},{"id":"node:10213863030","kind":"peak","name":"河西山","lat":30.58121,"lon":118.5177804,"elevationM":691},{"id":"node:10213865044","kind":"peak","name":"枫树园","lat":30.5796059,"lon":118.5054442,"elevationM":775},{"id":"node:10213872559","kind":"peak","name":"金紫山","lat":30.5683813,"lon":118.5817663,"elevationM":812},{"id":"node:10213881518","kind":"peak","name":"九峰山","lat":30.5262374,"lon":118.4770104,"elevationM":538},{"id":"node:10213892958","kind":"peak","name":"乔坑","lat":30.5852754,"lon":118.6315262,"elevationM":744},{"id":"node:10213903632","kind":"peak","name":"大南坑","lat":30.5658227,"lon":118.598029,"elevationM":688},{"id":"node:10219311497","kind":"peak","name":"笔架山","lat":30.4215702,"lon":118.3845356,"elevationM":761},{"id":"node:10219311498","kind":"peak","name":"马兰坑","lat":30.4232862,"lon":118.3662713,"elevationM":916},{"id":"node:10219318192","kind":"peak","name":"南山坪","lat":30.4378232,"lon":118.3704805,"elevationM":803},{"id":"node:10219333725","kind":"peak","name":"吉立坑","lat":30.4629957,"lon":118.3836774,"elevationM":620},{"id":"node:10219365724","kind":"peak","name":"百户坑","lat":30.4418617,"lon":118.3468557,"elevationM":904},{"id":"node:10219365725","kind":"peak","name":"蜜蜂洞山","lat":30.4317399,"lon":118.3465795,"elevationM":917},{"id":"node:10219365726","kind":"peak","name":"憨头尖","lat":30.5057528,"lon":118.3291623,"elevationM":794},{"id":"node:10219741683","kind":"peak","name":"黄岭","lat":30.6687804,"lon":118.55283,"elevationM":603},{"id":"node:10219743740","kind":"peak","name":"背后山","lat":30.674379,"lon":118.5723505,"elevationM":424},{"id":"node:10219750080","kind":"peak","name":"太平坑","lat":30.6540666,"lon":118.5546912,"elevationM":591},{"id":"node:10219769917","kind":"peak","name":"观音岭","lat":30.6392788,"lon":118.5670079,"elevationM":578},{"id":"node:10219773042","kind":"peak","name":"朝天洞","lat":30.6988931,"lon":118.6576785,"elevationM":718},{"id":"node:10219776863","kind":"peak","name":"旵山头","lat":30.6860264,"lon":118.5419974,"elevationM":633},{"id":"node:10219857806","kind":"peak","name":"十里坑","lat":30.6239785,"lon":118.5482426,"elevationM":700},{"id":"node:10219862282","kind":"peak","name":"大坞","lat":30.5640629,"lon":118.8398175,"elevationM":721},{"id":"node:10220850316","kind":"peak","name":"龙门坎","lat":30.5956399,"lon":118.4821338,"elevationM":674},{"id":"node:10220863483","kind":"peak","name":"灰坑山","lat":30.5778402,"lon":118.4169634,"elevationM":621},{"id":"node:10220863484","kind":"peak","name":"白水山","lat":30.5824771,"lon":118.419785,"elevationM":569},{"id":"node:10220877231","kind":"peak","name":"轿顶山","lat":30.5869311,"lon":118.4338734,"elevationM":434},{"id":"node:10223718642","kind":"peak","name":"狮子山","lat":30.4272856,"lon":118.3166652,"elevationM":897},{"id":"node:10223757028","kind":"peak","name":"濂坑口","lat":30.4483457,"lon":118.336583,"elevationM":713},{"id":"node:10225164698","kind":"peak","name":"俞家山","lat":30.5208627,"lon":118.3445943,"elevationM":731},{"id":"node:10225165424","kind":"peak","name":"下坑山","lat":30.5251522,"lon":118.1164838,"elevationM":728},{"id":"node:10225171229","kind":"peak","name":"老坑山","lat":30.4477224,"lon":118.2267725,"elevationM":607},{"id":"node:10225171230","kind":"peak","name":"麻岭坑山","lat":30.4607055,"lon":118.2131327,"elevationM":576},{"id":"node:10225178221","kind":"peak","name":"花尖岗","lat":30.4496156,"lon":118.1422298,"elevationM":533},{"id":"node:10225178222","kind":"peak","name":"陈家山","lat":30.4485693,"lon":118.157117,"elevationM":532},{"id":"node:10225199966","kind":"peak","name":"鸦雀山","lat":30.3830348,"lon":118.3257244,"elevationM":968},{"id":"node:10225212904","kind":"peak","name":"章家门山","lat":30.437459,"lon":118.2611077,"elevationM":657},{"id":"node:10225215948","kind":"peak","name":"茶粿山","lat":30.4519951,"lon":118.3225632,"elevationM":578},{"id":"node:10225218830","kind":"peak","name":"神仙洞山","lat":30.4882835,"lon":118.3334628,"elevationM":679},{"id":"node:10675497787","kind":"peak","name":"新兴岭","lat":30.0580454,"lon":118.0838917,"elevationM":1358},{"id":"node:11295388768","kind":"peak","name":"白鹅峰","lat":30.1394899,"lon":118.169521,"elevationM":1749},{"id":"node:11295389830","kind":"peak","name":"布水峰","lat":30.146564,"lon":118.2131754,"elevationM":1459},{"id":"node:11295398072","kind":"peak","name":"书箱峰","lat":30.1528358,"lon":118.16546,"elevationM":1536},{"id":"node:11295410313","kind":"peak","name":"仙女峰","lat":30.1509754,"lon":118.1979615,"elevationM":1650},{"id":"node:11295422355","kind":"peak","name":"仙都峰","lat":30.1366131,"lon":118.2003433,"elevationM":1513},{"id":"node:11295432298","kind":"peak","name":"上升峰","lat":30.1508621,"lon":118.1748703,"elevationM":1510},{"id":"node:11295434178","kind":"peak","name":"五老峰","lat":30.1562983,"lon":118.1878397,"elevationM":1485},{"id":"node:11378047542","kind":"peak","name":"猴狲岭","lat":30.234599,"lon":118.7790298,"elevationM":null},{"id":"node:11536397556","kind":"peak","name":"道人峰","lat":30.1830514,"lon":118.1993636,"elevationM":988},{"id":"node:11536401220","kind":"peak","name":"轩辕峰","lat":30.1654135,"lon":118.200571,"elevationM":1664},{"id":"node:11628679567","kind":"peak","name":"姚家坟","lat":30.3180047,"lon":118.6282443,"elevationM":821},{"id":"node:11628680871","kind":"peak","name":"龙王尖","lat":30.3305521,"lon":118.6359581,"elevationM":786},{"id":"node:11923356711","kind":"peak","name":"独山","lat":30.5993551,"lon":118.9308107,"elevationM":null},{"id":"node:12558506961","kind":"peak","name":"石笋峰","lat":30.1439252,"lon":118.1710822,"elevationM":null},{"id":"node:12558506962","kind":"peak","name":"始信峰","lat":30.1435887,"lon":118.1700947,"elevationM":null},{"id":"node:13191225940","kind":"peak","name":"西峰山","lat":30.7139929,"lon":118.4768629,"elevationM":183}]}