{"tileKey":"la_p0_lo_p32","version":"v1-1775891056926","entries":[{"id":"node:2613908991","kind":"peak","name":"Buziga Hill","lat":0.2547522,"lon":32.6150233,"elevationM":null},{"id":"node:3288540527","kind":"peak","name":"Naguru Hill","lat":0.3468947,"lon":32.6050117,"elevationM":1300},{"id":"node:3971573806","kind":"peak","name":"Banda Kyandaaza","lat":0.2650063,"lon":32.8217673,"elevationM":null},{"id":"node:3984123969","kind":"peak","name":"Makindye Hill","lat":0.2757048,"lon":32.5964622,"elevationM":null},{"id":"node:3992098486","kind":"peak","name":"Nakigalala hill","lat":0.2180316,"lon":32.5219343,"elevationM":1324},{"id":"node:3994157575","kind":"peak","name":"Prayer Mountain","lat":0.236677,"lon":32.5350844,"elevationM":null},{"id":"node:3994599538","kind":"peak","name":"Kitende Hill","lat":0.2050173,"lon":32.5354306,"elevationM":1325},{"id":"node:4150930695","kind":"peak","name":"Bethany Hill","lat":0.3510938,"lon":32.7447544,"elevationM":null},{"id":"node:4870698213","kind":"peak","name":"Nanio hill","lat":0.1629835,"lon":32.5501387,"elevationM":null},{"id":"node:4870698216","kind":"peak","name":"Duwe hill","lat":0.1711158,"lon":32.5648157,"elevationM":1227},{"id":"node:4870698217","kind":"peak","name":"Webaja hill","lat":0.1752357,"lon":32.5411908,"elevationM":1282},{"id":"node:4870698218","kind":"peak","name":"Kitovo Hill","lat":0.191007,"lon":32.522072,"elevationM":1155},{"id":"node:4870698220","kind":"peak","name":"Kkaga Hill","lat":0.1984743,"lon":32.4924819,"elevationM":1260},{"id":"node:4870698221","kind":"peak","name":"Busuwa hill","lat":0.170279,"lon":32.4699513,"elevationM":null},{"id":"node:4870698222","kind":"peak","name":"Sekiunga hill","lat":0.1606231,"lon":32.5368564,"elevationM":1305},{"id":"node:4876710632","kind":"peak","name":"Sekiwuga Hill","lat":0.1705497,"lon":32.5275177,"elevationM":1280},{"id":"node:4876710635","kind":"peak","name":"Mpumude Hill","lat":0.2025322,"lon":32.4548191,"elevationM":1321},{"id":"node:4876710638","kind":"peak","name":"Lamba hill","lat":0.2190116,"lon":32.4589175,"elevationM":null},{"id":"node:4876710639","kind":"peak","name":"Nsaggu hill","lat":0.2267792,"lon":32.482521,"elevationM":1260},{"id":"node:4876710640","kind":"peak","name":"Siunba hill","lat":0.2431942,"lon":32.4761266,"elevationM":1251},{"id":"node:4876710644","kind":"peak","name":"Mukono hill","lat":0.2646945,"lon":32.4748177,"elevationM":null},{"id":"node:4876710645","kind":"peak","name":"Nsangi hill","lat":0.2777032,"lon":32.453985,"elevationM":1306},{"id":"node:4876710646","kind":"peak","name":"Munkabira hill","lat":0.2236678,"lon":32.506854,"elevationM":null},{"id":"node:4876710651","kind":"peak","name":"Sisa hill","lat":0.1643378,"lon":32.501983,"elevationM":1288},{"id":"node:4876710652","kind":"peak","name":"Katwe hill","lat":0.1828395,"lon":32.4578983,"elevationM":null},{"id":"node:4927409101","kind":"peak","name":"Rubaga Hill","lat":0.3024987,"lon":32.5520165,"elevationM":null},{"id":"node:4927409102","kind":"peak","name":"Lubaga hill","lat":0.303121,"lon":32.5572629,"elevationM":1258},{"id":"node:4927409104","kind":"peak","name":"Nakasero Hill","lat":0.3240419,"lon":32.5788279,"elevationM":null},{"id":"node:4927409106","kind":"peak","name":"Lubya Hill","lat":0.3298741,"lon":32.5454874,"elevationM":null},{"id":"node:4927409107","kind":"peak","name":"Makerere Hill","lat":0.3310972,"lon":32.5684042,"elevationM":null},{"id":"node:4927409113","kind":"peak","name":"Mbuya Hill","lat":0.3263766,"lon":32.6290221,"elevationM":null},{"id":"node:4927409115","kind":"peak","name":"Muyenga Tank Hill","lat":0.2938257,"lon":32.6109118,"elevationM":null},{"id":"node:4927409117","kind":"peak","name":"Nkokonjeru hill","lat":0.2969638,"lon":32.4959618,"elevationM":null},{"id":"node:4938373132","kind":"peak","name":"Kololo Hill","lat":0.3340113,"lon":32.5930112,"elevationM":1311},{"id":"node:5158046898","kind":"peak","name":"Kisubi Semitary Hill","lat":0.1119642,"lon":32.5424688,"elevationM":null},{"id":"node:5158046899","kind":"peak","name":"Bugabu hill","lat":0.0903711,"lon":32.5440177,"elevationM":1188},{"id":"node:5158046900","kind":"peak","name":"Namotonga hill","lat":0.0759944,"lon":32.5530943,"elevationM":1203},{"id":"node:5158046901","kind":"peak","name":"Nalugala hill","lat":0.097259,"lon":32.5302419,"elevationM":1195},{"id":"node:5158046903","kind":"peak","name":"Mbozi hill","lat":0.1192316,"lon":32.5592527,"elevationM":1192},{"id":"node:5158046905","kind":"peak","name":"Sekiwinga hill","lat":0.1721313,"lon":32.5232856,"elevationM":1280},{"id":"node:5158046907","kind":"peak","name":"Nongolo hill","lat":0.1531132,"lon":32.4852452,"elevationM":null},{"id":"node:5158046909","kind":"peak","name":"Lutaba hill","lat":0.1477917,"lon":32.5153288,"elevationM":1252},{"id":"node:5158046910","kind":"peak","name":"Bendigeri hill","lat":0.059523,"lon":32.5227827,"elevationM":1206},{"id":"node:5513499183","kind":"peak","name":"Banowe hill","lat":0.2672692,"lon":32.5197001,"elevationM":1315},{"id":"node:5513499185","kind":"peak","name":"Namagoma hill","lat":0.2932495,"lon":32.4714697,"elevationM":null},{"id":"node:5513499186","kind":"peak","name":"Manja hill","lat":0.3018381,"lon":32.4414974,"elevationM":null},{"id":"node:5513499216","kind":"peak","name":"Mulole hill","lat":0.2080426,"lon":32.4095786,"elevationM":1273},{"id":"node:5513499218","kind":"peak","name":"Bulwangi hill","lat":0.2021957,"lon":32.4350924,"elevationM":1293},{"id":"node:5513499219","kind":"peak","name":"Bumpenge hill","lat":0.1888762,"lon":32.4254848,"elevationM":1287},{"id":"node:5513500022","kind":"peak","name":"Duleka hill","lat":0.2229836,"lon":32.4472571,"elevationM":1283},{"id":"node:5513500023","kind":"peak","name":"Nanziqu hill","lat":0.2292749,"lon":32.4422912,"elevationM":1284},{"id":"node:5519100006","kind":"peak","name":"Mutundwe hill","lat":0.2815184,"lon":32.5331423,"elevationM":1313},{"id":"node:6200115986","kind":"peak","name":"Buwaga hill","lat":0.1273565,"lon":32.5518371,"elevationM":1200},{"id":"node:6224753704","kind":"peak","name":"Gangu hill","lat":0.2420375,"lon":32.592834,"elevationM":1251},{"id":"node:7061770409","kind":"peak","name":"Buwerenga hill","lat":0.1034689,"lon":32.571845,"elevationM":1187},{"id":"node:7061770410","kind":"peak","name":"Luwunga hill","lat":0.1368569,"lon":32.5748062,"elevationM":1201},{"id":"node:7061962011","kind":"peak","name":"Sakabasolo hill","lat":0.1544522,"lon":32.4499654,"elevationM":1200},{"id":"node:7061962013","kind":"peak","name":"Kisinsi hill","lat":0.222773,"lon":32.6551866,"elevationM":1250},{"id":"node:7061962015","kind":"peak","name":"Ziranumbu hill","lat":0.2148338,"lon":32.5954055,"elevationM":1304},{"id":"node:7061962016","kind":"peak","name":"Mulunga Hill","lat":0.2149625,"lon":32.5767588,"elevationM":1292},{"id":"node:7061962018","kind":"peak","name":"Kibiri hill","lat":0.2304977,"lon":32.6007271,"elevationM":1237},{"id":"node:7061962019","kind":"peak","name":"Ntunda hill","lat":0.2640947,"lon":32.5817585,"elevationM":1269},{"id":"node:7061962029","kind":"peak","name":"Luwama hill","lat":0.0556505,"lon":32.510798,"elevationM":null},{"id":"node:7061962031","kind":"peak","name":"Tende hill","lat":0.044686,"lon":32.556477,"elevationM":null},{"id":"node:7076694458","kind":"peak","name":"Ndegi hill","lat":0.2472775,"lon":32.5762653,"elevationM":1258},{"id":"node:7077476940","kind":"peak","name":"Nakitokaro hill","lat":0.300449,"lon":32.46387,"elevationM":null},{"id":"node:8194851866","kind":"peak","name":"Nkumba Hill","lat":0.0856402,"lon":32.5135714,"elevationM":null},{"id":"node:8226166496","kind":"peak","name":"Nsamizi Hill","lat":0.0663391,"lon":32.4648169,"elevationM":1263},{"id":"node:8234492802","kind":"peak","name":"Katabi Hill","lat":0.0845164,"lon":32.4776539,"elevationM":1216},{"id":"node:8295043681","kind":"peak","name":"Buko Hill","lat":0.0540411,"lon":32.437166,"elevationM":1177},{"id":"node:8355833860","kind":"peak","name":"Karigwa","lat":0.1958438,"lon":32.2901916,"elevationM":1266},{"id":"node:8355833861","kind":"peak","name":"Mpambiri","lat":0.1936283,"lon":32.3015213,"elevationM":1314},{"id":"node:8355834329","kind":"peak","name":"Janya Hill","lat":0.1769129,"lon":32.3102492,"elevationM":1264},{"id":"node:8355834330","kind":"peak","name":"Bubezi","lat":0.1850936,"lon":32.319932,"elevationM":1270},{"id":"node:8355834331","kind":"peak","name":"Nseke","lat":0.1657067,"lon":32.2996652,"elevationM":1296},{"id":"node:8355834332","kind":"peak","name":"Sigi","lat":0.1426773,"lon":32.3079103,"elevationM":1229},{"id":"node:8355834333","kind":"peak","name":"Tonda","lat":0.1345073,"lon":32.299236,"elevationM":1250},{"id":"node:13282515782","kind":"peak","name":"BESANIYA PRAYER MOUNTAIN","lat":0.3529842,"lon":32.7438397,"elevationM":null}]}