{"tileKey":"la_p35_lo_m118","version":"v1-1775891056926","entries":[{"id":"node:358779882","kind":"peak","name":"Argus Peak","lat":35.8522949,"lon":-117.4465068,"elevationM":2000},{"id":"node:358780867","kind":"peak","name":"Black Mountain","lat":35.4750671,"lon":-117.8424709,"elevationM":1589},{"id":"node:358780873","kind":"peak","name":"Black Mountain","lat":35.140251,"lon":-117.239544,"elevationM":1201},{"id":"node:358781020","kind":"peak","name":"Boulder Peak","lat":35.7980058,"lon":-117.927295,"elevationM":1911},{"id":"node:358781153","kind":"peak","name":"Brown Mountain","lat":35.6863482,"lon":-117.0164328,"elevationM":1560},{"id":"node:358783017","kind":"peak","name":"Desert Butte","lat":35.0855255,"lon":-117.9381243,"elevationM":808},{"id":"node:358783113","kind":"peak","name":"Dome Mountain","lat":35.4285731,"lon":-117.5156126,"elevationM":1514},{"id":"node:358783261","kind":"peak","name":"Eagle Crags","lat":35.3994114,"lon":-117.061429,"elevationM":1623},{"id":"node:358783573","kind":"peak","name":"El Paso Peaks","lat":35.4760705,"lon":-117.7097849,"elevationM":1382},{"id":"node:358784071","kind":"peak","name":"Five Fingers","lat":35.6888418,"lon":-117.9089595,"elevationM":1542},{"id":"node:358784398","kind":"peak","name":"Fremont Peak","lat":35.1946918,"lon":-117.4553325,"elevationM":1362},{"id":"node:358784519","kind":"peak","name":"Galileo Hill","lat":35.2121894,"lon":-117.754229,"elevationM":1006},{"id":"node:358784918","kind":"peak","name":"Government Peak","lat":35.3516299,"lon":-117.6742276,"elevationM":1419},{"id":"node:358784987","kind":"peak","name":"Granite Mountain","lat":35.3644109,"lon":-117.2367139,"elevationM":1453},{"id":"node:358787012","kind":"peak","name":"Klinker Mountain","lat":35.4160732,"lon":-117.5550581,"elevationM":1372},{"id":"node:358788037","kind":"peak","name":"Lone Butte","lat":35.6660666,"lon":-117.5992285,"elevationM":992},{"id":"node:358788517","kind":"peak","name":"Manly Peak","lat":35.9150642,"lon":-117.1169637,"elevationM":2133},{"id":"node:358789434","kind":"peak","name":"Morris Peak","lat":35.69023,"lon":-117.9870172,"elevationM":2199},{"id":"node:358789644","kind":"peak","name":"Needle Peak","lat":35.8866207,"lon":-117.0275488,"elevationM":1749},{"id":"node:358790084","kind":"peak","name":"Opal Mountain","lat":35.1598428,"lon":-117.1868045,"elevationM":1204},{"id":"node:358791016","kind":"volcano","name":"Red Hill","lat":35.9871677,"lon":-117.9184086,"elevationM":1199},{"id":"node:358791038","kind":"peak","name":"Red Mountain","lat":35.3486846,"lon":-117.5841332,"elevationM":1580},{"id":"node:358791215","kind":"peak","name":"Robbers Mountain","lat":35.4716305,"lon":-117.1947673,"elevationM":1331},{"id":"node:358791495","kind":"peak","name":"Saddleback Mountain","lat":35.0596958,"lon":-117.6239481,"elevationM":938},{"id":"node:358792354","kind":"peak","name":"Sawtooth Peak","lat":35.8232823,"lon":-117.9989642,"elevationM":2435},{"id":"node:358792571","kind":"peak","name":"Sidney Peak","lat":35.324686,"lon":-117.7014504,"elevationM":1309},{"id":"node:358792727","kind":"peak","name":"Slocum Mountain","lat":35.2955244,"lon":-117.1997686,"elevationM":1541},{"id":"node:358793352","kind":"peak","name":"The Buttes","lat":35.0627241,"lon":-117.4108335,"elevationM":735},{"id":"node:358794263","kind":"peak","name":"Volcano Butte","lat":35.9871941,"lon":-117.6428241,"elevationM":1791},{"id":"node:358794266","kind":"peak","name":"Volcano Peak","lat":35.9557802,"lon":-117.8320166,"elevationM":1625},{"id":"node:358795169","kind":"peak","name":"Mount Jenkins","lat":35.7091185,"lon":-117.9925732,"elevationM":2396},{"id":"node:358795794","kind":"peak","name":"Pilot Knob","lat":35.3974656,"lon":-117.2261577,"elevationM":1657},{"id":"node:358795890","kind":"peak","name":"Straw Peak","lat":35.6208669,"lon":-117.1921437,"elevationM":1679},{"id":"node:358795893","kind":"peak","name":"Striped Butte","lat":35.9489236,"lon":-117.0718132,"elevationM":1446},{"id":"node:358796376","kind":"peak","name":"Castle Butte","lat":35.1141362,"lon":-117.8778445,"elevationM":949},{"id":"node:358796465","kind":"peak","name":"Red Buttes","lat":35.4207923,"lon":-117.9134011,"elevationM":949},{"id":"node:358804242","kind":"peak","name":"Almond Mountain","lat":35.3688531,"lon":-117.4603328,"elevationM":1266},{"id":"node:358804318","kind":"peak","name":"Laurel Mountain","lat":35.4799594,"lon":-117.6828396,"elevationM":1344},{"id":"node:358804365","kind":"peak","name":"Robbers Roost","lat":35.5916213,"lon":-117.948959,"elevationM":1220},{"id":"node:358808062","kind":"peak","name":"Fish Head Rocks","lat":35.6660676,"lon":-117.4295013,"elevationM":549},{"id":"node:358808423","kind":"peak","name":"Owens Peak","lat":35.7382844,"lon":-117.9970183,"elevationM":2574},{"id":"node:358808549","kind":"peak","name":"Point of Rocks","lat":35.7843983,"lon":-117.3656124,"elevationM":530},{"id":"node:358816113","kind":"peak","name":"Pyramid Point","lat":35.3880217,"lon":-117.205046,"elevationM":1405},{"id":"node:6351342480","kind":"peak","name":"Wells","lat":35.1624668,"lon":-117.0118269,"elevationM":1182},{"id":"node:6351638831","kind":"peak","name":"Spear","lat":35.1293702,"lon":-117.0701429,"elevationM":1244},{"id":"node:6355653785","kind":"peak","name":"Mesa","lat":35.1754032,"lon":-117.0708543,"elevationM":1261},{"id":"node:9133407865","kind":"peak","name":"Russell Peak","lat":35.6738179,"lon":-117.9580853,"elevationM":2041},{"id":"node:9133466919","kind":"peak","name":"Backus Peak","lat":35.6573559,"lon":-117.9348549,"elevationM":2027}]}