{"tileKey":"la_p57_lo_m125","version":"v1-1775891056926","entries":[{"id":"node:1783850068","kind":"peak","name":"Mount Penelope","lat":57.3324552,"lon":-124.0737917,"elevationM":2815},{"id":"node:6050960023","kind":"peak","name":"Mount Ulysses","lat":57.346396,"lon":-124.0932273,"elevationM":3024},{"id":"node:7856342961","kind":"peak","name":"Criccieth Mountain","lat":57.901024,"lon":-124.9718174,"elevationM":2849},{"id":"node:7856342977","kind":"peak","name":"Mount Lloyd George (East Summit)","lat":57.8954663,"lon":-124.9982352,"elevationM":2925},{"id":"node:7856350961","kind":"peak","name":"Mount Bedaux","lat":57.7945559,"lon":-124.8614463,"elevationM":2298},{"id":"node:7856351448","kind":"peak","name":"Mount Ford","lat":57.1897391,"lon":-124.0993738,"elevationM":2296},{"id":"node:8511238856","kind":"peak","name":"Taper Mountain","lat":57.0104049,"lon":-124.960515,"elevationM":1817},{"id":"node:10798023644","kind":"peak","name":"Montagnes Rocheuses","lat":57.1194113,"lon":-124.2562241,"elevationM":1178},{"id":"node:10821002211","kind":"peak","name":"Montagnes Rocheuses","lat":57.0991908,"lon":-124.7078338,"elevationM":1456},{"id":"node:10826135773","kind":"peak","name":"Montagnes Rocheuses","lat":57.3764107,"lon":-124.7714356,"elevationM":1534},{"id":"node:10828443737","kind":"peak","name":"Great Snow Mountain","lat":57.4491511,"lon":-124.0987454,"elevationM":2948},{"id":"node:10828452575","kind":"peak","name":"Cyclops Peak","lat":57.3669526,"lon":-124.1988609,"elevationM":2683},{"id":"node:10828501392","kind":"peak","name":"Mount Eurylochos","lat":57.3864776,"lon":-124.0771436,"elevationM":2770},{"id":"node:10828558567","kind":"peak","name":"Montagnes Rocheuses","lat":57.3552602,"lon":-124.2542184,"elevationM":2159},{"id":"node:10828587862","kind":"peak","name":"Mount Telemachos","lat":57.3387208,"lon":-124.0337846,"elevationM":2766},{"id":"node:10828600105","kind":"peak","name":"Mount Circe","lat":57.4255557,"lon":-124.1178028,"elevationM":2803},{"id":"node:10828630929","kind":"peak","name":"Great Rock Peak","lat":57.4449097,"lon":-124.0715921,"elevationM":2898},{"id":"node:10832628918","kind":"peak","name":"Mount Sheffield","lat":57.7497768,"lon":-124.5796208,"elevationM":2277},{"id":"node:10832640602","kind":"peak","name":"Montagnes Rocheuses","lat":57.6048031,"lon":-124.7665651,"elevationM":1910},{"id":"node:10832641218","kind":"peak","name":"Lombard Peak","lat":57.7282327,"lon":-124.8021198,"elevationM":2296},{"id":"node:10840770626","kind":"peak","name":"Montagnes Rocheuses","lat":57.8788776,"lon":-124.2603621,"elevationM":1959},{"id":"node:10841009489","kind":"peak","name":"Bilou Peak","lat":57.8164613,"lon":-124.6936418,"elevationM":2633},{"id":"node:10841018935","kind":"peak","name":"Survey Peak","lat":57.8362328,"lon":-124.9982989,"elevationM":2402},{"id":"node:10841046036","kind":"peak","name":"Bruce Ridge","lat":57.8079632,"lon":-124.7860345,"elevationM":2146},{"id":"node:10841048766","kind":"peak","name":"Montagnes Rocheuses","lat":57.8815213,"lon":-124.7104279,"elevationM":2137},{"id":"node:10841078435","kind":"peak","name":"Mount Crosby","lat":57.7981579,"lon":-124.9650317,"elevationM":2539},{"id":"node:10841105019","kind":"peak","name":"Bardsey Ridge","lat":57.8841163,"lon":-124.9308562,"elevationM":2051},{"id":"node:10841125271","kind":"peak","name":"Mount Sheffield","lat":57.7502584,"lon":-124.5949465,"elevationM":2255},{"id":"node:10841130567","kind":"peak","name":"Mount Walsh","lat":57.8697113,"lon":-124.8313947,"elevationM":2652},{"id":"node:10841140223","kind":"peak","name":"Gautier Peak","lat":57.8494184,"lon":-124.6841847,"elevationM":2687},{"id":"node:10841167250","kind":"peak","name":"Mount Smythe","lat":57.9036875,"lon":-124.884301,"elevationM":2747},{"id":"node:10841175529","kind":"peak","name":"Vignal Peak","lat":57.7878329,"lon":-124.6783838,"elevationM":2461},{"id":"node:10841175870","kind":"peak","name":"Bardsey Ridge","lat":57.8666393,"lon":-124.9091163,"elevationM":1913}]}