{"tileKey":"la_p21_lo_m76","version":"v1-1775891056926","entries":[{"id":"node:4318979945","kind":"peak","name":"Cerro Los Portales","lat":21.0041407,"lon":-75.9248724,"elevationM":213},{"id":"node:6186929372","kind":"peak","name":"Cerro Punta Alta","lat":21.0270253,"lon":-75.7896901,"elevationM":309},{"id":"node:6186929373","kind":"peak","name":"Loma La Vigía","lat":21.0113181,"lon":-75.8346135,"elevationM":341},{"id":"node:6186929376","kind":"peak","name":"Altura Pan de Samá","lat":21.0627725,"lon":-75.7976919,"elevationM":321},{"id":"node:6186929378","kind":"peak","name":"Loma del Burro","lat":21.0179357,"lon":-75.9828348,"elevationM":104},{"id":"node:6368933514","kind":"peak","name":"Coordillera La Cuchilla","lat":21.0373529,"lon":-75.7630011,"elevationM":281},{"id":"node:6917078847","kind":"peak","name":"Loma de La Uvilla","lat":21.0604893,"lon":-75.7773716,"elevationM":null},{"id":"node:7105031860","kind":"peak","name":"Lomas de Yaguajay","lat":21.074269,"lon":-75.8294606,"elevationM":288}]}