{"tileKey":"la_p3_lo_m61","version":"v1-1775891056926","entries":[{"id":"node:9051331655","kind":"peak","name":"Serra do Tucano","lat":3.2411144,"lon":-60.1499671,"elevationM":297},{"id":"node:9077095021","kind":"peak","name":"Morro Redondo","lat":3.1977735,"lon":-60.1656927,"elevationM":247},{"id":"node:9084491326","kind":"peak","name":"Morro do Veado","lat":3.1049513,"lon":-60.2216107,"elevationM":146},{"id":"node:9084496551","kind":"peak","name":"Morro do Barro","lat":3.2051352,"lon":-60.0975639,"elevationM":200},{"id":"node:9084617298","kind":"peak","name":"Serra do Tabaco","lat":3.7919826,"lon":-60.9675645,"elevationM":542},{"id":"node:9084678695","kind":"peak","name":"Morro do Balde","lat":3.8275236,"lon":-60.9733795,"elevationM":174},{"id":"node:9084693228","kind":"peak","name":"Morro do Machado","lat":3.8792909,"lon":-60.9482848,"elevationM":298}]}