{"tileKey":"la_p48_lo_m79","version":"v1-1775891056926","entries":[{"id":"node:1967710681","kind":"peak","name":"Collines Abijévis","lat":48.4810389,"lon":-78.7606031,"elevationM":null},{"id":"node:1967710682","kind":"peak","name":"Collines Camac","lat":48.3945394,"lon":-78.9927446,"elevationM":null},{"id":"node:1967710683","kind":"peak","name":"Collines David-Gourd","lat":48.4664771,"lon":-78.8018499,"elevationM":null},{"id":"node:1967710684","kind":"peak","name":"Collines Jumelles","lat":48.4982386,"lon":-78.7790255,"elevationM":null},{"id":"node:2045502326","kind":"peak","name":"Monts Wathish","lat":48.4286666,"lon":-78.1192763,"elevationM":null},{"id":"node:9161302580","kind":"peak","name":"Mont Dominant","lat":48.4857005,"lon":-78.7728854,"elevationM":570},{"id":"node:9975265136","kind":"peak","name":"Mont Makoa","lat":48.4692265,"lon":-78.6833826,"elevationM":510},{"id":"node:9984251790","kind":"peak","name":"Mont Maïgan","lat":48.4626342,"lon":-78.7414655,"elevationM":460},{"id":"node:9984251791","kind":"peak","name":"Colline de l'Aigle","lat":48.4608556,"lon":-78.7631162,"elevationM":480}]}