{"tileKey":"la_p43_lo_m111","version":"v1-bootstrap","entries":[{"id":"UNITED_STATES_ALBRIGHT_PEAK_436708_-1108130","kind":"peak","name":"Albright Peak","lat":43.6708,"lon":-110.813,"elevationM":3216},{"id":"UNITED_STATES_CLOUDVEIL_DOME_437189_-1108070","kind":"peak","name":"Cloudveil Dome","lat":43.7189,"lon":-110.807,"elevationM":3666},{"id":"UNITED_STATES_GRAND_TETON_437411_-1108020","kind":"peak","name":"Grand Teton","lat":43.7411,"lon":-110.802,"elevationM":4197},{"id":"UNITED_STATES_MIDDLE_TETON_437300_-1108110","kind":"peak","name":"Middle Teton","lat":43.73,"lon":-110.811,"elevationM":3903},{"id":"UNITED_STATES_MOUNT_MORAN_438353_-1107760","kind":"peak","name":"Mount Moran","lat":43.8353,"lon":-110.776,"elevationM":3842},{"id":"UNITED_STATES_MOUNT_OWEN_437469_-1107970","kind":"peak","name":"Mount Owen","lat":43.7469,"lon":-110.797,"elevationM":3940},{"id":"UNITED_STATES_SOUTH_TETON_437186_-1108180","kind":"peak","name":"South Teton","lat":43.7186,"lon":-110.818,"elevationM":3814},{"id":"UNITED_STATES_TEEWINOT_437472_-1107790","kind":"peak","name":"Teewinot","lat":43.7472,"lon":-110.779,"elevationM":3757}]}