{"tileKey":"la_p39_lo_p8","version":"v1-1775891056926","entries":[{"id":"node:26863879","kind":"peak","name":"Monte Is Caravius","lat":39.1486054,"lon":8.8263169,"elevationM":1113},{"id":"node:26863888","kind":"peak","name":"Punta Perda de Sa Mesa","lat":39.4481717,"lon":8.6176233,"elevationM":1236},{"id":"node:26864386","kind":"peak","name":"Trebina Longa","lat":39.777989,"lon":8.7448915,"elevationM":812},{"id":"node:665387108","kind":"peak","name":"Las Plassas","lat":39.6828122,"lon":8.9796849,"elevationM":274},{"id":"node:1196018003","kind":"peak","name":"Monte Padenteddu","lat":39.0154355,"lon":8.9322475,"elevationM":308},{"id":"node:1198293576","kind":"peak","name":"Punta Montixi","lat":39.0112773,"lon":8.8807143,"elevationM":688},{"id":"node:1198293822","kind":"peak","name":"Punta Niedda","lat":39.0093645,"lon":8.9007269,"elevationM":615},{"id":"node:1198293889","kind":"peak","name":"Punta S'acqua De Is Cassadoris","lat":39.0111579,"lon":8.875659,"elevationM":657},{"id":"node:1198293915","kind":"peak","name":"Punta Sa cresia","lat":39.029157,"lon":8.9086752,"elevationM":864},{"id":"node:1287962829","kind":"peak","name":"Punta sa Spendula","lat":39.455942,"lon":8.4107,"elevationM":434},{"id":"node:1287970511","kind":"peak","name":"Monte Sa Mirra","lat":39.1300866,"lon":8.8202504,"elevationM":1096},{"id":"node:1287976770","kind":"peak","name":"Punta Sebera","lat":39.0473741,"lon":8.8321011,"elevationM":979},{"id":"node:1659243804","kind":"peak","name":"Monte Arcosu","lat":39.1948646,"lon":8.8568107,"elevationM":948},{"id":"node:1660798451","kind":"peak","name":"Monti Genna Strinta","lat":39.1672296,"lon":8.8412605,"elevationM":856},{"id":"node:1660798459","kind":"peak","name":"Monte Is Pauceris Mannus","lat":39.127256,"lon":8.9026526,"elevationM":720},{"id":"node:1660798470","kind":"peak","name":"Monti Latias","lat":39.1476221,"lon":8.8376548,"elevationM":1086},{"id":"node:1660798473","kind":"peak","name":"Punta Palaniedda","lat":39.1951873,"lon":8.8492466,"elevationM":833},{"id":"node:1660798477","kind":"peak","name":"Punta Perdu Catta","lat":39.1872181,"lon":8.8658479,"elevationM":663},{"id":"node:1660798479","kind":"peak","name":"R.ca Concale Petuntu","lat":39.1774956,"lon":8.8667051,"elevationM":623},{"id":"node:1660798486","kind":"peak","name":"Monti Liudeddu","lat":39.1453173,"lon":8.8421711,"elevationM":1010},{"id":"node:1814825679","kind":"peak","name":"Campu Spina","lat":39.3752287,"lon":8.5665473,"elevationM":939},{"id":"node:1814825768","kind":"peak","name":"Punta San Michele","lat":39.3393702,"lon":8.6041851,"elevationM":906},{"id":"node:2654018508","kind":"peak","name":"Cruccu di Mogoro","lat":39.6855226,"lon":8.8032274,"elevationM":null},{"id":"node:2696377121","kind":"peak","name":"Trebina Lada","lat":39.7738334,"lon":8.7455404,"elevationM":795},{"id":"node:2732140634","kind":"peak","name":"Punta Perdedu","lat":39.8871475,"lon":8.9742328,"elevationM":589},{"id":"node:2732140639","kind":"peak","name":"Punta Modighina","lat":39.8864199,"lon":8.9797004,"elevationM":595},{"id":"node:2737497805","kind":"peak","name":"Monte San Giuseppe","lat":39.31189,"lon":8.4451194,"elevationM":null},{"id":"node:2737502842","kind":"peak","name":"Punta Speranza","lat":39.3205897,"lon":8.4416669,"elevationM":430},{"id":"node:2815994210","kind":"peak","name":"Punta Cappiglia","lat":39.0493335,"lon":8.7968259,"elevationM":532},{"id":"node:3172614451","kind":"peak","name":"Monte FLORIS","lat":39.0337023,"lon":8.6564718,"elevationM":396},{"id":"node:3172641549","kind":"peak","name":"SERRA MANNA","lat":39.0423911,"lon":8.6523812,"elevationM":363},{"id":"node:3172654483","kind":"peak","name":"Monte San Giovanni","lat":39.0536651,"lon":8.6237985,"elevationM":null},{"id":"node:3172713021","kind":"peak","name":"Cuccuru Guventu","lat":39.0572435,"lon":8.6378232,"elevationM":null},{"id":"node:3234909542","kind":"peak","name":"Monte Maxia","lat":39.0822635,"lon":8.8483818,"elevationM":null},{"id":"node:3234925462","kind":"peak","name":"P.ta Is Allineddus","lat":39.069049,"lon":8.8308622,"elevationM":null},{"id":"node:3292362381","kind":"peak","name":"Cruccu di Masullas","lat":39.6937554,"lon":8.8021975,"elevationM":null},{"id":"node:3305352364","kind":"peak","name":"Monte Tasua","lat":39.2178464,"lon":8.5455943,"elevationM":455},{"id":"node:3305352365","kind":"peak","name":"Monte Su Casteddu","lat":39.2146794,"lon":8.5642204,"elevationM":336},{"id":"node:3311839670","kind":"peak","name":"Punta Coremò","lat":39.2302498,"lon":8.621585,"elevationM":615},{"id":"node:3312102566","kind":"peak","name":"Monte Santu Miai","lat":39.2297405,"lon":8.5952846,"elevationM":614},{"id":"node:3312108778","kind":"peak","name":"Punta di Mezzo","lat":39.2256018,"lon":8.5981812,"elevationM":556},{"id":"node:3328381426","kind":"peak","name":"Punta Su Benazzu","lat":39.1811842,"lon":8.6050371,"elevationM":347},{"id":"node:3329870109","kind":"peak","name":"Monte Leone","lat":39.1823191,"lon":8.5190413,"elevationM":281},{"id":"node:3332240739","kind":"peak","name":"Monte Grighine","lat":39.9406654,"lon":8.8184599,"elevationM":673},{"id":"node:3332240740","kind":"peak","name":"Monte Ollastra","lat":39.964892,"lon":8.7899541,"elevationM":380},{"id":"node:3333904316","kind":"peak","name":"Punta sa Cruxi Noa","lat":39.741116,"lon":8.7612269,"elevationM":null},{"id":"node:3333904318","kind":"peak","name":"p.ta Perda de Pani","lat":39.7494601,"lon":8.7461097,"elevationM":572},{"id":"node:3333928328","kind":"peak","name":"Monti sparau","lat":39.7433188,"lon":8.7198602,"elevationM":null},{"id":"node:3333928330","kind":"peak","name":"p.ta Masoni Perdu","lat":39.7540318,"lon":8.7449922,"elevationM":595},{"id":"node:3333946967","kind":"peak","name":"Conca Cannas","lat":39.7258164,"lon":8.7281229,"elevationM":362},{"id":"node:3333946969","kind":"peak","name":"Perda Arrubia","lat":39.7295569,"lon":8.7262957,"elevationM":378},{"id":"node:3335947309","kind":"peak","name":"Monte Arcuentu","lat":39.5976859,"lon":8.5464096,"elevationM":781},{"id":"node:3335947310","kind":"peak","name":"Monte Maiori","lat":39.5910309,"lon":8.5666198,"elevationM":723},{"id":"node:3335981706","kind":"peak","name":"Genna Limpia","lat":39.6146593,"lon":8.530954,"elevationM":568},{"id":"node:3372754101","kind":"peak","name":"Monte Prama","lat":39.9652728,"lon":8.4480827,"elevationM":43},{"id":"node:3372956693","kind":"peak","name":"Monte Spina","lat":39.198691,"lon":8.5713271,"elevationM":397},{"id":"node:3376649598","kind":"peak","name":"Monte Perdaias Mannas","lat":39.2605049,"lon":8.4149171,"elevationM":182},{"id":"node:3376733737","kind":"peak","name":"Monte Genn'e Rei","lat":39.2568645,"lon":8.4199293,"elevationM":null},{"id":"node:3376739853","kind":"peak","name":"Su Guroni Mannu","lat":39.2611663,"lon":8.4181587,"elevationM":182},{"id":"node:3377556647","kind":"peak","name":"Serra Nuraxi","lat":39.264503,"lon":8.4641117,"elevationM":82},{"id":"node:3377743650","kind":"peak","name":"Su Tuvu Mannu","lat":39.2559008,"lon":8.4670762,"elevationM":122},{"id":"node:3377820902","kind":"peak","name":"Domo di Acquafredda","lat":39.2621903,"lon":8.8202835,"elevationM":256},{"id":"node:3377828286","kind":"peak","name":"Serra Pirastu","lat":39.2591639,"lon":8.4552146,"elevationM":110},{"id":"node:3400316172","kind":"peak","name":"Cuccuru de Casteddu","lat":39.6201644,"lon":8.997043,"elevationM":260},{"id":"node:3440642715","kind":"peak","name":"Cuccuru Santa Vittoria","lat":39.679048,"lon":8.8363965,"elevationM":155},{"id":"node:3440642716","kind":"peak","name":"Monte Sainas","lat":39.6753611,"lon":8.8367667,"elevationM":183},{"id":"node:3440644696","kind":"peak","name":"Cuccuru Cabonis","lat":39.672855,"lon":8.8311426,"elevationM":198},{"id":"node:3440738780","kind":"peak","name":"Monti Mannu","lat":39.6917893,"lon":8.8502843,"elevationM":223},{"id":"node:3495794944","kind":"peak","name":"Sa Scrocca Manna","lat":39.0852717,"lon":8.4130752,"elevationM":143},{"id":"node:3545173602","kind":"peak","name":"P.ta Muroni","lat":39.8234015,"lon":8.7330925,"elevationM":377},{"id":"node:3545173603","kind":"peak","name":"P.ta Corongiu Mela","lat":39.8170908,"lon":8.7357533,"elevationM":564},{"id":"node:3545173604","kind":"peak","name":"P.ta Giuanni Pilloni","lat":39.8205458,"lon":8.7251951,"elevationM":367},{"id":"node:3595200093","kind":"peak","name":"Monte Argentu","lat":39.4301668,"lon":8.4854699,"elevationM":502},{"id":"node:3595203999","kind":"peak","name":"Punta Niu Crobu","lat":39.456673,"lon":8.5120848,"elevationM":302},{"id":"node:3595259808","kind":"peak","name":"Punta Perdaba","lat":39.4552204,"lon":8.5244506,"elevationM":629},{"id":"node:3595266498","kind":"peak","name":"Punta Giuanni Botto","lat":39.4251904,"lon":8.4838406,"elevationM":440},{"id":"node:3595270898","kind":"peak","name":"Punta Roia Mazzamini","lat":39.4236006,"lon":8.47999,"elevationM":391},{"id":"node:3595274789","kind":"peak","name":"Monte Gennargentu","lat":39.4145533,"lon":8.4630438,"elevationM":652},{"id":"node:3595278043","kind":"peak","name":"Punta Bau Mannu","lat":39.4120202,"lon":8.461052,"elevationM":655},{"id":"node:3595279003","kind":"peak","name":"Punta Spendua Perdu Concas","lat":39.4182098,"lon":8.4640778,"elevationM":581},{"id":"node:3595279673","kind":"peak","name":"Punta di Antiogu Cadeddu","lat":39.41941,"lon":8.4581126,"elevationM":524},{"id":"node:3595283271","kind":"peak","name":"Punta Arcu su Ludragu","lat":39.4257261,"lon":8.4379893,"elevationM":266},{"id":"node:3596849263","kind":"peak","name":"Monte Malfidano","lat":39.3988312,"lon":8.4154878,"elevationM":533},{"id":"node:3596861982","kind":"peak","name":"Cuccuru Trebini","lat":39.3907871,"lon":8.3996499,"elevationM":311},{"id":"node:3596867295","kind":"peak","name":"Sa Punta Sa Strubina","lat":39.3966445,"lon":8.4851732,"elevationM":441},{"id":"node:3596867296","kind":"peak","name":"Punta Candiazzus","lat":39.4008271,"lon":8.4807899,"elevationM":518},{"id":"node:3596871302","kind":"peak","name":"Punta su Mannau","lat":39.4030448,"lon":8.490307,"elevationM":438},{"id":"node:3596871303","kind":"peak","name":"Monte Medau Matzei","lat":39.4041637,"lon":8.4851786,"elevationM":516},{"id":"node:3596872201","kind":"peak","name":"Monte Conca S'Ommu","lat":39.400903,"lon":8.5063557,"elevationM":615},{"id":"node:3596876332","kind":"peak","name":"Punta Annixedda","lat":39.4077497,"lon":8.4268969,"elevationM":518},{"id":"node:3596879026","kind":"peak","name":"Punta su Liberau","lat":39.4113639,"lon":8.4488695,"elevationM":597},{"id":"node:3596879182","kind":"peak","name":"Bacchitta de Montis","lat":39.4124265,"lon":8.4347074,"elevationM":583},{"id":"node:3596883205","kind":"peak","name":"Monte Schina Servidda","lat":39.4316296,"lon":8.4595468,"elevationM":423},{"id":"node:3596884641","kind":"peak","name":"Monte Nieddu","lat":39.4017312,"lon":8.4404592,"elevationM":528},{"id":"node:3596885315","kind":"peak","name":"Punta Gennixedda","lat":39.3963597,"lon":8.4422831,"elevationM":535},{"id":"node:3596886070","kind":"peak","name":"Sa Punta de su Mesu","lat":39.3972145,"lon":8.4351886,"elevationM":586},{"id":"node:3596886697","kind":"peak","name":"Monte Seguris","lat":39.3911527,"lon":8.4288935,"elevationM":414},{"id":"node:3596889217","kind":"peak","name":"Monte Pira Roma","lat":39.3913683,"lon":8.444622,"elevationM":622},{"id":"node:3596893214","kind":"peak","name":"Monte Segarino","lat":39.3982002,"lon":8.4458665,"elevationM":636},{"id":"node:3596896639","kind":"peak","name":"Punta sa Niva","lat":39.3937554,"lon":8.4556941,"elevationM":628},{"id":"node:3596896694","kind":"peak","name":"Sa punta cuccuru de Monti Nieddu","lat":39.3972882,"lon":8.4484629,"elevationM":603},{"id":"node:3596900441","kind":"peak","name":"Punta Malfidaneddu","lat":39.3931593,"lon":8.4253991,"elevationM":313},{"id":"node:3596904421","kind":"peak","name":"Su Monti de sa Figu","lat":39.4271952,"lon":8.500884,"elevationM":184},{"id":"node:3596907710","kind":"peak","name":"Punta Arcu Mazzamini","lat":39.4190305,"lon":8.4813752,"elevationM":301},{"id":"node:3596908399","kind":"peak","name":"Monti Nou","lat":39.4185995,"lon":8.4754792,"elevationM":391},{"id":"node:3596911531","kind":"peak","name":"Monte Becciu","lat":39.4121273,"lon":8.5029225,"elevationM":479},{"id":"node:3596917223","kind":"peak","name":"Punta is Annunis","lat":39.3913352,"lon":8.5316114,"elevationM":645},{"id":"node:3596917397","kind":"peak","name":"Punta Manna de Pubusinu","lat":39.4009214,"lon":8.537425,"elevationM":661},{"id":"node:3596917398","kind":"peak","name":"Punta sa Broccia","lat":39.420483,"lon":8.518004,"elevationM":210},{"id":"node:3596920098","kind":"peak","name":"Punta Malladroxiu","lat":39.3917663,"lon":8.5249809,"elevationM":569},{"id":"node:3596921385","kind":"peak","name":"Punta Arrus Crabius","lat":39.4026597,"lon":8.5274282,"elevationM":587},{"id":"node:3596922505","kind":"peak","name":"Punta Sinuis","lat":39.3890301,"lon":8.5356883,"elevationM":591},{"id":"node:3596922987","kind":"peak","name":"Punta Pilocca","lat":39.3997332,"lon":8.5540491,"elevationM":702},{"id":"node:3596927347","kind":"peak","name":"Monte Genna Suergiu","lat":39.3911619,"lon":8.5558199,"elevationM":742},{"id":"node:3596930489","kind":"peak","name":"Punta Rosmarino","lat":39.3946923,"lon":8.5409922,"elevationM":568},{"id":"node:3596934194","kind":"peak","name":"Punta Medau","lat":39.381334,"lon":8.5541205,"elevationM":834},{"id":"node:3596934195","kind":"peak","name":"Monte Cuccu Mannu","lat":39.3815994,"lon":8.5441448,"elevationM":673},{"id":"node:3596937447","kind":"peak","name":"Punta de Baueddu","lat":39.3811184,"lon":8.5580043,"elevationM":896},{"id":"node:3596938272","kind":"peak","name":"Punta Pitzianti","lat":39.3958622,"lon":8.5567973,"elevationM":703},{"id":"node:3596944823","kind":"peak","name":"Punta de Tinnì","lat":39.3940382,"lon":8.5702566,"elevationM":793},{"id":"node:3596951297","kind":"peak","name":"Cuccuru Medau Arenas","lat":39.3996751,"lon":8.5668663,"elevationM":679},{"id":"node:3596952958","kind":"peak","name":"Cucurru Arrubiu","lat":39.4454257,"lon":8.5797173,"elevationM":916},{"id":"node:3596957579","kind":"peak","name":"Punta Zinnibiri Mannu","lat":39.428372,"lon":8.5489256,"elevationM":542},{"id":"node:3596958523","kind":"peak","name":"Punta Zinnibireddu","lat":39.4284723,"lon":8.5366947,"elevationM":475},{"id":"node:3596963679","kind":"peak","name":"Punta Nestru","lat":39.4370241,"lon":8.5801239,"elevationM":1084},{"id":"node:3596965682","kind":"peak","name":"Punta su Pitzianti","lat":39.4403385,"lon":8.55223,"elevationM":576},{"id":"node:3596966001","kind":"peak","name":"Punta Zennereddu","lat":39.438615,"lon":8.5625072,"elevationM":693},{"id":"node:3596973125","kind":"peak","name":"Monte Lisone","lat":39.4299623,"lon":8.5830454,"elevationM":1092},{"id":"node:3596974447","kind":"peak","name":"Monte Nippis","lat":39.4320348,"lon":8.5898475,"elevationM":1008},{"id":"node:3596977375","kind":"peak","name":"Punta Genna de s'Egna","lat":39.4369736,"lon":8.5935168,"elevationM":1006},{"id":"node:3597288234","kind":"peak","name":"Punta casa Massaius","lat":39.458633,"lon":8.5471698,"elevationM":640},{"id":"node:3597311890","kind":"peak","name":"Punta Mairu","lat":39.4693449,"lon":8.5370962,"elevationM":723},{"id":"node:3597317164","kind":"peak","name":"Punta Laccaius","lat":39.4675419,"lon":8.5673717,"elevationM":653},{"id":"node:3597320371","kind":"peak","name":"Punta Tintionis","lat":39.4678435,"lon":8.5428139,"elevationM":687},{"id":"node:3597321451","kind":"peak","name":"Guardia Perdu Cara","lat":39.4629609,"lon":8.5442837,"elevationM":657},{"id":"node:3597325023","kind":"peak","name":"C.ru Mairi","lat":39.4601158,"lon":8.5533657,"elevationM":626},{"id":"node:3597325690","kind":"peak","name":"Genna S'Olioni","lat":39.4624887,"lon":8.5588481,"elevationM":602},{"id":"node:3597330320","kind":"peak","name":"Punta Pala sa Linna","lat":39.4602032,"lon":8.5759762,"elevationM":672},{"id":"node:3597339368","kind":"peak","name":"Punta Picciucu","lat":39.4262173,"lon":8.6256174,"elevationM":716},{"id":"node:3597340784","kind":"peak","name":"Punta sa Cabixettas","lat":39.443225,"lon":8.6257679,"elevationM":1202},{"id":"node:3597343288","kind":"peak","name":"Punta Riu Purdeddus","lat":39.4477629,"lon":8.603104,"elevationM":1079},{"id":"node:3597344150","kind":"peak","name":"Punta de Stellaias","lat":39.427443,"lon":8.6115841,"elevationM":883},{"id":"node:3597344699","kind":"peak","name":"Su cuccuru de Sudiri","lat":39.4499476,"lon":8.6014346,"elevationM":1058},{"id":"node:3597344770","kind":"peak","name":"Punta Muru Mannu","lat":39.4273696,"lon":8.6003544,"elevationM":941},{"id":"node:3597347124","kind":"peak","name":"Punta Perda de Gragiolas","lat":39.4311573,"lon":8.6041801,"elevationM":919},{"id":"node:3597347156","kind":"peak","name":"Sa Truba e is Murvas","lat":39.4215754,"lon":8.6166696,"elevationM":826},{"id":"node:3597348282","kind":"peak","name":"Punta s'Ega de s'Ollastu","lat":39.4316537,"lon":8.6161546,"elevationM":750},{"id":"node:3597348410","kind":"peak","name":"Pala Ollionis di Edda","lat":39.4179128,"lon":8.6171416,"elevationM":780},{"id":"node:3616281595","kind":"peak","name":"Punta de Su Guardianu","lat":39.4538756,"lon":8.4073544,"elevationM":478},{"id":"node:3616286271","kind":"peak","name":"Punta Mumullonis","lat":39.4662772,"lon":8.4137663,"elevationM":499},{"id":"node:3755880960","kind":"peak","name":"P.ta Su Cantareddu","lat":39.7497064,"lon":8.7387033,"elevationM":null},{"id":"node:3759902617","kind":"peak","name":"Punta Cammedda","lat":39.4421994,"lon":8.639639,"elevationM":1214},{"id":"node:3783132138","kind":"peak","name":"P.ta Corongiu Muzzu","lat":39.8006055,"lon":8.7247561,"elevationM":null},{"id":"node:3784704785","kind":"peak","name":"P.ta Genna Spina","lat":39.8059325,"lon":8.7464617,"elevationM":732},{"id":"node:3784733248","kind":"peak","name":"P.ta Genna Maiori","lat":39.8088887,"lon":8.7414507,"elevationM":671},{"id":"node:3784927034","kind":"peak","name":"P.ta Quebiois","lat":39.7587988,"lon":8.7334903,"elevationM":null},{"id":"node:3786070363","kind":"peak","name":"Serra Funtana Moi","lat":39.8300516,"lon":8.7657161,"elevationM":629},{"id":"node:3786070364","kind":"peak","name":"P.ta Laccu sa Vitella","lat":39.8255378,"lon":8.7573503,"elevationM":639},{"id":"node:3786070372","kind":"peak","name":"P.ta Entosu","lat":39.8148151,"lon":8.760651,"elevationM":681},{"id":"node:3787796855","kind":"peak","name":"Cuccuru Ureu","lat":39.8146452,"lon":8.7446897,"elevationM":594},{"id":"node:3791958026","kind":"peak","name":"Monte Narcao","lat":39.1407514,"lon":8.6495875,"elevationM":null},{"id":"node:3808525933","kind":"peak","name":"Punta Zepparedda","lat":39.7425159,"lon":8.9809791,"elevationM":602},{"id":"node:3808525934","kind":"peak","name":"Zeppara Manna","lat":39.7799924,"lon":8.9249556,"elevationM":580},{"id":"node:3939588569","kind":"peak","name":"Pizzo Arrubiu","lat":39.1487194,"lon":8.5563212,"elevationM":386},{"id":"node:3941044101","kind":"peak","name":"Monte Crobu","lat":39.1407963,"lon":8.525973,"elevationM":212},{"id":"node:3941070442","kind":"peak","name":"Monte San Giovanni","lat":39.135294,"lon":8.5307671,"elevationM":332},{"id":"node:3947982791","kind":"peak","name":"Punta Pubusinu","lat":39.5767162,"lon":8.5670695,"elevationM":722},{"id":"node:4065137294","kind":"peak","name":"Corongiu Sitzoua","lat":39.7924982,"lon":8.7296621,"elevationM":463},{"id":"node:4131377602","kind":"peak","name":"Monti Seddas","lat":39.1393183,"lon":8.8482897,"elevationM":845},{"id":"node:4131462902","kind":"peak","name":"Monte Santa Barbara","lat":39.1379273,"lon":8.9475067,"elevationM":615},{"id":"node:4162734985","kind":"peak","name":"Conca d'Oru","lat":39.1060958,"lon":8.9582545,"elevationM":666},{"id":"node:4376067544","kind":"peak","name":"Monte Rosmarino","lat":39.1746564,"lon":8.5229743,"elevationM":156},{"id":"node:4383832027","kind":"peak","name":"Pranu Sartu","lat":39.3897573,"lon":8.3847842,"elevationM":null},{"id":"node:4695154361","kind":"peak","name":"Monte Tiriccu","lat":39.1224923,"lon":8.8019073,"elevationM":1104},{"id":"node:4695154363","kind":"peak","name":"Punta Sa Gruxitta","lat":39.1404395,"lon":8.8215249,"elevationM":1093},{"id":"node:4695217303","kind":"peak","name":"Punta su Fixi","lat":39.1395749,"lon":8.7862992,"elevationM":1001},{"id":"node:4695217304","kind":"peak","name":"Monte Nieddu","lat":39.1282118,"lon":8.7862472,"elevationM":1040},{"id":"node:4695217305","kind":"peak","name":"Monte Orrì","lat":39.2290725,"lon":8.7593709,"elevationM":726},{"id":"node:4695217306","kind":"peak","name":"Punta Orbai","lat":39.2288107,"lon":8.7233547,"elevationM":648},{"id":"node:4695217307","kind":"peak","name":"Punta Antonio Mannu","lat":39.2319162,"lon":8.7485909,"elevationM":682},{"id":"node:4695217308","kind":"peak","name":"strumpu Luas","lat":39.2236883,"lon":8.7652206,"elevationM":507},{"id":"node:4695217309","kind":"peak","name":"punta Perrima","lat":39.2355228,"lon":8.7734389,"elevationM":511},{"id":"node:4695217310","kind":"peak","name":"conca Arruabis","lat":39.2319827,"lon":8.7861418,"elevationM":470},{"id":"node:4699371660","kind":"peak","name":"Punta Montilongu","lat":39.0907881,"lon":8.8903156,"elevationM":588},{"id":"node:4874863643","kind":"peak","name":"Punta Padenteddu","lat":39.373968,"lon":8.7074925,"elevationM":723},{"id":"node:4874864451","kind":"peak","name":"Punta Cuccuruneddu","lat":39.3843674,"lon":8.7058553,"elevationM":787},{"id":"node:4874869065","kind":"peak","name":"Monte Margiani","lat":39.4695694,"lon":8.7099709,"elevationM":859},{"id":"node:4874872538","kind":"peak","name":"Punta di Santu Miali","lat":39.4499691,"lon":8.6767887,"elevationM":1061},{"id":"node:4874874779","kind":"peak","name":"Cuccuru Figus","lat":39.4507081,"lon":8.6975833,"elevationM":926},{"id":"node:4874876764","kind":"peak","name":"Monte Acqua Piccinna","lat":39.4094652,"lon":8.6634792,"elevationM":1010},{"id":"node:4874878672","kind":"peak","name":"Punta Magusu","lat":39.4158134,"lon":8.6542061,"elevationM":1023},{"id":"node:4874880115","kind":"peak","name":"Punta Banarba","lat":39.4083411,"lon":8.680732,"elevationM":835},{"id":"node:4874883113","kind":"peak","name":"Cuccuru Magusu","lat":39.4235259,"lon":8.6559699,"elevationM":974},{"id":"node:4874884189","kind":"peak","name":"Cuccuru Genn'e Bois","lat":39.4271724,"lon":8.6627934,"elevationM":888},{"id":"node:4874890840","kind":"peak","name":"Serra Crobus","lat":39.3731327,"lon":8.3873811,"elevationM":126},{"id":"node:4874894425","kind":"peak","name":"Punta Baxia","lat":39.3804752,"lon":8.4308346,"elevationM":515},{"id":"node:4874894651","kind":"peak","name":"Bruncu S'Enne Sa Taua","lat":39.3873253,"lon":8.4322819,"elevationM":469},{"id":"node:4874895250","kind":"peak","name":"Monte Anna","lat":39.3828131,"lon":8.4331275,"elevationM":542},{"id":"node:4874896692","kind":"peak","name":"Punta Basileddu","lat":39.3882805,"lon":8.440673,"elevationM":466},{"id":"node:4962686762","kind":"peak","name":"Monte Genna Spina","lat":39.1640121,"lon":8.8147044,"elevationM":970},{"id":"node:5289217646","kind":"peak","name":"Punta Tintillonis","lat":39.5194384,"lon":8.5271139,"elevationM":609},{"id":"node:5384019298","kind":"peak","name":"Su Fenu Trainu","lat":39.1213032,"lon":8.9527895,"elevationM":542},{"id":"node:5384019299","kind":"peak","name":"Punta Tiriaxu Mannu","lat":39.11832,"lon":8.9501291,"elevationM":545},{"id":"node:5384019300","kind":"peak","name":"Punta Pala Niedda","lat":39.1203359,"lon":8.9495296,"elevationM":567},{"id":"node:5384021490","kind":"peak","name":"Punta Tiriaxeddu","lat":39.1079411,"lon":8.931371,"elevationM":523},{"id":"node:5384033627","kind":"peak","name":"Monte Is Lacuneddas","lat":39.1085662,"lon":8.9686893,"elevationM":601},{"id":"node:5394327487","kind":"peak","name":"Monte Conchioru","lat":39.1308076,"lon":8.9283596,"elevationM":740},{"id":"node:5394332396","kind":"peak","name":"Monte Turruneri","lat":39.131381,"lon":8.9353751,"elevationM":696},{"id":"node:5521825591","kind":"peak","name":"Monte Zippireddu","lat":39.4050091,"lon":8.8076314,"elevationM":null},{"id":"node:5522459119","kind":"peak","name":"Punta de Is Cabias","lat":39.1224249,"lon":8.9621878,"elevationM":383},{"id":"node:5522462509","kind":"peak","name":"Punta Casteddu","lat":39.1312245,"lon":8.9537787,"elevationM":381},{"id":"node:5522466720","kind":"peak","name":"Punta Sa Menta","lat":39.136263,"lon":8.9727938,"elevationM":207},{"id":"node:5522466932","kind":"peak","name":"Monte Pauliara","lat":39.1387465,"lon":8.9753879,"elevationM":228},{"id":"node:5523491625","kind":"peak","name":"Punta Tingiosa","lat":39.1426971,"lon":8.9285439,"elevationM":561},{"id":"node:5523500774","kind":"peak","name":"Serra Perdosa","lat":39.1046381,"lon":8.9514126,"elevationM":661},{"id":"node:5536357619","kind":"peak","name":"Punta de Flumini Binu","lat":39.0947977,"lon":8.9718944,"elevationM":592},{"id":"node:5598876412","kind":"peak","name":"Monti Arrùbiu","lat":39.1636616,"lon":8.9556691,"elevationM":341},{"id":"node:5713715184","kind":"peak","name":"Monte Figu","lat":39.3098671,"lon":8.5753387,"elevationM":null},{"id":"node:6272991775","kind":"peak","name":"Perdas de Fogu","lat":39.0225338,"lon":8.427755,"elevationM":271},{"id":"node:6433836054","kind":"peak","name":"Guardia dei Mori","lat":39.16272,"lon":8.28129,"elevationM":211},{"id":"node:6438684996","kind":"peak","name":"Arcu de Sa Gruxitta","lat":39.1434506,"lon":8.8236193,"elevationM":996},{"id":"node:6438686078","kind":"peak","name":"Medau Conca Carrogas","lat":39.1582703,"lon":8.8013346,"elevationM":440},{"id":"node:6497386286","kind":"peak","name":"Punta Marcu Piu","lat":39.1347234,"lon":8.9654634,"elevationM":318},{"id":"node:6659069674","kind":"peak","name":"Monte Cogottis","lat":39.0270672,"lon":8.6829869,"elevationM":436},{"id":"node:6659093602","kind":"peak","name":"Monte di Mezzo","lat":39.0258764,"lon":8.674664,"elevationM":353},{"id":"node:6659100783","kind":"peak","name":"Punta Perdaiola","lat":39.0242546,"lon":8.6681401,"elevationM":339},{"id":"node:6660209062","kind":"peak","name":"Monte Su Forru","lat":39.0198687,"lon":8.6940515,"elevationM":346},{"id":"node:6660211452","kind":"peak","name":"Punta Sa Perdosa","lat":39.0352461,"lon":8.6889981,"elevationM":379},{"id":"node:6660222175","kind":"peak","name":"Punta Aritzu","lat":39.0281787,"lon":8.6942124,"elevationM":390},{"id":"node:7084791071","kind":"peak","name":"Rocca Gravellus  791","lat":39.0461185,"lon":8.8193386,"elevationM":null},{"id":"node:7263483810","kind":"peak","name":"Sa Conca de sa Scandula","lat":39.1298986,"lon":8.9310765,"elevationM":718},{"id":"node:7274708479","kind":"peak","name":"Punta su 'Aingiu Mannu","lat":39.1604066,"lon":8.9329049,"elevationM":605},{"id":"node:7343169019","kind":"peak","name":"Cuccurdoni Mannu","lat":39.3818426,"lon":8.6944375,"elevationM":911},{"id":"node:7360248555","kind":"peak","name":"S'Argara","lat":39.9304253,"lon":8.4475725,"elevationM":93},{"id":"node:7551855220","kind":"peak","name":"Punta Farris","lat":39.3817079,"lon":8.4538934,"elevationM":null},{"id":"node:7551855222","kind":"peak","name":"Punta sa Grutta","lat":39.3762303,"lon":8.4041124,"elevationM":360},{"id":"node:7619850236","kind":"peak","name":"Punta Corona Arrubia","lat":39.1047948,"lon":8.7991315,"elevationM":571},{"id":"node:7619850241","kind":"peak","name":"Montixeddu is Castangias","lat":39.1128472,"lon":8.8060355,"elevationM":734},{"id":"node:7630363149","kind":"peak","name":"Punta Arriarinu","lat":39.1426041,"lon":8.7820321,"elevationM":996},{"id":"node:7630363372","kind":"peak","name":"Monte Tamara","lat":39.141955,"lon":8.7634732,"elevationM":849},{"id":"node:7931842816","kind":"peak","name":"Bruncu Su Sensu","lat":39.4603709,"lon":8.3859807,"elevationM":54},{"id":"node:8157657866","kind":"peak","name":"Monte Arcuenteddu","lat":39.6010715,"lon":8.542605,"elevationM":603},{"id":"node:8320714445","kind":"peak","name":"S'Arcu de su Schisòrgiu","lat":39.1081067,"lon":8.8418369,"elevationM":473},{"id":"node:8320894218","kind":"peak","name":"S'ega Arrimundu Spanu","lat":39.087129,"lon":8.8159981,"elevationM":479},{"id":"node:8320991780","kind":"peak","name":"S'arcu de S'arena","lat":39.09486,"lon":8.848097,"elevationM":633},{"id":"node:8441738439","kind":"peak","name":"Monte Bingias","lat":39.8873652,"lon":8.9497373,"elevationM":null},{"id":"node:8489150644","kind":"peak","name":"S'Enna de is Forrus","lat":39.456478,"lon":8.7017802,"elevationM":712},{"id":"node:8489184853","kind":"peak","name":"Cuccuru Frissa","lat":39.4512231,"lon":8.7035474,"elevationM":897},{"id":"node:8489184856","kind":"peak","name":"Cuccureddu","lat":39.4505346,"lon":8.7254433,"elevationM":571},{"id":"node:8489232521","kind":"peak","name":"Genna Podenti","lat":39.4566983,"lon":8.6957849,"elevationM":708},{"id":"node:8623660946","kind":"peak","name":"Monte Arbus","lat":39.4298444,"lon":8.7010941,"elevationM":800},{"id":"node:8791090151","kind":"peak","name":"Punta Narbolia","lat":39.4705558,"lon":8.4065688,"elevationM":415},{"id":"node:8791090152","kind":"peak","name":"Punta Genna 'e Stellas","lat":39.4759162,"lon":8.4051633,"elevationM":309},{"id":"node:8930578951","kind":"peak","name":"Monti Omu","lat":39.4603076,"lon":8.7227989,"elevationM":605},{"id":"node:8930582640","kind":"peak","name":"Cuccuru su Cuadroxiu","lat":39.4667148,"lon":8.7005161,"elevationM":802},{"id":"node:8930585676","kind":"peak","name":"Genna s'Uvara","lat":39.4621605,"lon":8.696196,"elevationM":695},{"id":"node:8930588046","kind":"peak","name":"Genna Pirastu","lat":39.4603289,"lon":8.6890977,"elevationM":702},{"id":"node:8930588648","kind":"peak","name":"Genna de Frocciddadas","lat":39.460061,"lon":8.7137428,"elevationM":600},{"id":"node:8977835335","kind":"peak","name":"Monte San Pietro","lat":39.3284402,"lon":8.4659735,"elevationM":661},{"id":"node:8977835377","kind":"peak","name":"Monte Scrocca","lat":39.3742337,"lon":8.4694212,"elevationM":694},{"id":"node:8977904027","kind":"peak","name":"Punta Sa Perdiassa","lat":39.3746767,"lon":8.5224585,"elevationM":757},{"id":"node:9004936699","kind":"peak","name":"Punta Frommighedda","lat":39.4104728,"lon":8.5112328,"elevationM":394},{"id":"node:9004945137","kind":"peak","name":"Punta Is Sermentus","lat":39.417663,"lon":8.5242185,"elevationM":241},{"id":"node:9004959490","kind":"peak","name":"Punta su Nuraxi","lat":39.4694368,"lon":8.4661562,"elevationM":300},{"id":"node:9004995308","kind":"peak","name":"Punta Gutturo Trottu","lat":39.4723429,"lon":8.4779775,"elevationM":443},{"id":"node:9015372072","kind":"peak","name":"Punta Pedronia","lat":39.4550071,"lon":8.4365603,"elevationM":null},{"id":"node:9015396358","kind":"peak","name":"Punta Pedronia","lat":39.4544652,"lon":8.3915284,"elevationM":64},{"id":"node:9015397438","kind":"peak","name":"Punta Perdamois","lat":39.458596,"lon":8.4658215,"elevationM":264},{"id":"node:9015409368","kind":"peak","name":"Punta Pala su Sciusciu","lat":39.4382596,"lon":8.484985,"elevationM":273},{"id":"node:9015415317","kind":"peak","name":"Punta Cisanni Acca","lat":39.4352724,"lon":8.4824169,"elevationM":322},{"id":"node:9015415318","kind":"peak","name":"Monte Rana","lat":39.4703429,"lon":8.4304901,"elevationM":310},{"id":"node:9015416143","kind":"peak","name":"Punta Arcu sa Grutta","lat":39.4713071,"lon":8.4278061,"elevationM":290},{"id":"node:9015431819","kind":"peak","name":"Punta Genn'e Carru","lat":39.46812,"lon":8.4409483,"elevationM":241},{"id":"node:9027752263","kind":"peak","name":"Punta su Barracconi","lat":39.4299058,"lon":8.5283913,"elevationM":347},{"id":"node:9027755316","kind":"peak","name":"Piztu Sa Rocca","lat":39.4296396,"lon":8.5094621,"elevationM":237},{"id":"node:9027764314","kind":"peak","name":"Punta Pesada de Pubusinu","lat":39.411346,"lon":8.5309329,"elevationM":316},{"id":"node:9027812680","kind":"peak","name":"Monte Pitzu de Rosa","lat":39.3947028,"lon":8.4642068,"elevationM":638},{"id":"node:9027812681","kind":"peak","name":"Punta Cannegogas","lat":39.3904563,"lon":8.4648959,"elevationM":597},{"id":"node:9027812716","kind":"peak","name":"Punta Arrixeddu","lat":39.411692,"lon":8.4881072,"elevationM":237},{"id":"node:9027814471","kind":"peak","name":"Punta Tuppa Stellada","lat":39.4135404,"lon":8.5411098,"elevationM":378},{"id":"node:9027817070","kind":"peak","name":"Su Scaffoni","lat":39.426987,"lon":8.4944156,"elevationM":302},{"id":"node:9027832947","kind":"peak","name":"Cuccuru Suergiu","lat":39.3844893,"lon":8.4974462,"elevationM":477},{"id":"node:9027840294","kind":"peak","name":"Monte Serrau","lat":39.4012294,"lon":8.5475236,"elevationM":727},{"id":"node:9027861003","kind":"peak","name":"Punta Suecci","lat":39.4015003,"lon":8.4653904,"elevationM":531},{"id":"node:9027871501","kind":"peak","name":"Monte Palma","lat":39.3815244,"lon":8.4029261,"elevationM":404},{"id":"node:9027876225","kind":"peak","name":"Punta Su Cannoni","lat":39.3852893,"lon":8.5225748,"elevationM":601},{"id":"node:9027882933","kind":"peak","name":"Punta Mairedda","lat":39.3864428,"lon":8.5095917,"elevationM":546},{"id":"node:9027901412","kind":"peak","name":"Su Zìppiri","lat":39.3876963,"lon":8.3861085,"elevationM":110},{"id":"node:9027922509","kind":"peak","name":"Monte Malfidaneddu","lat":39.4035867,"lon":8.4184908,"elevationM":531},{"id":"node:9027934131","kind":"peak","name":"Punta Toppi Vacca","lat":39.381238,"lon":8.3841083,"elevationM":103},{"id":"node:9027934234","kind":"peak","name":"Monte Regio","lat":39.3845697,"lon":8.415983,"elevationM":453},{"id":"node:9027962118","kind":"peak","name":"Planedda","lat":39.3834676,"lon":8.4180978,"elevationM":462},{"id":"node:9027962119","kind":"peak","name":"Su Pitzianti","lat":39.3783544,"lon":8.4262079,"elevationM":423},{"id":"node:9067542525","kind":"peak","name":"Punta Guàrdia de is Turcus","lat":39.4475909,"lon":8.3906399,"elevationM":null},{"id":"node:9077320731","kind":"peak","name":"Monte Cirfini","lat":39.2429787,"lon":8.3966028,"elevationM":158},{"id":"node:9077565142","kind":"peak","name":"Monte Nai","lat":39.3444939,"lon":8.4140255,"elevationM":416},{"id":"node:9077565143","kind":"peak","name":"Schina e Monte Nai","lat":39.3421697,"lon":8.410682,"elevationM":398},{"id":"node:9077565144","kind":"peak","name":"Punta Buccione","lat":39.3433028,"lon":8.4028679,"elevationM":null},{"id":"node:9077565147","kind":"peak","name":"Punta Cubedda","lat":39.3504342,"lon":8.3907825,"elevationM":null},{"id":"node:9077565148","kind":"peak","name":"Puntixedda 'e su Muloi","lat":39.3596713,"lon":8.3905444,"elevationM":141},{"id":"node:9077652464","kind":"peak","name":"Serra Margiani","lat":39.3362763,"lon":8.4830225,"elevationM":469},{"id":"node:9077652465","kind":"peak","name":"Monte Crobu","lat":39.3419695,"lon":8.4843755,"elevationM":497},{"id":"node:9077652466","kind":"peak","name":"Punta Senestre","lat":39.3461291,"lon":8.4886463,"elevationM":547},{"id":"node:9077652467","kind":"peak","name":"Monte Pisu","lat":39.3426291,"lon":8.4772769,"elevationM":487},{"id":"node:9077652468","kind":"peak","name":"Punta Gloriamenta","lat":39.3464652,"lon":8.475501,"elevationM":534},{"id":"node:9077660145","kind":"peak","name":"Monte Agruxiau","lat":39.3099178,"lon":8.4850455,"elevationM":441},{"id":"node:9077660146","kind":"peak","name":"Monte Fenugu","lat":39.3050158,"lon":8.4915529,"elevationM":320},{"id":"node:9077660147","kind":"peak","name":"Monte Scorra","lat":39.3043425,"lon":8.4687419,"elevationM":478},{"id":"node:9077660148","kind":"peak","name":"Sa Punta S'Olioni","lat":39.3094182,"lon":8.4754439,"elevationM":495},{"id":"node:9077660149","kind":"peak","name":"Punta Mezzodi","lat":39.3081207,"lon":8.4497923,"elevationM":352},{"id":"node:9077660150","kind":"peak","name":"Pitzu Luas","lat":39.3081065,"lon":8.4616802,"elevationM":448},{"id":"node:9077660151","kind":"peak","name":"Monte Azzieddas","lat":39.3149568,"lon":8.4624623,"elevationM":542},{"id":"node:9077660171","kind":"peak","name":"Su Tuvumannu","lat":39.3267348,"lon":8.4734454,"elevationM":630},{"id":"node:9077660172","kind":"peak","name":"Punta Tudeschi","lat":39.3271991,"lon":8.4414773,"elevationM":455},{"id":"node:9077660173","kind":"peak","name":"Punta Manna di Nèbida","lat":39.3286833,"lon":8.448826,"elevationM":521},{"id":"node:9077660174","kind":"peak","name":"Punta Rubicina","lat":39.3246283,"lon":8.4511233,"elevationM":519},{"id":"node:9082502317","kind":"peak","name":"M.te San Michele Arenas","lat":39.14836,"lon":8.58034,"elevationM":492},{"id":"node:9200351866","kind":"peak","name":"Punta Crabulassu","lat":39.4970444,"lon":8.5075419,"elevationM":596},{"id":"node:9301277666","kind":"peak","name":"Punta Acquaresi","lat":39.3665126,"lon":8.4371225,"elevationM":null},{"id":"node:9301298446","kind":"peak","name":"Monte Circus","lat":39.3710582,"lon":8.4453766,"elevationM":558},{"id":"node:9301316072","kind":"peak","name":"Punta e' Su  Caddaxio","lat":39.365615,"lon":8.4149077,"elevationM":408},{"id":"node:9306893582","kind":"peak","name":"Monte Guardianu","lat":39.3456398,"lon":8.431399,"elevationM":538},{"id":"node:9306968429","kind":"peak","name":"Cuccuru Bingias","lat":39.3325042,"lon":8.4853762,"elevationM":447},{"id":"node:9307015963","kind":"peak","name":"Punta Curadori","lat":39.3500567,"lon":8.4614841,"elevationM":640},{"id":"node:9307086422","kind":"peak","name":"Punta De Ferru","lat":39.3674201,"lon":8.4605929,"elevationM":562},{"id":"node:9318802027","kind":"peak","name":"Punta Coragonis","lat":39.3305744,"lon":8.5529213,"elevationM":374},{"id":"node:9318805559","kind":"peak","name":"Punta Gennarta","lat":39.3281985,"lon":8.5450784,"elevationM":417},{"id":"node:9318806448","kind":"peak","name":"Cuccuru de is Piras","lat":39.3293836,"lon":8.5569858,"elevationM":387},{"id":"node:9318837833","kind":"peak","name":"Cuccuru Bingias","lat":39.3394725,"lon":8.5316737,"elevationM":489},{"id":"node:9318837834","kind":"peak","name":"Punta Genuazza","lat":39.3442489,"lon":8.5334211,"elevationM":476},{"id":"node:9318837835","kind":"peak","name":"Arcu de Perda","lat":39.350326,"lon":8.5372651,"elevationM":642},{"id":"node:9318837836","kind":"peak","name":"Cuccuru Contu","lat":39.3546669,"lon":8.5456454,"elevationM":807},{"id":"node:9318837837","kind":"peak","name":"Punta Cungiaus","lat":39.3486147,"lon":8.5626312,"elevationM":636},{"id":"node:9318837838","kind":"peak","name":"Punta Serra Pirasu","lat":39.3521142,"lon":8.5714783,"elevationM":773},{"id":"node:9318850906","kind":"peak","name":"Punta Su Gruttoni Mauris","lat":39.3532949,"lon":8.5859722,"elevationM":776},{"id":"node:9318852925","kind":"peak","name":"Punta Reigraxius","lat":39.3489867,"lon":8.5910776,"elevationM":906},{"id":"node:9318852926","kind":"peak","name":"Punta Sca Martini","lat":39.3422,"lon":8.5935024,"elevationM":871},{"id":"node:9328166514","kind":"peak","name":"Punta Martinedda","lat":39.3409667,"lon":8.5784006,"elevationM":797},{"id":"node:9328185592","kind":"peak","name":"Punta Su Corru Mannu","lat":39.3385464,"lon":8.5735956,"elevationM":755},{"id":"node:9328206334","kind":"peak","name":"Punta Foss'Arrubia","lat":39.3392864,"lon":8.5836829,"elevationM":720},{"id":"node:9332785625","kind":"peak","name":"Monte Giara","lat":39.0136699,"lon":8.6555394,"elevationM":283},{"id":"node:9340299390","kind":"peak","name":"Tuviois","lat":39.4066103,"lon":8.7330653,"elevationM":null},{"id":"node:9364195176","kind":"peak","name":"Punta Corona Menga","lat":39.2868618,"lon":8.5368037,"elevationM":341},{"id":"node:9364195177","kind":"peak","name":"Punta Tiria","lat":39.2765469,"lon":8.5294156,"elevationM":352},{"id":"node:9364195178","kind":"peak","name":"Monte Onixeddu, storicamente anche monte Onigello","lat":39.2578086,"lon":8.4954933,"elevationM":329},{"id":"node:9364195179","kind":"peak","name":"Monte Alisau","lat":39.2557474,"lon":8.4760157,"elevationM":216},{"id":"node:9364195180","kind":"peak","name":"Monte Coremò","lat":39.2921774,"lon":8.4484405,"elevationM":157},{"id":"node:9364195181","kind":"peak","name":"Monte Trubixedda","lat":39.3160907,"lon":8.4444656,"elevationM":440},{"id":"node:9364195182","kind":"peak","name":"Monte Sai","lat":39.325186,"lon":8.4256378,"elevationM":161},{"id":"node:9364206350","kind":"peak","name":"Monte Cresia","lat":39.319566,"lon":8.5199287,"elevationM":347},{"id":"node:9364206351","kind":"peak","name":"Punta Nebidedda","lat":39.3230858,"lon":8.5041493,"elevationM":450},{"id":"node:9364206352","kind":"peak","name":"Genna Maiori","lat":39.324636,"lon":8.5084268,"elevationM":434},{"id":"node:9364206353","kind":"peak","name":"Punta Gesus","lat":39.3290455,"lon":8.5158526,"elevationM":445},{"id":"node:9364206354","kind":"peak","name":"Punta Pitzuga","lat":39.3423471,"lon":8.5066636,"elevationM":513},{"id":"node:9364227327","kind":"peak","name":"Monte San Giovanni","lat":39.2803551,"lon":8.4788288,"elevationM":424},{"id":"node:9364227328","kind":"peak","name":"Monte Sa Fossateula","lat":39.2592507,"lon":8.530546,"elevationM":455},{"id":"node:9364227329","kind":"peak","name":"Monte Barega","lat":39.2585206,"lon":8.5220314,"elevationM":424},{"id":"node:9366878164","kind":"peak","name":"Corona Arrubia","lat":39.3982977,"lon":8.5143578,"elevationM":584},{"id":"node:9366878195","kind":"peak","name":"Punta Manna de Pinn'e Perda","lat":39.4068273,"lon":8.5678214,"elevationM":706},{"id":"node:9367087523","kind":"peak","name":"Punta Acqua Zinnigas","lat":39.4329041,"lon":8.6388226,"elevationM":1137},{"id":"node:9367376352","kind":"peak","name":"Fundu de Forru","lat":39.3930402,"lon":8.5779219,"elevationM":818},{"id":"node:9367376353","kind":"peak","name":"Punta Flumini Malu","lat":39.3912658,"lon":8.5837584,"elevationM":779},{"id":"node:9367376354","kind":"peak","name":"Punta Dom'e sa Ni","lat":39.3911072,"lon":8.6236109,"elevationM":882},{"id":"node:9367376355","kind":"peak","name":"Monte Anzeddu","lat":39.3919985,"lon":8.6385166,"elevationM":903},{"id":"node:9367376356","kind":"peak","name":"Punta Bega Trotta","lat":39.391972,"lon":8.615466,"elevationM":805},{"id":"node:9367376357","kind":"peak","name":"Punta Launeddas","lat":39.4082353,"lon":8.730552,"elevationM":570},{"id":"node:9367376358","kind":"peak","name":"M. Pauli","lat":39.4121755,"lon":8.753605,"elevationM":397},{"id":"node:9367376359","kind":"peak","name":"Punta Di Correxerbu","lat":39.3874934,"lon":8.7428118,"elevationM":469},{"id":"node:9367376360","kind":"peak","name":"Punta Perd'e Cerbu","lat":39.3313827,"lon":8.6216085,"elevationM":514},{"id":"node:9367376361","kind":"peak","name":"Monte Acqua","lat":39.3398419,"lon":8.6323893,"elevationM":540},{"id":"node:9367486642","kind":"peak","name":"Punta Su Sidiu","lat":39.3865514,"lon":8.6464777,"elevationM":693},{"id":"node:9367486643","kind":"peak","name":"Punta Pranu Cardu","lat":39.3791442,"lon":8.658577,"elevationM":692},{"id":"node:9367486645","kind":"peak","name":"M. Fiònica","lat":39.3530549,"lon":8.708625,"elevationM":580},{"id":"node:9367486646","kind":"peak","name":"Monte Serra Longa","lat":39.2447732,"lon":8.614452,"elevationM":426},{"id":"node:9367486647","kind":"peak","name":"Cuccuru de sa Idda","lat":39.2292032,"lon":8.6117578,"elevationM":581},{"id":"node:9367486649","kind":"peak","name":"Punta de Scarteddu","lat":39.2294289,"lon":8.6269369,"elevationM":616},{"id":"node:9367486650","kind":"peak","name":"Punta Is Coris","lat":39.2318034,"lon":8.6400828,"elevationM":607},{"id":"node:9367486651","kind":"peak","name":"Monte Sa Carrozzedda","lat":39.2023414,"lon":8.5419717,"elevationM":409},{"id":"node:9367534110","kind":"peak","name":"Corona sa Craba","lat":39.1933644,"lon":8.5124307,"elevationM":328},{"id":"node:9367534111","kind":"peak","name":"Serra de Mesu","lat":39.1942593,"lon":8.5251381,"elevationM":346},{"id":"node:9367534112","kind":"peak","name":"Monte Exi","lat":39.2630074,"lon":8.6406712,"elevationM":369},{"id":"node:9367534113","kind":"peak","name":"Monte Gioiosa Guardia","lat":39.2599795,"lon":8.6733492,"elevationM":392},{"id":"node:9368123884","kind":"peak","name":"Monte Rosas","lat":39.2201241,"lon":8.7016588,"elevationM":610},{"id":"node:9368268813","kind":"peak","name":"Monte Maiori","lat":39.2711019,"lon":8.7424037,"elevationM":132},{"id":"node:9370703860","kind":"peak","name":"Bruncu Zippiri","lat":39.4930157,"lon":8.4416637,"elevationM":219},{"id":"node:9373644624","kind":"peak","name":"Punta Genna is Abis","lat":39.2709864,"lon":8.9018835,"elevationM":134},{"id":"node:9373714380","kind":"peak","name":"Punta de is Corongeddus","lat":39.2414011,"lon":8.5067602,"elevationM":187},{"id":"node:9373917588","kind":"peak","name":"Arcu Sa Cruxi","lat":39.2269513,"lon":8.5254395,"elevationM":218},{"id":"node:9373917590","kind":"peak","name":"M. Pertunto","lat":39.22323,"lon":8.5188916,"elevationM":161},{"id":"node:9380006695","kind":"peak","name":"Monte Oi, storicamente anche Monte de Ori","lat":39.2679309,"lon":8.5380672,"elevationM":316},{"id":"node:9380050198","kind":"peak","name":"Monte Genna Luas","lat":39.2872529,"lon":8.546932,"elevationM":329},{"id":"node:9380050199","kind":"peak","name":"Monte Palmas","lat":39.28863,"lon":8.5422438,"elevationM":null},{"id":"node:9386557557","kind":"peak","name":"Punta Picculu Mau","lat":39.2460087,"lon":8.6237297,"elevationM":404},{"id":"node:9388687277","kind":"peak","name":"Punta de su Callau Axeru","lat":39.2953725,"lon":8.4794611,"elevationM":176},{"id":"node:9388733620","kind":"peak","name":"Monte Arbu","lat":39.29163,"lon":8.4671086,"elevationM":269},{"id":"node:9388733671","kind":"peak","name":"Monte Gloria","lat":39.3604441,"lon":8.4262093,"elevationM":464},{"id":"node:9388733672","kind":"peak","name":"Monte Sporra","lat":39.3594014,"lon":8.4373181,"elevationM":457},{"id":"node:9388733673","kind":"peak","name":"Punta Triargiu","lat":39.3549299,"lon":8.4222529,"elevationM":416},{"id":"node:9392526004","kind":"peak","name":"Punta Bellavista","lat":39.3031201,"lon":8.5052517,"elevationM":null},{"id":"node:9392803366","kind":"peak","name":"Punta Baddisoni","lat":39.4161327,"lon":8.6071372,"elevationM":697},{"id":"node:9392803367","kind":"peak","name":"Punta Bolentino","lat":39.417786,"lon":8.5750264,"elevationM":871},{"id":"node:9392803368","kind":"peak","name":"P.ta Zenneru","lat":39.4324837,"lon":8.5726241,"elevationM":913},{"id":"node:9404434539","kind":"peak","name":"Punta Is Ollastus","lat":39.2855228,"lon":8.4849631,"elevationM":431},{"id":"node:9407213767","kind":"peak","name":"Su Monserrau","lat":39.3958184,"lon":8.4243659,"elevationM":372},{"id":"node:9410912215","kind":"peak","name":"Monte Uda","lat":39.2659784,"lon":8.487574,"elevationM":253},{"id":"node:9410939705","kind":"peak","name":"Monte Meu","lat":39.2891794,"lon":8.4744583,"elevationM":142},{"id":"node:9413530550","kind":"peak","name":"Punta Maiorchina","lat":39.2352242,"lon":8.4062788,"elevationM":null},{"id":"node:9413530673","kind":"peak","name":"Monte Sinni","lat":39.2236477,"lon":8.4260286,"elevationM":173},{"id":"node:9415769749","kind":"peak","name":"Corona Maria","lat":39.2448872,"lon":8.4446519,"elevationM":204},{"id":"node:9415973798","kind":"peak","name":"M. Sfrais","lat":39.2093258,"lon":8.4292979,"elevationM":107},{"id":"node:9416178920","kind":"peak","name":"Punta de sa Intilla","lat":39.2591657,"lon":8.4298955,"elevationM":170},{"id":"node:9418095425","kind":"peak","name":"Monte Perda","lat":39.3670725,"lon":8.5353552,"elevationM":741},{"id":"node:9418095426","kind":"peak","name":"Punta Corremò","lat":39.3655132,"lon":8.5417925,"elevationM":692},{"id":"node:9418095427","kind":"peak","name":"Punta Genna Aragosta","lat":39.3708215,"lon":8.5426508,"elevationM":777},{"id":"node:9418095428","kind":"peak","name":"Punta Montinou","lat":39.3661436,"lon":8.5567903,"elevationM":769},{"id":"node:9418095429","kind":"peak","name":"Punta Arbona","lat":39.3653198,"lon":8.5650965,"elevationM":851},{"id":"node:9418095430","kind":"peak","name":"Punta sa Ducchessa","lat":39.3719251,"lon":8.5749075,"elevationM":814},{"id":"node:9418097720","kind":"peak","name":"Punta Fenu Trainu","lat":39.3662636,"lon":8.5756378,"elevationM":770},{"id":"node:9418252908","kind":"peak","name":"Punta S. Vittoria","lat":39.4580859,"lon":8.5403255,"elevationM":687},{"id":"node:9418383766","kind":"peak","name":"M. Crabulasseddu","lat":39.5025994,"lon":8.4947227,"elevationM":357},{"id":"node:9418383767","kind":"peak","name":"Rocca Su Mori","lat":39.5230326,"lon":8.5362469,"elevationM":545},{"id":"node:9418383768","kind":"peak","name":"Punta Su Salixi","lat":39.527269,"lon":8.4932671,"elevationM":309},{"id":"node:9418383769","kind":"peak","name":"Punta Craboni","lat":39.5270445,"lon":8.5089717,"elevationM":353},{"id":"node:9418383770","kind":"peak","name":"Bruncu Arcu","lat":39.5642743,"lon":8.4616902,"elevationM":89},{"id":"node:9418383771","kind":"peak","name":"Punta Pisottu","lat":39.5653094,"lon":8.4907739,"elevationM":275},{"id":"node:9418383772","kind":"peak","name":"Punta Nuracciolu","lat":39.5648233,"lon":8.5057852,"elevationM":338},{"id":"node:9418383773","kind":"peak","name":"Punta is Gennas","lat":39.5838462,"lon":8.5197308,"elevationM":444},{"id":"node:9418383774","kind":"peak","name":"Monte Carriadroxiu de su Casu","lat":39.5849384,"lon":8.5128265,"elevationM":404},{"id":"node:9418383775","kind":"peak","name":"Campu Sandru","lat":39.5764523,"lon":8.5329035,"elevationM":305},{"id":"node:9418383776","kind":"peak","name":"Monte Perdosu","lat":39.6252062,"lon":8.4993219,"elevationM":345},{"id":"node:9418383777","kind":"peak","name":"Monte S'Olioni Mannu","lat":39.6498737,"lon":8.498668,"elevationM":null},{"id":"node:9418383778","kind":"peak","name":"Monte Laus de Riaxi","lat":39.6578239,"lon":8.5184299,"elevationM":521},{"id":"node:9418417654","kind":"peak","name":"Monte Fonnesu","lat":39.6515427,"lon":8.531945,"elevationM":554},{"id":"node:9418417655","kind":"peak","name":"Cuc.ru Gutturu Ortigu","lat":39.6425765,"lon":8.5395753,"elevationM":454},{"id":"node:9418417656","kind":"peak","name":"Monte Sa Perda","lat":39.6609948,"lon":8.571707,"elevationM":280},{"id":"node:9418417657","kind":"peak","name":"Monte Ois","lat":39.6703335,"lon":8.5602124,"elevationM":298},{"id":"node:9418417658","kind":"peak","name":"Punta Zurrabidi","lat":39.6704023,"lon":8.5417627,"elevationM":296},{"id":"node:9418417659","kind":"peak","name":"Punta Florenti","lat":39.662094,"lon":8.5614128,"elevationM":291},{"id":"node:9418417660","kind":"peak","name":"Monte Nurecci","lat":39.6355378,"lon":8.5661534,"elevationM":324},{"id":"node:9418417661","kind":"peak","name":"Punta Maimoi","lat":39.6174965,"lon":8.4607324,"elevationM":68},{"id":"node:9423492349","kind":"peak","name":"M. Murvonis","lat":39.3468917,"lon":8.6401952,"elevationM":432},{"id":"node:9437922584","kind":"peak","name":"Montagna di Ravenna","lat":39.1517859,"lon":8.2444267,"elevationM":192},{"id":"node:9437922585","kind":"peak","name":"Monte della Borrona","lat":39.1603814,"lon":8.2308281,"elevationM":null},{"id":"node:9437922586","kind":"peak","name":"Becco Nasca","lat":39.1599773,"lon":8.2529593,"elevationM":164},{"id":"node:9437922587","kind":"peak","name":"Becco delle Scimmie","lat":39.1652863,"lon":8.2652752,"elevationM":134},{"id":"node:9437922588","kind":"peak","name":"Monte Tortoriso","lat":39.1564346,"lon":8.2823113,"elevationM":209},{"id":"node:9437922589","kind":"peak","name":"Becco della Guardia","lat":39.1348381,"lon":8.255435,"elevationM":186},{"id":"node:9437922590","kind":"peak","name":"Becco Tomaso","lat":39.1330646,"lon":8.2733793,"elevationM":163},{"id":"node:9437922591","kind":"peak","name":"Il Pulpito","lat":39.1770434,"lon":8.2800785,"elevationM":69},{"id":"node:9442576189","kind":"peak","name":"Monte di Cala Vinagra","lat":39.1613477,"lon":8.237699,"elevationM":158},{"id":"node:9442673090","kind":"peak","name":"Punta Senoglio","lat":39.1666665,"lon":8.2466712,"elevationM":86},{"id":"node:9451215698","kind":"peak","name":"Monte di Gasparro","lat":39.1150496,"lon":8.2749078,"elevationM":112},{"id":"node:9451215699","kind":"peak","name":"Becco Napoleone","lat":39.1252186,"lon":8.257744,"elevationM":120},{"id":"node:9451215700","kind":"peak","name":"Becco Polpo","lat":39.1284328,"lon":8.2638319,"elevationM":150},{"id":"node:9451262737","kind":"peak","name":"Becco di Benitto","lat":39.1257266,"lon":8.2750496,"elevationM":126},{"id":"node:9451262738","kind":"peak","name":"Becco Birincampo","lat":39.1308164,"lon":8.2706123,"elevationM":156},{"id":"node:9451283861","kind":"peak","name":"B.co del Cìo","lat":39.1243441,"lon":8.2501721,"elevationM":66},{"id":"node:9451288739","kind":"peak","name":"B.co Resciotto","lat":39.1167964,"lon":8.2971262,"elevationM":82},{"id":"node:9452535577","kind":"peak","name":"Malagigi","lat":39.1231843,"lon":8.2705995,"elevationM":100},{"id":"node:9483953817","kind":"peak","name":"Monte Sepoltura","lat":39.1349701,"lon":8.2636436,"elevationM":180},{"id":"node:9492836685","kind":"peak","name":"Capo Sandalo","lat":39.1475578,"lon":8.2236388,"elevationM":106},{"id":"node:9520116133","kind":"peak","name":"Colle del Buon Cammino","lat":39.3186204,"lon":8.5241393,"elevationM":342},{"id":"node:9522591697","kind":"peak","name":"Monte Su Tronu","lat":39.1495047,"lon":8.8519831,"elevationM":723},{"id":"node:9527538824","kind":"peak","name":"Becco Scarperino","lat":39.0804493,"lon":8.3740527,"elevationM":61},{"id":"node:9527538825","kind":"peak","name":"Sedda de Antiogu Selis","lat":39.0672141,"lon":8.3851694,"elevationM":75},{"id":"node:9527538826","kind":"peak","name":"Su Cuccu de su Sensu","lat":39.0646375,"lon":8.4035776,"elevationM":131},{"id":"node:9527538828","kind":"peak","name":"Perda de is Ominis","lat":39.0404236,"lon":8.4112365,"elevationM":233},{"id":"node:9527538829","kind":"peak","name":"Perdas Stufaras","lat":39.0375596,"lon":8.4159927,"elevationM":237},{"id":"node:9527538830","kind":"peak","name":"Monte S'Arraigraxiu","lat":39.0062208,"lon":8.4398299,"elevationM":134},{"id":"node:9543571221","kind":"peak","name":"Monte de si Baccas","lat":39.0347442,"lon":8.4453427,"elevationM":106},{"id":"node:9543588743","kind":"peak","name":"Punta de sa Scruidda","lat":39.0130771,"lon":8.4471156,"elevationM":null},{"id":"node:9550560164","kind":"peak","name":"Serra de Nuragius","lat":39.0165359,"lon":8.413471,"elevationM":153},{"id":"node:9550560165","kind":"peak","name":"Su Cùccuru de su Pixinas","lat":39.0155141,"lon":8.4083566,"elevationM":187},{"id":"node:9563060367","kind":"peak","name":"Punta Scovera","lat":39.3453316,"lon":8.4465812,"elevationM":557},{"id":"node:9563114552","kind":"peak","name":"Punta Sorixedda","lat":39.3616123,"lon":8.4743153,"elevationM":632},{"id":"node:9574788305","kind":"peak","name":"Corru 'e Corti","lat":39.3681195,"lon":8.383899,"elevationM":103},{"id":"node:9574788306","kind":"peak","name":"Cùcuru de su Zinnìbiri","lat":39.3685065,"lon":8.3884953,"elevationM":102},{"id":"node:9599437856","kind":"peak","name":"Punta Cortis","lat":39.3372134,"lon":8.4367865,"elevationM":502},{"id":"node:9600007494","kind":"peak","name":"Cuccuru Faa","lat":39.3768761,"lon":8.5334203,"elevationM":702},{"id":"node:9600146000","kind":"peak","name":"Sa Punta 'e su Gallesu","lat":39.3991897,"lon":8.4964261,"elevationM":488},{"id":"node:9603877751","kind":"peak","name":"Punta Porceddu","lat":39.2808894,"lon":8.52732,"elevationM":320},{"id":"node:9610570285","kind":"peak","name":"Cùcuru Marco","lat":39.2591928,"lon":8.5122338,"elevationM":243},{"id":"node:9610621450","kind":"peak","name":"Sa Conca de su Sperrau","lat":39.2461847,"lon":8.4905446,"elevationM":168},{"id":"node:9612647469","kind":"peak","name":"Conc' Arrubiu","lat":39.3874977,"lon":8.6365279,"elevationM":811},{"id":"node:9612736182","kind":"peak","name":"M. Lisone Ovest","lat":39.4298836,"lon":8.5806785,"elevationM":1082},{"id":"node:9643599006","kind":"peak","name":"Punte 'E Bosi","lat":39.2389488,"lon":8.7329905,"elevationM":248},{"id":"node:9643658094","kind":"peak","name":"Cuccuru Perdu Sanna","lat":39.2279386,"lon":8.740591,"elevationM":567},{"id":"node:9643658095","kind":"peak","name":"Monte Orri","lat":39.2311704,"lon":8.7547072,"elevationM":722},{"id":"node:9643658096","kind":"peak","name":"P.ta M. Orreddu","lat":39.237106,"lon":8.7594728,"elevationM":608},{"id":"node:9643658097","kind":"peak","name":"Monte Orbai","lat":39.2263816,"lon":8.7292664,"elevationM":635},{"id":"node:9689639159","kind":"peak","name":"Punta Genna Piras","lat":39.3699239,"lon":8.6289579,"elevationM":523},{"id":"node:9689646500","kind":"peak","name":"Monte Crabas","lat":39.3724014,"lon":8.6133916,"elevationM":517},{"id":"node:9689652701","kind":"peak","name":"Monte Nieddu de Fenugus","lat":39.364758,"lon":8.6462395,"elevationM":572},{"id":"node:9689652702","kind":"peak","name":"Monte Tiria","lat":39.3687559,"lon":8.6459391,"elevationM":591},{"id":"node:9689658788","kind":"peak","name":"Monte Ei","lat":39.3792602,"lon":8.6127761,"elevationM":574},{"id":"node:9689658789","kind":"peak","name":"Monte Guisi","lat":39.387821,"lon":8.6215935,"elevationM":846},{"id":"node:9689856311","kind":"peak","name":"Punta Monti Mannu","lat":39.5262112,"lon":8.6154942,"elevationM":545},{"id":"node:9689856312","kind":"peak","name":"Monte Furoni Mannu","lat":39.5240743,"lon":8.615414,"elevationM":560},{"id":"node:9689856315","kind":"peak","name":"Punta Conca Malu","lat":39.5227157,"lon":8.6047844,"elevationM":399},{"id":"node:9689856317","kind":"peak","name":"Conca Su Bentu","lat":39.5154084,"lon":8.6179186,"elevationM":376},{"id":"node:9690210763","kind":"peak","name":"Monte Crabas","lat":39.4387167,"lon":8.7245969,"elevationM":489},{"id":"node:9690210765","kind":"peak","name":"Punta Genna Spina","lat":39.4347295,"lon":8.6920146,"elevationM":852},{"id":"node:9707450141","kind":"peak","name":"Monte Limpiu","lat":39.2473242,"lon":8.6575395,"elevationM":498},{"id":"node:9707450142","kind":"peak","name":"Cuccuru Cadira","lat":39.2410793,"lon":8.6669264,"elevationM":488},{"id":"node:9707458170","kind":"peak","name":"Sa Furcone Manna","lat":39.2269805,"lon":8.6872679,"elevationM":518},{"id":"node:9707458171","kind":"peak","name":"M. Scorra","lat":39.2281632,"lon":8.685192,"elevationM":574},{"id":"node:9707480201","kind":"peak","name":"Punta su Finugu","lat":39.2176716,"lon":8.6888299,"elevationM":565},{"id":"node:9707480202","kind":"peak","name":"M. Ega","lat":39.1901788,"lon":8.6712751,"elevationM":398},{"id":"node:9720113161","kind":"peak","name":"Monte Arrari","lat":39.2451958,"lon":8.6475737,"elevationM":413},{"id":"node:9720113162","kind":"peak","name":"Punta Predi Antiogu","lat":39.2493221,"lon":8.6518972,"elevationM":412},{"id":"node:9720113163","kind":"peak","name":"Monte Funtana","lat":39.2393509,"lon":8.6552706,"elevationM":482},{"id":"node:9720113164","kind":"peak","name":"Punta S. Barbara","lat":39.2280732,"lon":8.6400451,"elevationM":588},{"id":"node:9720113165","kind":"peak","name":"Punta Genn'e Mendulas","lat":39.2250098,"lon":8.6503977,"elevationM":541},{"id":"node:9720220850","kind":"peak","name":"Punta di Genna Pira","lat":39.2141503,"lon":8.6788671,"elevationM":587},{"id":"node:9720220851","kind":"peak","name":"Punta Mareddu","lat":39.2201256,"lon":8.670075,"elevationM":570},{"id":"node:9720220852","kind":"peak","name":"P.ta Masonis","lat":39.1781995,"lon":8.6363822,"elevationM":331},{"id":"node:9720220853","kind":"peak","name":"M. S'Orcu","lat":39.1857339,"lon":8.6149033,"elevationM":332},{"id":"node:10201517103","kind":"peak","name":"Punta S'Acchilonis","lat":39.0486773,"lon":8.9045209,"elevationM":706},{"id":"node:10201521750","kind":"peak","name":"Punta is Canargius","lat":39.0392613,"lon":8.8956052,"elevationM":664},{"id":"node:10201521766","kind":"peak","name":"Punta Sa Castangia","lat":39.0303359,"lon":8.9036894,"elevationM":806},{"id":"node:10201521816","kind":"peak","name":"Punta S'Olioni","lat":39.0187919,"lon":8.8966781,"elevationM":856},{"id":"node:10201521817","kind":"peak","name":"Portas Santas","lat":39.0271146,"lon":8.8890338,"elevationM":782},{"id":"node:10201521818","kind":"peak","name":"Punta Groffinu","lat":39.0229013,"lon":8.8937008,"elevationM":792},{"id":"node:10219687914","kind":"peak","name":"Punta su Forru","lat":39.0361738,"lon":8.8205409,"elevationM":854},{"id":"node:10219707617","kind":"peak","name":"Monte Chia","lat":39.0303525,"lon":8.817156,"elevationM":802},{"id":"node:10247702805","kind":"peak","name":"Su Cuccuru De Salvatore Deidda","lat":39.4325221,"lon":8.6436331,"elevationM":1101},{"id":"node:10250407281","kind":"peak","name":"Genna Uddaminis","lat":39.458905,"lon":8.6830857,"elevationM":824},{"id":"node:10537628961","kind":"peak","name":"Genna Bogai","lat":39.3734459,"lon":8.5014433,"elevationM":648},{"id":"node:10690814435","kind":"peak","name":"Pitzu Maialis","lat":39.7616904,"lon":8.7405682,"elevationM":575},{"id":"node:10718606250","kind":"peak","name":"Punta S'Arcareodu","lat":39.3460427,"lon":8.6240879,"elevationM":null},{"id":"node:10718606278","kind":"peak","name":"Sa Punta de Antiogu e Pau","lat":39.3544221,"lon":8.6081153,"elevationM":358},{"id":"node:11042009819","kind":"peak","name":"Punta Sfraìs","lat":39.21568,"lon":8.4279417,"elevationM":128},{"id":"node:11429433625","kind":"peak","name":"Cùccuru Medareddu","lat":39.2673099,"lon":8.5282878,"elevationM":314},{"id":"node:11429441467","kind":"peak","name":"Cùcuru Pilleddu","lat":39.2652922,"lon":8.5297309,"elevationM":314},{"id":"node:11518728707","kind":"peak","name":"Vedetta Su Bagadiu","lat":39.0037027,"lon":8.9455318,"elevationM":null},{"id":"node:12189066426","kind":"peak","name":"Monti Arbu","lat":39.1810376,"lon":8.9596938,"elevationM":192},{"id":"node:12189066427","kind":"peak","name":"Sa Cresiedda","lat":39.1778509,"lon":8.9557471,"elevationM":null},{"id":"node:12378992565","kind":"peak","name":"Punta de su Luru","lat":39.1122428,"lon":8.9249665,"elevationM":536},{"id":"node:12379013405","kind":"peak","name":"Monte Capeddu","lat":39.1238882,"lon":8.9157057,"elevationM":702},{"id":"node:12379025307","kind":"peak","name":"Punta Taccheddu Abettu","lat":39.1218744,"lon":8.9226245,"elevationM":603},{"id":"node:12379027647","kind":"peak","name":"Conca de Oru","lat":39.1276018,"lon":8.9139211,"elevationM":656},{"id":"node:12379031924","kind":"peak","name":"Punta de su Lillu","lat":39.1296924,"lon":8.9230192,"elevationM":712},{"id":"node:12379038840","kind":"peak","name":"Punta Conciadori","lat":39.1345285,"lon":8.923924,"elevationM":615},{"id":"node:12379040609","kind":"peak","name":"Punta de Peis de Prua","lat":39.1219616,"lon":8.9324753,"elevationM":588},{"id":"node:12379045225","kind":"peak","name":"Punta s'Omu dei Abis","lat":39.1153728,"lon":8.9330175,"elevationM":527},{"id":"node:12379046639","kind":"peak","name":"Su Zinnibiri","lat":39.1262169,"lon":8.920101,"elevationM":709},{"id":"node:12379060413","kind":"peak","name":"Punta de sa Loriga","lat":39.1663947,"lon":8.9443131,"elevationM":483},{"id":"node:12379063200","kind":"peak","name":"Monte Picci","lat":39.1616007,"lon":8.9293572,"elevationM":485},{"id":"node:12379078270","kind":"peak","name":"Punta de is Gabieddasa","lat":39.1239992,"lon":8.9562619,"elevationM":419},{"id":"node:12379086391","kind":"peak","name":"Sa Punta de sa Stiddiosa","lat":39.168916,"lon":8.9445971,"elevationM":470},{"id":"node:12379101083","kind":"peak","name":"Sa Punta de is Postas","lat":39.1531656,"lon":8.9296796,"elevationM":609},{"id":"node:12379193966","kind":"peak","name":"Punta de s'Aqueferru","lat":39.1763223,"lon":8.9489353,"elevationM":291},{"id":"node:12379349134","kind":"peak","name":"Monte Levanti","lat":39.1341648,"lon":8.9021628,"elevationM":573},{"id":"node:12379381397","kind":"peak","name":"Punta Gennesoi","lat":39.1810638,"lon":8.9417656,"elevationM":366},{"id":"node:12379401414","kind":"peak","name":"Punta Bidda 'Eccia","lat":39.1791837,"lon":8.9434713,"elevationM":350},{"id":"node:12379415109","kind":"peak","name":"Su Sinzurru","lat":39.1571569,"lon":8.9659835,"elevationM":179},{"id":"node:12381031005","kind":"peak","name":"Monte Castroni","lat":39.1216879,"lon":8.9067851,"elevationM":586},{"id":"node:12381031006","kind":"peak","name":"Monte Cuccurargiu","lat":39.1224236,"lon":8.8939188,"elevationM":557},{"id":"node:12381076908","kind":"peak","name":"Montrabu","lat":39.1030816,"lon":8.9112106,"elevationM":373},{"id":"node:12381099466","kind":"peak","name":"Sa Punta de is Abruxiaus de is Ollastus","lat":39.1142368,"lon":8.8962085,"elevationM":482},{"id":"node:12393953342","kind":"volcano","name":"Cratere del Vulcano quiescente San Giacomo","lat":39.1538133,"lon":8.2583907,"elevationM":null},{"id":"node:12850596597","kind":"peak","name":"Torre straniera","lat":39.4690298,"lon":8.3853552,"elevationM":null},{"id":"node:13060052704","kind":"peak","name":"P.ta Piscina Irgas","lat":39.4105469,"lon":8.6297115,"elevationM":690},{"id":"node:13060052705","kind":"peak","name":"Nuraxeddu","lat":39.4099743,"lon":8.627624,"elevationM":699},{"id":"node:13639223209","kind":"peak","name":"Genn’e Mari","lat":39.6345492,"lon":8.8543099,"elevationM":407}]}