{"tileKey":"la_p36_lo_p58","version":"v1-1775891056926","entries":[{"id":"node:341186261","kind":"peak","name":"بینالود","lat":36.4267224,"lon":58.847551,"elevationM":3231},{"id":"node:6864120647","kind":"peak","name":"شاه رضا","lat":36.3691403,"lon":58.9774978,"elevationM":3158},{"id":"node:11885062593","kind":"peak","name":"اوشک","lat":36.2804331,"lon":58.9751215,"elevationM":2870},{"id":"node:11885062594","kind":"peak","name":"سرپوش","lat":36.273238,"lon":58.9748657,"elevationM":2565},{"id":"node:11885068062","kind":"peak","name":"برف ریز","lat":36.306387,"lon":58.9221552,"elevationM":2700},{"id":"node:11885075031","kind":"peak","name":"کان مس","lat":36.3065204,"lon":58.9433486,"elevationM":2850},{"id":"node:11885081948","kind":"peak","name":"مرغدراز","lat":36.3506829,"lon":58.9971885,"elevationM":3126},{"id":"node:12182304364","kind":"peak","name":"کلاغان","lat":36.3619666,"lon":58.8369553,"elevationM":2500},{"id":"node:12182304366","kind":"peak","name":"زرگران","lat":36.4080635,"lon":58.8353157,"elevationM":2969},{"id":"node:12182304384","kind":"peak","name":"أرس","lat":36.3074651,"lon":58.9766199,"elevationM":2999}]}