{"tileKey":"la_p37_lo_m4","version":"v1-1775891056926","entries":[{"id":"node:26862682","kind":"peak","name":"Chullo","lat":37.0949882,"lon":-3.0000592,"elevationM":2612},{"id":"node:26864261","kind":"peak","name":"Pico de Mulhacén","lat":37.0533806,"lon":-3.3115572,"elevationM":3479},{"id":"node:26864393","kind":"peak","name":"Cuevas del Aire","lat":37.8258794,"lon":-3.395603,"elevationM":1315},{"id":"node:26864614","kind":"peak","name":"La Pandera","lat":37.6304182,"lon":-3.7750434,"elevationM":1870},{"id":"node:26864641","kind":"peak","name":"Sierra Jabalcuz","lat":37.7373774,"lon":-3.8430634,"elevationM":1618},{"id":"node:26864642","kind":"peak","name":"Mágina","lat":37.7259979,"lon":-3.4640951,"elevationM":2165},{"id":"node:26864643","kind":"peak","name":"Pico El Morrón","lat":37.3047316,"lon":-3.9283219,"elevationM":1603},{"id":"node:26865001","kind":"peak","name":"Grajales","lat":37.6679613,"lon":-3.6882186,"elevationM":1657},{"id":"node:33463023","kind":"peak","name":"Alto del Chorrillo","lat":37.0115879,"lon":-3.3050393,"elevationM":2721},{"id":"node:132963272","kind":"peak","name":"Pico del Veleta","lat":37.0560211,"lon":-3.3656885,"elevationM":3396},{"id":"node:576064991","kind":"peak","name":"Tajo del Moro","lat":37.1710407,"lon":-3.9884501,"elevationM":628},{"id":"node:576776968","kind":"peak","name":"Tajo Alto de los Machos","lat":37.0161693,"lon":-3.4062932,"elevationM":3088},{"id":"node:845603847","kind":"peak","name":"Mulhacén II","lat":37.0442468,"lon":-3.3120776,"elevationM":3362},{"id":"node:899377280","kind":"peak","name":"Peña de Martos","lat":37.7179006,"lon":-3.9609914,"elevationM":1008},{"id":"node:937910053","kind":"peak","name":"La Alcazaba","lat":37.0678659,"lon":-3.3011576,"elevationM":3369},{"id":"node:949513622","kind":"peak","name":"Agreda","lat":37.3792866,"lon":-3.8945769,"elevationM":1257},{"id":"node:1242503982","kind":"peak","name":"Morrón de la Cabañuela","lat":37.1149558,"lon":-3.0439936,"elevationM":2232},{"id":"node:1242503995","kind":"peak","name":"Cerro del Escribano","lat":37.3823912,"lon":-3.7963544,"elevationM":858},{"id":"node:1242504246","kind":"peak","name":"Cerro de la Hoz","lat":37.3012959,"lon":-3.5462989,"elevationM":1195},{"id":"node:1242504501","kind":"peak","name":"Cerro de los Espinos","lat":37.0491838,"lon":-3.8118858,"elevationM":954},{"id":"node:1242504577","kind":"peak","name":"Cerro de los Lirios","lat":37.3982646,"lon":-3.6447671,"elevationM":1253},{"id":"node:1242504749","kind":"peak","name":"Cerro de los Llanos","lat":37.2589444,"lon":-3.2144957,"elevationM":1143},{"id":"node:1242504890","kind":"peak","name":"Cerro de la Cobertera","lat":37.3610131,"lon":-3.5861302,"elevationM":902},{"id":"node:1242505439","kind":"peak","name":"Cerro del Montamao","lat":37.3557207,"lon":-3.7108181,"elevationM":796},{"id":"node:1242505582","kind":"peak","name":"Cerro de las Capellanías","lat":37.4437485,"lon":-3.6311306,"elevationM":1053},{"id":"node:1242505649","kind":"peak","name":"Cerro de las Chinas","lat":37.5780306,"lon":-3.531524,"elevationM":1279},{"id":"node:1242506368","kind":"peak","name":"Cerro del Mirador Alto","lat":37.1419181,"lon":-3.2499899,"elevationM":2684},{"id":"node:1242506582","kind":"peak","name":"Puntal del Serrano","lat":37.0269932,"lon":-3.7184928,"elevationM":1068},{"id":"node:1242506862","kind":"peak","name":"Atalaya del Púlpito","lat":37.0444802,"lon":-3.3514091,"elevationM":2979},{"id":"node:1242507763","kind":"peak","name":"Cerro del Mirador Bajo","lat":37.148813,"lon":-3.2420441,"elevationM":2530},{"id":"node:1242508025","kind":"peak","name":"Cerrillo de las Liebres","lat":37.3405818,"lon":-3.6870462,"elevationM":812},{"id":"node:1242508152","kind":"peak","name":"Cerro Bololo","lat":37.1506667,"lon":-3.1492837,"elevationM":1542},{"id":"node:1242508301","kind":"peak","name":"Cerro de la Higuera","lat":37.6101795,"lon":-3.4968015,"elevationM":1175},{"id":"node:1242508727","kind":"peak","name":"Cerro de Mingoandrés","lat":37.3546813,"lon":-3.8149621,"elevationM":994},{"id":"node:1242508744","kind":"peak","name":"Cerro el Pico","lat":37.6057296,"lon":-3.1702026,"elevationM":1012},{"id":"node:1242508850","kind":"peak","name":"Peña Gorda","lat":37.0705316,"lon":-3.9627492,"elevationM":1003},{"id":"node:1242509520","kind":"peak","name":"Cerro de Cagacebo","lat":37.3156758,"lon":-3.5627422,"elevationM":1139},{"id":"node:1242509549","kind":"peak","name":"Cerro de los Muertos","lat":37.1197697,"lon":-3.17383,"elevationM":2161},{"id":"node:1242509876","kind":"peak","name":"Cerro del Sanatorio","lat":37.1355293,"lon":-3.4964255,"elevationM":1492},{"id":"node:1242509998","kind":"peak","name":"Peñón del Puerto","lat":37.1219549,"lon":-3.0482436,"elevationM":2142},{"id":"node:1242510108","kind":"peak","name":"Cerro del Chaparral","lat":37.4570327,"lon":-3.6459182,"elevationM":1016},{"id":"node:1242510574","kind":"peak","name":"Cerro de Majada Vieja","lat":37.4654521,"lon":-3.6775109,"elevationM":1115},{"id":"node:1242510700","kind":"peak","name":"Cerro del Tajo","lat":37.2403248,"lon":-3.6823176,"elevationM":876},{"id":"node:1242511043","kind":"peak","name":"El Morrón","lat":37.3861594,"lon":-3.3527644,"elevationM":1504},{"id":"node:1242511097","kind":"peak","name":"Cerrillo de Nieva","lat":37.380861,"lon":-3.0347216,"elevationM":1225},{"id":"node:1242511495","kind":"peak","name":"Peñón de Catorre","lat":37.2838223,"lon":-3.4547174,"elevationM":1431},{"id":"node:1242511635","kind":"peak","name":"Morrón de la Punta","lat":37.2505803,"lon":-3.7101091,"elevationM":1050},{"id":"node:1242511751","kind":"peak","name":"Cerro de Marchales","lat":37.4354525,"lon":-3.7471896,"elevationM":1004},{"id":"node:1242511890","kind":"peak","name":"Cerro de la Nava o Cerro Pelón","lat":37.390608,"lon":-3.5480027,"elevationM":917},{"id":"node:1242511962","kind":"peak","name":"Cerro de las Atalayuelas","lat":37.4436891,"lon":-3.5567433,"elevationM":1036},{"id":"node:1242511995","kind":"peak","name":"Cerro de la Cruz","lat":37.1563315,"lon":-3.8881461,"elevationM":685},{"id":"node:1242512106","kind":"peak","name":"Cerro de las Coscojas","lat":37.3685539,"lon":-3.8355012,"elevationM":947},{"id":"node:1242512399","kind":"peak","name":"Cerro Redondo","lat":37.1567366,"lon":-3.1388601,"elevationM":1443},{"id":"node:1242512473","kind":"peak","name":"Cerro de la Máquina","lat":37.5388827,"lon":-3.1954467,"elevationM":1144},{"id":"node:1242512896","kind":"peak","name":"Cerro Largo","lat":37.3361816,"lon":-3.0117657,"elevationM":1585},{"id":"node:1242512918","kind":"peak","name":"Cerro Altero","lat":37.5482217,"lon":-3.2612455,"elevationM":1113},{"id":"node:1242512952","kind":"peak","name":"La Pañoleta","lat":37.5124837,"lon":-3.4611711,"elevationM":1072},{"id":"node:1242513279","kind":"peak","name":"El Greal","lat":37.4929909,"lon":-3.5260648,"elevationM":1066},{"id":"node:1242513747","kind":"peak","name":"Cerrillo de los Tiestos","lat":37.3768799,"lon":-3.5687502,"elevationM":901},{"id":"node:1242514154","kind":"peak","name":"Pico de la Carne","lat":37.0906952,"lon":-3.5031453,"elevationM":1806},{"id":"node:1242514614","kind":"peak","name":"Cerro de la Tomasa","lat":37.4560075,"lon":-3.5987102,"elevationM":1137},{"id":"node:1242514746","kind":"peak","name":"Cerro de la Mesa","lat":37.1023813,"lon":-3.9520121,"elevationM":879},{"id":"node:1242514863","kind":"peak","name":"Cerro de Poyo Alto","lat":37.0387203,"lon":-3.5382371,"elevationM":1549},{"id":"node:1242515200","kind":"peak","name":"Cerro de la Mina","lat":37.5054001,"lon":-3.1010439,"elevationM":917},{"id":"node:1242515395","kind":"peak","name":"El Castillejo","lat":37.1134722,"lon":-3.8874705,"elevationM":843},{"id":"node:1242515605","kind":"peak","name":"Loma del Arco","lat":37.474404,"lon":-3.7440243,"elevationM":1277},{"id":"node:1242515712","kind":"peak","name":"Cerro de la Raja","lat":37.5042676,"lon":-3.1091444,"elevationM":869},{"id":"node:1242515744","kind":"peak","name":"Peñón de Lanteira","lat":37.1423243,"lon":-3.138581,"elevationM":1714},{"id":"node:1242515778","kind":"peak","name":"Cerro Vacas","lat":37.1960975,"lon":-3.9373291,"elevationM":602},{"id":"node:1242515822","kind":"peak","name":"Alto del Barranco","lat":37.4578271,"lon":-3.1944008,"elevationM":867},{"id":"node:1242515936","kind":"peak","name":"Morrón de la Maleza","lat":37.3605747,"lon":-3.8316471,"elevationM":954},{"id":"node:1242515946","kind":"peak","name":"Cerro de la Bandera","lat":37.2034637,"lon":-3.9123446,"elevationM":598},{"id":"node:1242516261","kind":"peak","name":"Cerro de los Chaparros","lat":37.1553359,"lon":-3.106412,"elevationM":1641},{"id":"node:1242516464","kind":"peak","name":"Cerro de la Huelga","lat":37.4030282,"lon":-3.8121698,"elevationM":878},{"id":"node:1242517395","kind":"peak","name":"Cerro de la Laguna","lat":37.3138747,"lon":-3.8639887,"elevationM":1081},{"id":"node:1242517400","kind":"peak","name":"Cerro del Gallo","lat":37.0911259,"lon":-3.1907547,"elevationM":2901},{"id":"node:1242517645","kind":"peak","name":"Cerro de las Calaveras","lat":37.3626541,"lon":-3.0269171,"elevationM":1329},{"id":"node:1242517657","kind":"peak","name":"El Peñón","lat":37.5940087,"lon":-3.1819239,"elevationM":871},{"id":"node:1242517969","kind":"peak","name":"Cerro de Escúzar","lat":37.3410876,"lon":-3.7215592,"elevationM":962},{"id":"node:1242518561","kind":"peak","name":"Cerro de la Solana","lat":37.3160989,"lon":-3.1500644,"elevationM":914},{"id":"node:1242518623","kind":"peak","name":"Cerro de los Eucaliptus","lat":37.0313337,"lon":-3.8976391,"elevationM":1071},{"id":"node:1242518808","kind":"peak","name":"Peña Lisa","lat":37.4908819,"lon":-3.2400059,"elevationM":1009},{"id":"node:1242518875","kind":"peak","name":"Cerro del Muerto","lat":37.2757807,"lon":-3.4892351,"elevationM":1548},{"id":"node:1242519161","kind":"peak","name":"Cerro de los Oqueales","lat":37.6132199,"lon":-3.2411704,"elevationM":1178},{"id":"node:1242519578","kind":"peak","name":"Cerro de las Vacas","lat":37.0034131,"lon":-3.8103937,"elevationM":1311},{"id":"node:1242519672","kind":"peak","name":"Cerro de Zacarías","lat":37.1592676,"lon":-3.1288974,"elevationM":1402},{"id":"node:1242519711","kind":"peak","name":"Cerro de la Fuente","lat":37.5416833,"lon":-3.2088082,"elevationM":1129},{"id":"node:1242520541","kind":"peak","name":"Cerro de la Yegua","lat":37.0856207,"lon":-3.9711336,"elevationM":956},{"id":"node:1242521279","kind":"peak","name":"Cerro de Santa Lucía","lat":37.2784771,"lon":-3.2739734,"elevationM":1122},{"id":"node:1242521972","kind":"peak","name":"Alamillo Alto","lat":37.4146414,"lon":-3.7016249,"elevationM":954},{"id":"node:1242522278","kind":"peak","name":"Puntal del Tío Quico","lat":37.1465596,"lon":-3.0818458,"elevationM":1538},{"id":"node:1242522352","kind":"peak","name":"Puntales del Tigre","lat":37.046613,"lon":-3.5165248,"elevationM":1843},{"id":"node:1242522437","kind":"peak","name":"Cerro del Mirador","lat":37.088838,"lon":-3.4503793,"elevationM":2067},{"id":"node:1242522727","kind":"peak","name":"Las Cabezuelas","lat":37.3480641,"lon":-3.7408204,"elevationM":1103},{"id":"node:1242523415","kind":"peak","name":"Morrón del Toril","lat":37.1196011,"lon":-3.0978215,"elevationM":1987},{"id":"node:1242523522","kind":"peak","name":"Cerro de la Giganta","lat":37.2775125,"lon":-3.7460951,"elevationM":722},{"id":"node:1242524438","kind":"peak","name":"Loma del Corcovado","lat":37.353441,"lon":-3.8473624,"elevationM":1017},{"id":"node:1242524511","kind":"peak","name":"Peña Bermeja","lat":37.3975104,"lon":-3.348966,"elevationM":1321},{"id":"node:1242524649","kind":"peak","name":"Cerro del Refugio","lat":37.3535445,"lon":-3.6238656,"elevationM":827},{"id":"node:1242524710","kind":"peak","name":"Cerro de las Fuentezuelas","lat":37.5137787,"lon":-3.29875,"elevationM":1153},{"id":"node:1242524729","kind":"peak","name":"El Peñón","lat":37.21885,"lon":-3.1898195,"elevationM":1363},{"id":"node:1242524815","kind":"peak","name":"El Morrón","lat":37.3829698,"lon":-3.7735011,"elevationM":1181},{"id":"node:1242525293","kind":"peak","name":"Cerro Campanario","lat":37.3834761,"lon":-3.6643207,"elevationM":1375},{"id":"node:1242526199","kind":"peak","name":"Cerro de Buenavista","lat":37.360346,"lon":-3.0127769,"elevationM":1489},{"id":"node:1242526212","kind":"peak","name":"Cerro la Venta","lat":37.292006,"lon":-3.0004406,"elevationM":1341},{"id":"node:1242526283","kind":"peak","name":"Cerro de la Ventana","lat":37.4334449,"lon":-3.6180745,"elevationM":1104},{"id":"node:1242526504","kind":"peak","name":"Cerro Cenacho","lat":37.109272,"lon":-3.9436111,"elevationM":847},{"id":"node:1242526933","kind":"peak","name":"Cerro de la Calera","lat":37.0465877,"lon":-3.8590581,"elevationM":1043},{"id":"node:1242526963","kind":"peak","name":"Cerro del Gamonal","lat":37.4782791,"lon":-3.6718433,"elevationM":1189},{"id":"node:1242527240","kind":"peak","name":"Cerro de la Garita","lat":37.3694827,"lon":-3.0585573,"elevationM":1203},{"id":"node:1242527280","kind":"peak","name":"Alto del Cierzo","lat":37.2538491,"lon":-3.6099736,"elevationM":828},{"id":"node:1242527364","kind":"peak","name":"Cerro de los Tomillos","lat":37.4281099,"lon":-3.5370857,"elevationM":928},{"id":"node:1242527454","kind":"peak","name":"Cerro de la Mina","lat":37.1200063,"lon":-3.89617,"elevationM":806},{"id":"node:1242527591","kind":"peak","name":"Cerro de la Atalaya","lat":37.0366886,"lon":-3.613657,"elevationM":1241},{"id":"node:1242527620","kind":"peak","name":"Cerro de las Zorreras","lat":37.003125,"lon":-3.0276934,"elevationM":1068},{"id":"node:1242527711","kind":"peak","name":"Cerro de Linaza","lat":37.1863518,"lon":-3.8201974,"elevationM":593},{"id":"node:1242527973","kind":"peak","name":"Puntal de los Pimientillos","lat":37.3252186,"lon":-3.2239551,"elevationM":944},{"id":"node:1242528205","kind":"peak","name":"Cerro Borondo","lat":37.0231108,"lon":-3.7584429,"elevationM":1129},{"id":"node:1242528265","kind":"peak","name":"Peñón de Moyano","lat":37.1398648,"lon":-3.017427,"elevationM":1861},{"id":"node:1242529531","kind":"peak","name":"Cerro Nevado","lat":37.2774719,"lon":-3.5448127,"elevationM":1275},{"id":"node:1242530556","kind":"peak","name":"Cerro de Cuvichiles","lat":37.4722041,"lon":-3.5976593,"elevationM":1121},{"id":"node:1242530755","kind":"peak","name":"Cerro Espartoso","lat":37.3145306,"lon":-3.9953274,"elevationM":1061},{"id":"node:1242531803","kind":"peak","name":"Cerrón Gitano","lat":37.5416949,"lon":-3.5423459,"elevationM":1331},{"id":"node:1242531875","kind":"peak","name":"La Buitrera","lat":37.0260683,"lon":-3.5263676,"elevationM":1678},{"id":"node:1242532441","kind":"peak","name":"El Castillejo","lat":37.3563503,"lon":-3.7545853,"elevationM":1202},{"id":"node:1242532471","kind":"peak","name":"Cerro del Abad","lat":37.4754648,"lon":-3.1419609,"elevationM":827},{"id":"node:1242532473","kind":"peak","name":"Cerro del Cortijo Alto","lat":37.4475189,"lon":-3.6595442,"elevationM":979},{"id":"node:1242532603","kind":"peak","name":"Peñón de Carrasco","lat":37.0152271,"lon":-3.5163073,"elevationM":1757},{"id":"node:1242532684","kind":"peak","name":"Cerro de los Corrales","lat":37.383865,"lon":-3.5731417,"elevationM":934},{"id":"node:1242532689","kind":"peak","name":"Cerrillo de la Calera","lat":37.360939,"lon":-3.0378828,"elevationM":1298},{"id":"node:1242532797","kind":"peak","name":"Morrón de Enmedio","lat":37.2481585,"lon":-3.7159084,"elevationM":1098},{"id":"node:1242532820","kind":"peak","name":"Peñón de Zujaira","lat":37.2620531,"lon":-3.8144123,"elevationM":714},{"id":"node:1242532940","kind":"peak","name":"Cerro de los Prados","lat":37.3302301,"lon":-3.6256844,"elevationM":782},{"id":"node:1242533050","kind":"peak","name":"Cerro Melero","lat":37.4079891,"lon":-3.7948179,"elevationM":956},{"id":"node:1242533259","kind":"peak","name":"Cerro del Medio","lat":37.4865004,"lon":-3.4519204,"elevationM":1099},{"id":"node:1242533389","kind":"peak","name":"Cerro Alto","lat":37.0868818,"lon":-3.953999,"elevationM":932},{"id":"node:1242533480","kind":"peak","name":"Cerro de los Pinos","lat":37.0410609,"lon":-3.8350183,"elevationM":981},{"id":"node:1242533498","kind":"peak","name":"Cerro de los Carneros","lat":37.3962127,"lon":-3.6516137,"elevationM":1278},{"id":"node:1242533525","kind":"peak","name":"Cerro de la Cruz","lat":37.2639264,"lon":-3.9607433,"elevationM":701},{"id":"node:1242533552","kind":"peak","name":"Cerro de la Venta","lat":37.2633797,"lon":-3.4738341,"elevationM":1444},{"id":"node:1242533600","kind":"peak","name":"Alto de Almagruz","lat":37.3415756,"lon":-3.2200134,"elevationM":1014},{"id":"node:1242533622","kind":"peak","name":"Cerro de los Galeotes","lat":37.3777236,"lon":-3.0146784,"elevationM":1287},{"id":"node:1242533802","kind":"peak","name":"Cerro de La Atalaya","lat":37.5481925,"lon":-3.3118815,"elevationM":1082},{"id":"node:1242533863","kind":"peak","name":"Cerro del Granado","lat":37.5175836,"lon":-3.3925411,"elevationM":1234},{"id":"node:1242533971","kind":"peak","name":"Cerro de los Mudos","lat":37.0061933,"lon":-3.7636623,"elevationM":1263},{"id":"node:1242534090","kind":"peak","name":"Cerro de las Cabras","lat":37.4282559,"lon":-3.580036,"elevationM":1353},{"id":"node:1242534330","kind":"peak","name":"Cerro del Negrillo","lat":37.5139939,"lon":-3.3999302,"elevationM":1199},{"id":"node:1242534743","kind":"peak","name":"Cerro del Humo","lat":37.4006723,"lon":-3.5783177,"elevationM":1115},{"id":"node:1242534800","kind":"peak","name":"La Atalaya","lat":37.25821,"lon":-3.6224749,"elevationM":898},{"id":"node:1242534986","kind":"peak","name":"Cerrillo de la Mosca","lat":37.0335125,"lon":-3.113916,"elevationM":1975},{"id":"node:1242535050","kind":"peak","name":"Cerro de la Vieja","lat":37.3504465,"lon":-3.9200112,"elevationM":1032},{"id":"node:1242535056","kind":"peak","name":"Pico de la Justicia","lat":37.1028047,"lon":-3.2777837,"elevationM":3141},{"id":"node:1242535171","kind":"peak","name":"Cerro Cepero","lat":37.5311076,"lon":-3.2890012,"elevationM":1135},{"id":"node:1242535227","kind":"peak","name":"Cerro Boldonar","lat":37.1568785,"lon":-3.8362663,"elevationM":678},{"id":"node:1242535573","kind":"peak","name":"Cerro de los Majanos","lat":37.4022301,"lon":-3.6723015,"elevationM":1021},{"id":"node:1242535669","kind":"peak","name":"Cerro de la Guardia","lat":37.2989154,"lon":-3.9453181,"elevationM":1261},{"id":"node:1242536049","kind":"peak","name":"Cerro de las Caracolas","lat":37.4202388,"lon":-3.622789,"elevationM":1367},{"id":"node:1242536079","kind":"peak","name":"Puntal del Molino","lat":37.3280709,"lon":-3.2215996,"elevationM":897},{"id":"node:1242536139","kind":"peak","name":"Alto de las Neguillas","lat":37.3137328,"lon":-3.4114913,"elevationM":1313},{"id":"node:1242536257","kind":"peak","name":"Cerro de Vergara","lat":37.5822531,"lon":-3.4938145,"elevationM":1206},{"id":"node:1242536287","kind":"peak","name":"Loma del Hornillo","lat":37.1278521,"lon":-3.1928862,"elevationM":1744},{"id":"node:1242536449","kind":"peak","name":"Cerros de Don Domingo","lat":37.3919928,"lon":-3.5394419,"elevationM":878},{"id":"node:1242536663","kind":"peak","name":"Cerro del Gurugú","lat":37.4442209,"lon":-3.5337959,"elevationM":951},{"id":"node:1242536809","kind":"peak","name":"Cerro de los Hoyos","lat":37.3410061,"lon":-3.4795936,"elevationM":1408},{"id":"node:1242537025","kind":"peak","name":"Alto de San Juan","lat":37.0946052,"lon":-3.1140279,"elevationM":2787},{"id":"node:1242537048","kind":"peak","name":"Cerrillo de Parras","lat":37.3454417,"lon":-3.7513995,"elevationM":1138},{"id":"node:1242537086","kind":"peak","name":"Cerro del Bocinete","lat":37.420413,"lon":-3.7752106,"elevationM":1044},{"id":"node:1242537094","kind":"peak","name":"La Señoreta","lat":37.3793537,"lon":-3.3343246,"elevationM":1516},{"id":"node:1242537136","kind":"peak","name":"Cerro de las Pedrizas","lat":37.3671688,"lon":-3.6206315,"elevationM":844},{"id":"node:1242537176","kind":"peak","name":"Cerro de la Chimeneilla;Cerro de la Chimeneílla","lat":37.5008578,"lon":-3.2092002,"elevationM":1281},{"id":"node:1242537355","kind":"peak","name":"Cerro del Fraile","lat":37.0927287,"lon":-3.9656545,"elevationM":907},{"id":"node:1242537510","kind":"peak","name":"El Cerrajón","lat":37.0215325,"lon":-3.8265145,"elevationM":1172},{"id":"node:1242537574","kind":"peak","name":"Cerro del Tallón","lat":37.313445,"lon":-3.7564155,"elevationM":761},{"id":"node:1242537611","kind":"peak","name":"Piedras Blancas","lat":37.1612313,"lon":-3.0233593,"elevationM":1552},{"id":"node:1242537662","kind":"peak","name":"Cerro de los Santos","lat":37.275842,"lon":-3.9205304,"elevationM":1071},{"id":"node:1242537721","kind":"peak","name":"Cerro Prieto","lat":37.3267582,"lon":-3.8882543,"elevationM":1294},{"id":"node:1242537723","kind":"peak","name":"Cerro de Tamboril","lat":37.0954368,"lon":-3.5112279,"elevationM":1775},{"id":"node:1242537750","kind":"peak","name":"Cerro Pelón","lat":37.4009906,"lon":-3.729561,"elevationM":949},{"id":"node:1242537766","kind":"peak","name":"El Morrón","lat":37.5582164,"lon":-3.5248975,"elevationM":1343},{"id":"node:1242537863","kind":"peak","name":"Cerro la Mora","lat":37.2074226,"lon":-3.9829791,"elevationM":574},{"id":"node:1242537972","kind":"peak","name":"Cerro de los Toriles","lat":37.3546727,"lon":-3.5185413,"elevationM":1092},{"id":"node:1242537979","kind":"peak","name":"Cerro de la Bandera","lat":37.5308688,"lon":-3.1361367,"elevationM":1135},{"id":"node:1242538061","kind":"peak","name":"Cerro de la Dobla","lat":37.4254893,"lon":-3.5486447,"elevationM":971},{"id":"node:1242538069","kind":"peak","name":"Cerro Méndez","lat":37.5877933,"lon":-3.2112763,"elevationM":972},{"id":"node:1242538244","kind":"peak","name":"Cerro de Abulagón","lat":37.5099457,"lon":-3.3781131,"elevationM":1236},{"id":"node:1242538248","kind":"peak","name":"Cerro Burrufete","lat":37.4581782,"lon":-3.7605289,"elevationM":1358},{"id":"node:1242538263","kind":"peak","name":"Cerro de Parapanda","lat":37.0390418,"lon":-3.7583048,"elevationM":1125},{"id":"node:1242538282","kind":"peak","name":"Alto de la Hoya de los Lobos","lat":37.371997,"lon":-3.662413,"elevationM":1168},{"id":"node:1242538544","kind":"peak","name":"Cerro del Sombrerete","lat":37.232243,"lon":-3.7168355,"elevationM":736},{"id":"node:1242539114","kind":"peak","name":"Morrón del Mediodía","lat":37.0908665,"lon":-3.0749295,"elevationM":2756},{"id":"node:1242540022","kind":"peak","name":"Cerro Gordo","lat":37.3199791,"lon":-3.8771849,"elevationM":1272},{"id":"node:1242540329","kind":"peak","name":"Loma de las Culebras","lat":37.3502943,"lon":-3.5817173,"elevationM":855},{"id":"node:1242540398","kind":"peak","name":"Cerro del Toril","lat":37.2734596,"lon":-3.5393686,"elevationM":1267},{"id":"node:1242540957","kind":"peak","name":"Peña Redonda","lat":37.3611151,"lon":-3.7197067,"elevationM":982},{"id":"node:1242541196","kind":"peak","name":"Cerro del Calvario","lat":37.4201954,"lon":-3.6382004,"elevationM":1482},{"id":"node:1242541520","kind":"peak","name":"Morrón","lat":37.5546979,"lon":-3.3100593,"elevationM":1053},{"id":"node:1242541858","kind":"peak","name":"Cerro Montalbanes","lat":37.4309862,"lon":-3.5273395,"elevationM":966},{"id":"node:1242542149","kind":"peak","name":"Cerro del Veneno","lat":37.0717404,"lon":-3.8913455,"elevationM":964},{"id":"node:1242542343","kind":"peak","name":"Cerro del Pozuelo","lat":37.3582279,"lon":-3.6703781,"elevationM":1351},{"id":"node:1242542363","kind":"peak","name":"Morrón del Pajarillo","lat":37.1455854,"lon":-3.0209821,"elevationM":1825},{"id":"node:1242542389","kind":"peak","name":"Cerro del Cuco","lat":37.2765762,"lon":-3.6330636,"elevationM":806},{"id":"node:1242542493","kind":"peak","name":"Cerro Moraga","lat":37.5191494,"lon":-3.6423513,"elevationM":1037},{"id":"node:1242542699","kind":"peak","name":"Cerro Castellón","lat":37.4795645,"lon":-3.5991277,"elevationM":1169},{"id":"node:1242543372","kind":"peak","name":"Cerro Arias","lat":37.0853571,"lon":-3.9660605,"elevationM":941},{"id":"node:1242543413","kind":"peak","name":"Peña Bermejo","lat":37.399124,"lon":-3.3599782,"elevationM":1187},{"id":"node:1242543451","kind":"peak","name":"Cerro del Chaparral","lat":37.1425555,"lon":-3.4565111,"elevationM":1558},{"id":"node:1242543841","kind":"peak","name":"Cerro de los Hundideros","lat":37.4607713,"lon":-3.6206818,"elevationM":1052},{"id":"node:1242544408","kind":"peak","name":"Cerro Gordo","lat":37.2926882,"lon":-3.6057651,"elevationM":885},{"id":"node:1242544714","kind":"peak","name":"El Dornajo","lat":37.1174979,"lon":-3.4436379,"elevationM":2073},{"id":"node:1242545045","kind":"peak","name":"Cerro de las Majadillas","lat":37.433947,"lon":-3.7317824,"elevationM":913},{"id":"node:1242545715","kind":"peak","name":"Cerro del Caballo","lat":37.4793307,"lon":-3.6319257,"elevationM":1015},{"id":"node:1242546064","kind":"peak","name":"Cerro de las Vegas","lat":37.4268886,"lon":-3.6752407,"elevationM":995},{"id":"node:1242546113","kind":"peak","name":"Loma del Caracolillo","lat":37.2425758,"lon":-3.4309702,"elevationM":1542},{"id":"node:1242546643","kind":"peak","name":"Alto de las Hazadillas","lat":37.527221,"lon":-3.1969954,"elevationM":1088},{"id":"node:1242546729","kind":"peak","name":"Cerro del Chapa","lat":37.3383689,"lon":-3.601702,"elevationM":843},{"id":"node:1242546769","kind":"peak","name":"Cerro García","lat":37.5753474,"lon":-3.2635577,"elevationM":1015},{"id":"node:1242547386","kind":"peak","name":"Monte Jate","lat":37.1864526,"lon":-3.5605311,"elevationM":1005},{"id":"node:1242547429","kind":"peak","name":"Alto del Reventón","lat":37.5441068,"lon":-3.1824423,"elevationM":1113},{"id":"node:1242547437","kind":"peak","name":"Cerro del Pradillo o de las Yeguas","lat":37.3973842,"lon":-3.6273687,"elevationM":1347},{"id":"node:1242547625","kind":"peak","name":"Cerro Navarro","lat":37.2716314,"lon":-3.9937993,"elevationM":924},{"id":"node:1242547686","kind":"peak","name":"Cerro Pelón","lat":37.5170529,"lon":-3.5716546,"elevationM":1132},{"id":"node:1242547857","kind":"peak","name":"Cerro de las Cruces","lat":37.1336941,"lon":-3.0823666,"elevationM":1714},{"id":"node:1242547975","kind":"peak","name":"Cerro de los Ayozos","lat":37.5801427,"lon":-3.5033436,"elevationM":1271},{"id":"node:1242548066","kind":"peak","name":"Cerrillos del Piñon","lat":37.3551334,"lon":-3.0099114,"elevationM":1474},{"id":"node:1243093427","kind":"peak","name":"Cerro Gordo","lat":37.7253793,"lon":-3.40784,"elevationM":1539},{"id":"node:1243093563","kind":"peak","name":"Cerro Obrero","lat":37.6343957,"lon":-3.9500971,"elevationM":682},{"id":"node:1243093678","kind":"peak","name":"Cerros de la Fuente del Oso","lat":37.5661711,"lon":-3.5939701,"elevationM":1293},{"id":"node:1243094222","kind":"peak","name":"Cerro del Pinar","lat":37.6515045,"lon":-3.5992391,"elevationM":892},{"id":"node:1243094425","kind":"peak","name":"Cerro Prieto","lat":37.5702077,"lon":-3.6945385,"elevationM":1498},{"id":"node:1243095421","kind":"peak","name":"Matarratas","lat":37.6362191,"lon":-3.799709,"elevationM":1667},{"id":"node:1243095555","kind":"peak","name":"Cerro Morata","lat":37.7528646,"lon":-3.1199476,"elevationM":568},{"id":"node:1243095689","kind":"peak","name":"Cerro de Cújar","lat":37.6794132,"lon":-3.3027581,"elevationM":1286},{"id":"node:1243096727","kind":"peak","name":"Cerro de la Fuente","lat":37.649182,"lon":-3.6328241,"elevationM":841},{"id":"node:1243097344","kind":"peak","name":"Alto de los Noguerones","lat":37.5667005,"lon":-3.8146869,"elevationM":1572},{"id":"node:1243097531","kind":"peak","name":"Cerro de Altomiro","lat":37.5835196,"lon":-3.7735542,"elevationM":1626},{"id":"node:1243097591","kind":"peak","name":"Cerro la Pata del Caballo","lat":37.7305545,"lon":-3.8286377,"elevationM":1499},{"id":"node:1243097619","kind":"peak","name":"Puntal de Palancares","lat":37.7799893,"lon":-3.1645719,"elevationM":581},{"id":"node:1243097627","kind":"peak","name":"Loma del Potro","lat":37.5396254,"lon":-3.7541099,"elevationM":1354},{"id":"node:1243097671","kind":"peak","name":"Cerro del Pinar","lat":37.6924976,"lon":-3.3460157,"elevationM":1206},{"id":"node:1243098192","kind":"peak","name":"Cerro de Altomizo","lat":37.5809965,"lon":-3.7743644,"elevationM":1502},{"id":"node:1243098243","kind":"peak","name":"Lomas Altas","lat":37.4782184,"lon":-3.8010442,"elevationM":1239},{"id":"node:1243098986","kind":"peak","name":"Puntal de la Loma del Jaral","lat":37.6004329,"lon":-3.6322105,"elevationM":1237},{"id":"node:1243099185","kind":"peak","name":"Cerro Loboso","lat":37.7460591,"lon":-3.9320602,"elevationM":749},{"id":"node:1243099242","kind":"peak","name":"Cerro Vilches","lat":37.6408953,"lon":-3.524996,"elevationM":982},{"id":"node:1243099408","kind":"peak","name":"Cerro Fuente de la Peña","lat":37.755778,"lon":-3.8070985,"elevationM":992},{"id":"node:1243099432","kind":"peak","name":"Cerro de las Semillas","lat":37.415754,"lon":-3.9945027,"elevationM":1194},{"id":"node:1243099475","kind":"peak","name":"Cerro las Viñas","lat":37.7016402,"lon":-3.8399409,"elevationM":809},{"id":"node:1243099548","kind":"peak","name":"Cerro del Madroñal","lat":37.7829097,"lon":-3.0448472,"elevationM":1417},{"id":"node:1243099690","kind":"peak","name":"Cerro del Chantre","lat":37.7124799,"lon":-3.237333,"elevationM":1226},{"id":"node:1243100106","kind":"peak","name":"Morros de Camaramarila","lat":37.7566138,"lon":-3.4050102,"elevationM":1638},{"id":"node:1243100196","kind":"peak","name":"Cerro de los Majanos","lat":37.6868168,"lon":-3.2620892,"elevationM":1077},{"id":"node:1243100206","kind":"peak","name":"Cerro Semilla","lat":37.535567,"lon":-3.7750883,"elevationM":1438},{"id":"node:1243100399","kind":"peak","name":"Cerro de Peñarrubia","lat":37.7057257,"lon":-3.659457,"elevationM":684},{"id":"node:1243100418","kind":"peak","name":"El Jurel","lat":37.6315677,"lon":-3.9660593,"elevationM":629},{"id":"node:1243100564","kind":"peak","name":"Cerro Gamo","lat":37.9674334,"lon":-3.6222951,"elevationM":342},{"id":"node:1243100597","kind":"peak","name":"Cerro de las Jarropas","lat":37.56378,"lon":-3.6095355,"elevationM":1117},{"id":"node:1243100628","kind":"peak","name":"Alto del Romeral","lat":37.6447435,"lon":-3.825781,"elevationM":1462},{"id":"node:1243100896","kind":"peak","name":"Cerro Liebre","lat":37.8414353,"lon":-3.4189217,"elevationM":597},{"id":"node:1243101552","kind":"peak","name":"Cerro de Pozoblanco","lat":37.6788224,"lon":-3.2171804,"elevationM":1016},{"id":"node:1243101914","kind":"peak","name":"Peñón de Padilla","lat":37.7480365,"lon":-3.0482126,"elevationM":904},{"id":"node:1243103175","kind":"peak","name":"Tejerina","lat":37.6588516,"lon":-3.7289905,"elevationM":1161},{"id":"node:1243103199","kind":"peak","name":"Cerro del Frontón","lat":37.6971628,"lon":-3.7744637,"elevationM":777},{"id":"node:1243103355","kind":"peak","name":"Cerro Rodrigo Delgado","lat":37.7927384,"lon":-3.5392821,"elevationM":929},{"id":"node:1243104017","kind":"peak","name":"La Silleta","lat":37.5541985,"lon":-3.6138497,"elevationM":1166},{"id":"node:1243104062","kind":"peak","name":"Aguade","lat":37.7428912,"lon":-3.4432121,"elevationM":1906},{"id":"node:1243104095","kind":"peak","name":"Cerro Cortijo","lat":37.8312879,"lon":-3.5175455,"elevationM":815},{"id":"node:1243105148","kind":"peak","name":"Cerro del Endrino","lat":37.4980475,"lon":-3.8208542,"elevationM":1077},{"id":"node:1243105439","kind":"peak","name":"Cerro Blanco","lat":37.7633083,"lon":-3.3120356,"elevationM":921},{"id":"node:1243105497","kind":"peak","name":"Cerro de la Campiñuela","lat":37.7853271,"lon":-3.665073,"elevationM":605},{"id":"node:1243105575","kind":"peak","name":"Peña la Fuente","lat":37.747353,"lon":-3.8994969,"elevationM":1009},{"id":"node:1243105587","kind":"peak","name":"La Pedriza","lat":37.7809857,"lon":-3.015061,"elevationM":1181},{"id":"node:1243106440","kind":"peak","name":"Pico del Mollerón","lat":37.6051921,"lon":-3.6696592,"elevationM":1265},{"id":"node:1243106614","kind":"peak","name":"Silla de Viches","lat":37.6392588,"lon":-3.5148305,"elevationM":1082},{"id":"node:1243108215","kind":"peak","name":"Cerro Gonzalo","lat":37.6153604,"lon":-3.4278804,"elevationM":1252},{"id":"node:1243108257","kind":"peak","name":"Cabeza de Mures","lat":37.4485213,"lon":-3.8191892,"elevationM":1007},{"id":"node:1243110025","kind":"peak","name":"Pico Ortigas","lat":37.6476272,"lon":-3.158113,"elevationM":933},{"id":"node:1243110308","kind":"peak","name":"Cerro del Ciego","lat":37.4951286,"lon":-3.7908132,"elevationM":1411},{"id":"node:1243111076","kind":"peak","name":"Morrón de los Quejigares","lat":37.6102895,"lon":-3.6494446,"elevationM":1319},{"id":"node:1243111387","kind":"peak","name":"Puntal de Peleagudo","lat":37.6609461,"lon":-3.173649,"elevationM":null},{"id":"node:1243111741","kind":"peak","name":"Cerro Santín","lat":37.7092798,"lon":-3.6093881,"elevationM":1185},{"id":"node:1243113214","kind":"peak","name":"Cerro del Esparto","lat":37.4992258,"lon":-3.847087,"elevationM":1289},{"id":"node:1243113282","kind":"peak","name":"Cerro Peña Blanca","lat":37.6529464,"lon":-3.7622197,"elevationM":1452},{"id":"node:1243113622","kind":"peak","name":"Cerro Picón","lat":37.9915946,"lon":-3.3864746,"elevationM":594},{"id":"node:1243114180","kind":"peak","name":"Cerro de las Víboras","lat":37.6784073,"lon":-3.3149305,"elevationM":1259},{"id":"node:1243114446","kind":"peak","name":"El Cerrillo","lat":37.8774433,"lon":-3.1063492,"elevationM":631},{"id":"node:1243116349","kind":"peak","name":"La Boleta","lat":37.5444746,"lon":-3.77758,"elevationM":1542},{"id":"node:1243117235","kind":"peak","name":"Mojón de la Aliaga","lat":37.6747709,"lon":-3.4848641,"elevationM":1398},{"id":"node:1243118742","kind":"peak","name":"Cerro del Frontil","lat":37.620122,"lon":-3.5635021,"elevationM":1332},{"id":"node:1243119149","kind":"peak","name":"Cerro Almagro","lat":37.7758443,"lon":-3.7670774,"elevationM":474},{"id":"node:1243119252","kind":"peak","name":"El Castellón","lat":37.4088464,"lon":-3.9655723,"elevationM":1086},{"id":"node:1243120262","kind":"peak","name":"Cerro Caraccoles","lat":37.6564028,"lon":-3.7716026,"elevationM":1176},{"id":"node:1243120892","kind":"peak","name":"Cerro de la Fresnedilla","lat":37.5562724,"lon":-3.7482365,"elevationM":1262},{"id":"node:1243121464","kind":"peak","name":"Cerro Calderón","lat":37.5900497,"lon":-3.4498784,"elevationM":1085},{"id":"node:1243121866","kind":"peak","name":"Cerro de Villafaro","lat":37.6491464,"lon":-3.9944602,"elevationM":679},{"id":"node:1243122012","kind":"peak","name":"Loma del Perdigal","lat":37.9471859,"lon":-3.0050789,"elevationM":727},{"id":"node:1243122310","kind":"peak","name":"Cerro Cuevas Terrizas","lat":37.6335729,"lon":-3.8884436,"elevationM":1134},{"id":"node:1243122645","kind":"peak","name":"Cerro de la Guzmana","lat":37.4094671,"lon":-3.8500673,"elevationM":945},{"id":"node:1243122892","kind":"peak","name":"Cerro de Cagasebo","lat":37.5490625,"lon":-3.6185869,"elevationM":1229},{"id":"node:1243122966","kind":"peak","name":"Loma Bordales","lat":37.783347,"lon":-3.8633073,"elevationM":694},{"id":"node:1243123268","kind":"peak","name":"Zumbel Grande","lat":37.7516758,"lon":-3.7834869,"elevationM":649},{"id":"node:1243123959","kind":"peak","name":"El Púlpito","lat":37.7894514,"lon":-3.16825,"elevationM":565},{"id":"node:1243124259","kind":"peak","name":"Cerro del Hoyo de los Cigarrones","lat":37.5152659,"lon":-3.7387762,"elevationM":1653},{"id":"node:1243124413","kind":"peak","name":"El Cerrillo","lat":37.7398542,"lon":-3.3777675,"elevationM":966},{"id":"node:1243125053","kind":"peak","name":"La Atalaya","lat":37.8339249,"lon":-3.490807,"elevationM":1053},{"id":"node:1243125434","kind":"peak","name":"Cerro de las Canteras","lat":37.4765525,"lon":-3.8222848,"elevationM":1148},{"id":"node:1243126146","kind":"peak","name":"Morro de Lastonar","lat":37.7652839,"lon":-3.3805892,"elevationM":1562},{"id":"node:1243126210","kind":"peak","name":"Cerro Montesinos","lat":37.9454626,"lon":-3.0150918,"elevationM":705},{"id":"node:1243126240","kind":"peak","name":"Cerrillo del Vinatero","lat":37.4724886,"lon":-3.8014637,"elevationM":1185},{"id":"node:1243126264","kind":"peak","name":"Cerro del Mochuelo","lat":37.6244451,"lon":-3.8853902,"elevationM":1116},{"id":"node:1243126301","kind":"peak","name":"El Acebuche","lat":37.6329999,"lon":-3.9584407,"elevationM":699},{"id":"node:1243127093","kind":"peak","name":"Cerro de los Pastores","lat":37.6300726,"lon":-3.6147022,"elevationM":819},{"id":"node:1243127122","kind":"peak","name":"Cerro Morrón","lat":37.6764772,"lon":-3.3713975,"elevationM":1402},{"id":"node:1243127179","kind":"peak","name":"Cerro Berlango","lat":37.4971247,"lon":-3.8772882,"elevationM":1129},{"id":"node:1243127297","kind":"peak","name":"Peña del Altar","lat":37.628807,"lon":-3.7641908,"elevationM":1818},{"id":"node:1243127437","kind":"peak","name":"Cerro Cantera Blanca","lat":37.4104675,"lon":-3.9287262,"elevationM":937},{"id":"node:1243127451","kind":"peak","name":"Cabeza Montosa","lat":37.7182794,"lon":-3.3202284,"elevationM":1218},{"id":"node:1243127461","kind":"peak","name":"Cerro de la Calabaza","lat":37.5991894,"lon":-3.7220301,"elevationM":1513},{"id":"node:1243127576","kind":"peak","name":"Cerro Hueco","lat":37.601437,"lon":-3.8276518,"elevationM":1232},{"id":"node:1243128212","kind":"peak","name":"Cerro del Hoyo","lat":37.5707156,"lon":-3.7981346,"elevationM":1612},{"id":"node:1243128829","kind":"peak","name":"Cerro del Castellón","lat":37.594935,"lon":-3.8553285,"elevationM":1007},{"id":"node:1243129044","kind":"peak","name":"Cerrillo del Colorado","lat":37.4893877,"lon":-3.7555211,"elevationM":1196},{"id":"node:1243129086","kind":"peak","name":"Siete Fuentes","lat":37.8655861,"lon":-3.004488,"elevationM":1611},{"id":"node:1243129153","kind":"peak","name":"Peña (Piedra) del Palo","lat":37.6124429,"lon":-3.6847076,"elevationM":1254},{"id":"node:1243129591","kind":"peak","name":"Cerro Calar","lat":37.6853871,"lon":-3.7708758,"elevationM":1025},{"id":"node:1243129996","kind":"peak","name":"Cerrillo de los Pastores","lat":37.5964577,"lon":-3.4448791,"elevationM":1107},{"id":"node:1243130044","kind":"peak","name":"Cerro Matadus","lat":37.455015,"lon":-3.8134576,"elevationM":1039},{"id":"node:1243130108","kind":"peak","name":"Cerro Aprisco","lat":37.6846385,"lon":-3.3214352,"elevationM":1356},{"id":"node:1243130246","kind":"peak","name":"Cerro Ortiz","lat":37.8964972,"lon":-3.1041467,"elevationM":702},{"id":"node:1243130899","kind":"peak","name":"Cerrillo Tesoro","lat":37.8015753,"lon":-3.5041865,"elevationM":1391},{"id":"node:1243131169","kind":"peak","name":"Cerrillo del Branco","lat":37.4263176,"lon":-3.8365913,"elevationM":861},{"id":"node:1243131328","kind":"peak","name":"Cagahierros","lat":37.886402,"lon":-3.0034945,"elevationM":1545},{"id":"node:1243132488","kind":"peak","name":"Los Morales","lat":37.5891588,"lon":-3.7466105,"elevationM":1722},{"id":"node:1243132541","kind":"peak","name":"Piedra del Barco","lat":37.6428133,"lon":-3.5051644,"elevationM":1051},{"id":"node:1243133045","kind":"peak","name":"Cerro del Tercero","lat":37.5694066,"lon":-3.73349,"elevationM":1474},{"id":"node:1243133841","kind":"peak","name":"Cerro de Cuevalayedra","lat":37.5244493,"lon":-3.7889819,"elevationM":1443},{"id":"node:1243133995","kind":"peak","name":"Cerro Matamulillos","lat":37.6366268,"lon":-3.7096022,"elevationM":1287},{"id":"node:1243134542","kind":"peak","name":"Cerro de Arroyo Santo","lat":37.6845518,"lon":-3.2921493,"elevationM":1124},{"id":"node:1243134666","kind":"peak","name":"Cerro Palma","lat":37.9896221,"lon":-3.4294981,"elevationM":701},{"id":"node:1243135309","kind":"peak","name":"Cerrillo de las Mentiras","lat":37.424606,"lon":-3.8650745,"elevationM":853},{"id":"node:1243136115","kind":"peak","name":"La Corona","lat":37.7592308,"lon":-3.4537089,"elevationM":1595},{"id":"node:1243136147","kind":"peak","name":"Cerro Espartoso","lat":37.8806608,"lon":-3.11904,"elevationM":648},{"id":"node:1243136528","kind":"peak","name":"Pico del Tesoro","lat":37.6159858,"lon":-3.536607,"elevationM":1307},{"id":"node:1243136680","kind":"peak","name":"Piedra Hincada","lat":37.9853522,"lon":-3.55128,"elevationM":584},{"id":"node:1243137299","kind":"peak","name":"Cerro Peregrina","lat":37.7810546,"lon":-3.6998301,"elevationM":502},{"id":"node:1243137341","kind":"peak","name":"Lomillas Verdes","lat":37.5166101,"lon":-3.815678,"elevationM":1346},{"id":"node:1243138951","kind":"peak","name":"Cerro La Chata","lat":37.6796686,"lon":-3.7934399,"elevationM":1046},{"id":"node:1243139141","kind":"peak","name":"Cerro de los Vaqueros","lat":37.6705326,"lon":-3.2252797,"elevationM":1005},{"id":"node:1243139177","kind":"peak","name":"Cerro Montañes","lat":37.6498311,"lon":-3.7176187,"elevationM":1124},{"id":"node:1243139632","kind":"peak","name":"Cerro la Fuente","lat":37.6134807,"lon":-3.9293323,"elevationM":724},{"id":"node:1243139894","kind":"peak","name":"El Morrón","lat":37.4749084,"lon":-3.8064304,"elevationM":1205},{"id":"node:1243141268","kind":"peak","name":"Cerro del Púlpito","lat":37.8402847,"lon":-3.0182251,"elevationM":1315},{"id":"node:1243141872","kind":"peak","name":"Cirujano","lat":37.6726683,"lon":-3.5432627,"elevationM":1005},{"id":"node:1243142319","kind":"peak","name":"Cerro de las Pilas","lat":37.643656,"lon":-3.6966234,"elevationM":1168},{"id":"node:1243142830","kind":"peak","name":"El Morrón","lat":37.6021268,"lon":-3.778912,"elevationM":1672},{"id":"node:1243143052","kind":"peak","name":"Cerrillo de Juan Ruiz","lat":37.4836818,"lon":-3.8151976,"elevationM":1126},{"id":"node:1243143647","kind":"peak","name":"Morra del Peleo","lat":37.7529792,"lon":-3.4129136,"elevationM":1606},{"id":"node:1243143853","kind":"peak","name":"Cerro del Majanillo","lat":37.5411398,"lon":-3.8128941,"elevationM":1456},{"id":"node:1243144224","kind":"peak","name":"Cerro del Prior","lat":37.7081274,"lon":-3.6705257,"elevationM":692},{"id":"node:1243144438","kind":"peak","name":"Cerro de la Venta","lat":37.7309814,"lon":-3.0264443,"elevationM":715},{"id":"node:1243144992","kind":"peak","name":"Cerro de las Carboneras","lat":37.5369528,"lon":-3.6298911,"elevationM":1151},{"id":"node:1243145261","kind":"peak","name":"Cabeza Gorda","lat":37.6880134,"lon":-3.7171071,"elevationM":885},{"id":"node:1243145399","kind":"peak","name":"Cerro del Cominar","lat":37.7363346,"lon":-3.0426125,"elevationM":739},{"id":"node:1243145498","kind":"peak","name":"Cerro del Camello","lat":37.3950023,"lon":-3.8824137,"elevationM":1141},{"id":"node:1243145511","kind":"peak","name":"Cerro del Mortero","lat":37.7560325,"lon":-3.8568604,"elevationM":1169},{"id":"node:1243145580","kind":"peak","name":"Cerro de la Cruz","lat":37.4177544,"lon":-3.9938412,"elevationM":1232},{"id":"node:1243145857","kind":"peak","name":"Cerro Castellar","lat":37.7903223,"lon":-3.4929418,"elevationM":1341},{"id":"node:1243146266","kind":"peak","name":"Cerro del Jabonero","lat":37.7406966,"lon":-3.0611908,"elevationM":719},{"id":"node:1243146362","kind":"peak","name":"Cerro de la Torre del Lucero","lat":37.731854,"lon":-3.3949093,"elevationM":1275},{"id":"node:1243146488","kind":"peak","name":"Cerro de Julián Díez","lat":37.7521296,"lon":-3.10569,"elevationM":628},{"id":"node:1243146523","kind":"peak","name":"Cerro Jesús","lat":37.7525911,"lon":-3.8837437,"elevationM":911},{"id":"node:1243146555","kind":"peak","name":"Cerro de los Tres Mancebos","lat":37.6677344,"lon":-3.6677839,"elevationM":1537},{"id":"node:1243146904","kind":"peak","name":"Cabeza del Molino","lat":37.942695,"lon":-3.0224603,"elevationM":707},{"id":"node:1243146970","kind":"peak","name":"Cerro de la Viña","lat":37.5917636,"lon":-3.5732124,"elevationM":1121},{"id":"node:1243147660","kind":"peak","name":"Cerro Hoyón","lat":37.7018224,"lon":-3.3289685,"elevationM":1354},{"id":"node:1243147739","kind":"peak","name":"Cerro del Ángel","lat":37.4966481,"lon":-3.8850833,"elevationM":1144},{"id":"node:1243148012","kind":"peak","name":"Peña de Neblín","lat":37.7488427,"lon":-3.3634544,"elevationM":894},{"id":"node:1243148070","kind":"peak","name":"Cerro Jamargo","lat":37.6455372,"lon":-3.5726322,"elevationM":944},{"id":"node:1243148127","kind":"peak","name":"Cerro Postero","lat":37.5523446,"lon":-3.7883337,"elevationM":1534},{"id":"node:1243148231","kind":"peak","name":"Cerro del Topo","lat":37.5568455,"lon":-3.6195603,"elevationM":1007},{"id":"node:1243148330","kind":"peak","name":"Cerro de la Vieja","lat":37.7909392,"lon":-3.5006629,"elevationM":1342},{"id":"node:1243148431","kind":"peak","name":"Cerro Canto","lat":37.5589098,"lon":-3.6553266,"elevationM":999},{"id":"node:1243148578","kind":"peak","name":"Cerro de la Mezquita","lat":37.6255278,"lon":-3.6418289,"elevationM":1024},{"id":"node:1243149099","kind":"peak","name":"Cerro Tumbal","lat":37.9312366,"lon":-3.0688088,"elevationM":783},{"id":"node:1243149179","kind":"peak","name":"Cerro de la China","lat":37.633473,"lon":-3.8699101,"elevationM":null},{"id":"node:1243149300","kind":"peak","name":"Cerro de los Molinos","lat":37.6752767,"lon":-3.2831777,"elevationM":1069},{"id":"node:1243149374","kind":"peak","name":"Cerro del Horcajo","lat":37.8642539,"lon":-3.0940755,"elevationM":647},{"id":"node:1243149708","kind":"peak","name":"Loma del Espino","lat":37.8947023,"lon":-3.1136141,"elevationM":657},{"id":"node:1243149800","kind":"peak","name":"Cerro la Sillita","lat":37.7784644,"lon":-3.4870812,"elevationM":1441},{"id":"node:1243150100","kind":"peak","name":"Cabeza Gorda","lat":37.6410456,"lon":-3.9770191,"elevationM":684},{"id":"node:1243150414","kind":"peak","name":"Cerro de la Zahurda","lat":37.6495973,"lon":-3.6155213,"elevationM":892},{"id":"node:1243150942","kind":"peak","name":"Alto de Peñuelas","lat":37.3800211,"lon":-3.9533922,"elevationM":1108},{"id":"node:1243151195","kind":"peak","name":"Cerro del Matutero","lat":37.7493191,"lon":-3.6337088,"elevationM":982},{"id":"node:1243151626","kind":"peak","name":"Cerro Redondo","lat":37.7250402,"lon":-3.7303033,"elevationM":866},{"id":"node:1243151693","kind":"peak","name":"Cerro de la Perdiz","lat":37.8138022,"lon":-3.7058991,"elevationM":536},{"id":"node:1243151750","kind":"peak","name":"Atalaya Alta","lat":37.4460143,"lon":-3.8288145,"elevationM":988},{"id":"node:1243151801","kind":"peak","name":"Cerro de la Umbría","lat":37.6901885,"lon":-3.2643686,"elevationM":1129},{"id":"node:1243152146","kind":"peak","name":"Cerro de los Peones","lat":37.660688,"lon":-3.3053059,"elevationM":1289},{"id":"node:1243152653","kind":"peak","name":"Atalaya","lat":37.4919046,"lon":-3.7893688,"elevationM":1430},{"id":"node:1243152692","kind":"peak","name":"Cerro Mocente","lat":37.7566856,"lon":-3.8822528,"elevationM":916},{"id":"node:1243153103","kind":"peak","name":"Cerro Maleta","lat":37.8265069,"lon":-3.7095116,"elevationM":506},{"id":"node:1243153377","kind":"peak","name":"Cerro del Retamar","lat":37.7319483,"lon":-3.3825532,"elevationM":1071},{"id":"node:1243153423","kind":"peak","name":"Cerro de Prado Alto","lat":37.6058391,"lon":-3.6777291,"elevationM":1261},{"id":"node:1243154730","kind":"peak","name":"Cerro del Grajo","lat":37.5446462,"lon":-3.6034817,"elevationM":1297},{"id":"node:1243155197","kind":"peak","name":"Cerro de la Vicaría","lat":37.7587371,"lon":-3.8466188,"elevationM":1175},{"id":"node:1243155307","kind":"peak","name":"Cerro Charcón","lat":37.6693626,"lon":-3.6256093,"elevationM":741},{"id":"node:1243155412","kind":"peak","name":"Cerro de la Misa","lat":37.5125262,"lon":-3.7923365,"elevationM":1467},{"id":"node:1243155469","kind":"peak","name":"Cerro de la Horca","lat":37.603946,"lon":-3.7586815,"elevationM":1766},{"id":"node:1243156162","kind":"peak","name":"Cerro de los Pedregales","lat":37.8970202,"lon":-3.1243704,"elevationM":593},{"id":"node:1243156208","kind":"peak","name":"Cerro del Melgar","lat":37.4230011,"lon":-3.9057059,"elevationM":976},{"id":"node:1243156440","kind":"peak","name":"Cerro de Enmedio","lat":37.7742054,"lon":-3.4834468,"elevationM":1549},{"id":"node:1243156448","kind":"peak","name":"Cerro Bandera","lat":37.5983023,"lon":-3.8757385,"elevationM":1026},{"id":"node:1243156985","kind":"peak","name":"Loma del Sabio","lat":37.8716876,"lon":-3.4575924,"elevationM":489},{"id":"node:1243157486","kind":"peak","name":"Cerro de la Atalaya","lat":37.7406412,"lon":-3.3507047,"elevationM":986},{"id":"node:1243157821","kind":"peak","name":"Cerro de San Juan","lat":37.6931614,"lon":-3.3206989,"elevationM":1345},{"id":"node:1243158506","kind":"peak","name":"Cerro de Enmedio","lat":37.4808747,"lon":-3.8037372,"elevationM":1244},{"id":"node:1243158683","kind":"peak","name":"Cerro de la Alberquilla","lat":37.5916912,"lon":-3.6764326,"elevationM":1299},{"id":"node:1243158890","kind":"peak","name":"Peña de la Graja","lat":37.6748982,"lon":-3.5599037,"elevationM":965},{"id":"node:1243158908","kind":"peak","name":"Cerro Rozado","lat":37.6256451,"lon":-3.9347478,"elevationM":777},{"id":"node:1243158976","kind":"peak","name":"Peñón Bermejo","lat":37.6109774,"lon":-3.6663639,"elevationM":1306},{"id":"node:1243160210","kind":"peak","name":"Peña de Jaén","lat":37.7244445,"lon":-3.4755235,"elevationM":2147},{"id":"node:1243160229","kind":"peak","name":"Morro de Cabacillas","lat":37.7600487,"lon":-3.3879729,"elevationM":1604},{"id":"node:1243160329","kind":"peak","name":"Cerrillo de la Mezquita","lat":37.725427,"lon":-3.635944,"elevationM":727},{"id":"node:1243160436","kind":"peak","name":"Alto de Pino Rubio","lat":37.6375592,"lon":-3.665576,"elevationM":1162},{"id":"node:1243160519","kind":"peak","name":"Cerro de la Cueva de la Mina","lat":37.554557,"lon":-3.6859105,"elevationM":1551},{"id":"node:1243160540","kind":"peak","name":"Peña Campanario","lat":37.754327,"lon":-3.4023382,"elevationM":1573},{"id":"node:1243160929","kind":"peak","name":"Cerro del Cagasebo","lat":37.6453382,"lon":-3.7635887,"elevationM":1588},{"id":"node:1243161231","kind":"peak","name":"Cerro Hoya Amarguilla","lat":37.5547512,"lon":-3.7737653,"elevationM":1551},{"id":"node:1243161657","kind":"peak","name":"Cerro Calderón","lat":37.781354,"lon":-3.2976128,"elevationM":738},{"id":"node:1243161789","kind":"peak","name":"Cerro Castellón","lat":37.8242212,"lon":-3.6980833,"elevationM":523},{"id":"node:1243162158","kind":"peak","name":"Cerro de Hoyo Delgado","lat":37.5767861,"lon":-3.6760313,"elevationM":1317},{"id":"node:1243162167","kind":"peak","name":"Cerrajón","lat":37.4865168,"lon":-3.771554,"elevationM":1330},{"id":"node:1243162211","kind":"peak","name":"Cerro de la Maseguilla","lat":37.6751,"lon":-3.6102926,"elevationM":819},{"id":"node:1243162302","kind":"peak","name":"Cerro Magdalena","lat":37.8325488,"lon":-3.0856002,"elevationM":1198},{"id":"node:1243162573","kind":"peak","name":"Cerro de la Pringue","lat":37.7782535,"lon":-3.8389808,"elevationM":767},{"id":"node:1243162746","kind":"peak","name":"Cerro Veleta","lat":37.6918305,"lon":-3.7661928,"elevationM":748},{"id":"node:1243163030","kind":"peak","name":"Puntal Matamulos","lat":37.6371309,"lon":-3.7216837,"elevationM":1274},{"id":"node:1243163324","kind":"peak","name":"Atalaya Baja","lat":37.4320266,"lon":-3.8318381,"elevationM":922},{"id":"node:1243163364","kind":"peak","name":"Cerro Ramiro","lat":37.6247752,"lon":-3.9629942,"elevationM":707},{"id":"node:1243163443","kind":"peak","name":"El Morrón","lat":37.8196569,"lon":-3.508152,"elevationM":1207},{"id":"node:1243163633","kind":"peak","name":"Cerro de la Llana","lat":37.6931015,"lon":-3.5777848,"elevationM":1021},{"id":"node:1243163895","kind":"peak","name":"Cerro del Moro","lat":37.79697,"lon":-3.1771411,"elevationM":661},{"id":"node:1243163967","kind":"peak","name":"Cerro Montesas","lat":37.6387373,"lon":-3.7370478,"elevationM":859},{"id":"node:1243164091","kind":"peak","name":"Cerrillo de los Lobos","lat":37.7373839,"lon":-3.3523204,"elevationM":964},{"id":"node:1243164102","kind":"peak","name":"Cerro Beata","lat":37.6339727,"lon":-3.8525884,"elevationM":1225},{"id":"node:1243164198","kind":"peak","name":"Cerrajo","lat":37.7443134,"lon":-3.8917991,"elevationM":1053},{"id":"node:1243164291","kind":"peak","name":"Cerrillo del Moral","lat":37.4260172,"lon":-3.8555448,"elevationM":872},{"id":"node:1243164483","kind":"peak","name":"Cabeza de los Pastores","lat":37.851999,"lon":-3.1352828,"elevationM":638},{"id":"node:1243164610","kind":"peak","name":"Peña del Águila","lat":37.8821702,"lon":-3.020181,"elevationM":1127},{"id":"node:1243164975","kind":"peak","name":"Cerro del Halcón","lat":37.6256517,"lon":-3.6639602,"elevationM":1182},{"id":"node:1243165011","kind":"peak","name":"Navalengua","lat":37.6263727,"lon":-3.8449896,"elevationM":1291},{"id":"node:1243165242","kind":"peak","name":"Pico de la Martina","lat":37.5195484,"lon":-3.8469254,"elevationM":1552},{"id":"node:1243165851","kind":"peak","name":"Cerro de las Parras","lat":37.4703154,"lon":-3.8192808,"elevationM":1108},{"id":"node:1243166404","kind":"peak","name":"Cerro Cortijuelo","lat":37.6279835,"lon":-3.6768204,"elevationM":1172},{"id":"node:1243166427","kind":"peak","name":"Cerro Gallego","lat":37.6291438,"lon":-3.9261567,"elevationM":699},{"id":"node:1243166748","kind":"peak","name":"Piedras del Escritorio","lat":37.6380461,"lon":-3.9599892,"elevationM":657},{"id":"node:1243167200","kind":"peak","name":"Cerrillo Caldera","lat":37.6332753,"lon":-3.7906142,"elevationM":1773},{"id":"node:1243167467","kind":"peak","name":"Cerro de la Maleza","lat":37.5016902,"lon":-3.7696814,"elevationM":1457},{"id":"node:1243167499","kind":"peak","name":"Cerro de la Cimbra","lat":37.4974141,"lon":-3.8525546,"elevationM":1192},{"id":"node:1243167565","kind":"peak","name":"Cerro Pitillos","lat":37.6146024,"lon":-3.7008127,"elevationM":1271},{"id":"node:1243167820","kind":"peak","name":"Cerro Cuchillón","lat":37.8218219,"lon":-3.2216284,"elevationM":582},{"id":"node:1243168087","kind":"peak","name":"Pico Pandera","lat":37.6442515,"lon":-3.8187769,"elevationM":1565},{"id":"node:1243168151","kind":"peak","name":"Loma del Bellón","lat":37.8889384,"lon":-3.0170946,"elevationM":1218},{"id":"node:1243168337","kind":"peak","name":"Cerro de las Cabañuelas","lat":37.6635309,"lon":-3.6220575,"elevationM":794},{"id":"node:1243168627","kind":"peak","name":"Cerro Frío","lat":37.8405128,"lon":-3.0042593,"elevationM":1485},{"id":"node:1243168680","kind":"peak","name":"El Masegoso","lat":37.6456092,"lon":-3.9780154,"elevationM":729},{"id":"node:1243169149","kind":"peak","name":"Peña Rubio","lat":37.7124309,"lon":-3.6558253,"elevationM":622},{"id":"node:1243169287","kind":"peak","name":"Cerro de Peñalisa","lat":37.7037552,"lon":-3.4373808,"elevationM":1841},{"id":"node:1243169581","kind":"peak","name":"Cerro Ojo de Buey","lat":37.711226,"lon":-3.7298583,"elevationM":656},{"id":"node:1243169686","kind":"peak","name":"Alto de Cornicabra","lat":37.5545861,"lon":-3.823681,"elevationM":1597},{"id":"node:1243169873","kind":"peak","name":"Cerro de los Chotos","lat":37.6670913,"lon":-3.2788131,"elevationM":1125},{"id":"node:1243169880","kind":"peak","name":"Cerro Chircales","lat":37.5944562,"lon":-3.8517119,"elevationM":1027},{"id":"node:1243170558","kind":"peak","name":"Alto del Cerro Quemado","lat":37.5582174,"lon":-3.7002612,"elevationM":1565},{"id":"node:1243171393","kind":"peak","name":"Alto de Santa María","lat":37.4026649,"lon":-3.8425581,"elevationM":1014},{"id":"node:1243171463","kind":"peak","name":"Cerrillo el Romeral","lat":37.6232756,"lon":-3.9441244,"elevationM":684},{"id":"node:1243171735","kind":"peak","name":"Cerro de la Imora","lat":37.7811931,"lon":-3.8369615,"elevationM":753},{"id":"node:1243172142","kind":"peak","name":"Cerro de Casablanca","lat":37.6433676,"lon":-3.5912616,"elevationM":866},{"id":"node:1243172332","kind":"peak","name":"Cerro Viga","lat":37.7277949,"lon":-3.6260518,"elevationM":784},{"id":"node:1243172587","kind":"peak","name":"Monte Prieto","lat":37.7372173,"lon":-3.7147776,"elevationM":992},{"id":"node:1243172684","kind":"peak","name":"Cerro Cárceles o Ponce","lat":37.742862,"lon":-3.4788196,"elevationM":2061},{"id":"node:1243172924","kind":"peak","name":"Pico del Espino","lat":37.7977897,"lon":-3.5675792,"elevationM":874},{"id":"node:1243173835","kind":"peak","name":"Cerro de Cuesta Negra","lat":37.7377161,"lon":-3.879876,"elevationM":1184},{"id":"node:1243174153","kind":"peak","name":"Cerro Gata","lat":37.629249,"lon":-3.9890462,"elevationM":649},{"id":"node:1243174190","kind":"peak","name":"Morrón de la Jarropa","lat":37.5588216,"lon":-3.5950339,"elevationM":1375},{"id":"node:1243174227","kind":"peak","name":"Cerro Palomares","lat":37.6531423,"lon":-3.6739927,"elevationM":1418},{"id":"node:1243174349","kind":"peak","name":"Cagasebo","lat":37.9864394,"lon":-3.5952599,"elevationM":454},{"id":"node:1243174540","kind":"peak","name":"Cerro Gallega","lat":37.7994986,"lon":-3.5497337,"elevationM":859},{"id":"node:1243174632","kind":"peak","name":"Cerro Candelecho","lat":37.4909076,"lon":-3.878676,"elevationM":1079},{"id":"node:1243174755","kind":"peak","name":"Cerro Vicenta","lat":37.7212538,"lon":-3.0026142,"elevationM":772},{"id":"node:1243175041","kind":"peak","name":"Cerrillo de la Garduña","lat":37.6779558,"lon":-3.2306272,"elevationM":964},{"id":"node:1243175273","kind":"peak","name":"Cerrillo el Cuarto","lat":37.4015423,"lon":-3.8642177,"elevationM":935},{"id":"node:1243175520","kind":"peak","name":"Lomas del Cerro Gordo","lat":37.4230122,"lon":-3.9823009,"elevationM":1176},{"id":"node:1243175594","kind":"peak","name":"Cerro Castril","lat":37.7595443,"lon":-3.3422318,"elevationM":1105},{"id":"node:1243175673","kind":"peak","name":"Cerro Corralón","lat":37.5991167,"lon":-3.4013534,"elevationM":1118},{"id":"node:1243175740","kind":"peak","name":"Cerro Villar","lat":37.6194831,"lon":-3.9873572,"elevationM":889},{"id":"node:1243175842","kind":"peak","name":"Cerro Nebrillo","lat":37.6945977,"lon":-3.2826611,"elevationM":954},{"id":"node:1243176300","kind":"peak","name":"Peña Blanca","lat":37.741664,"lon":-3.5536015,"elevationM":1298},{"id":"node:1243176484","kind":"peak","name":"Cerro Molina","lat":37.7917487,"lon":-3.7406997,"elevationM":516},{"id":"node:1243177503","kind":"peak","name":"Morrón del Fresno","lat":37.6621934,"lon":-3.6746862,"elevationM":1544},{"id":"node:1243289083","kind":"peak","name":"Cerro Caprailes","lat":37.3898667,"lon":-3.7904133,"elevationM":926},{"id":"node:1243289115","kind":"peak","name":"Cerro Lagunillas","lat":37.2781055,"lon":-3.9887957,"elevationM":873},{"id":"node:1243289585","kind":"peak","name":"Cerro del Aire","lat":37.006289,"lon":-3.7822566,"elevationM":1309},{"id":"node:1243289645","kind":"peak","name":"Corazón de la Sandía","lat":37.0530655,"lon":-3.5147735,"elevationM":1885},{"id":"node:1243289895","kind":"peak","name":"Cerro de Sabas;Sabas","lat":37.0761554,"lon":-3.9077352,"elevationM":958},{"id":"node:1243289934","kind":"peak","name":"Cerro de los Hachos","lat":37.0705251,"lon":-3.6635994,"elevationM":836},{"id":"node:1243289949","kind":"peak","name":"Cerro Magrero","lat":37.6245057,"lon":-3.1812663,"elevationM":1002},{"id":"node:1243290190","kind":"peak","name":"Cerro del Castillo","lat":37.1495773,"lon":-3.4486728,"elevationM":1249},{"id":"node:1243290576","kind":"peak","name":"Loma de la Cueva del Cubo","lat":37.3812337,"lon":-3.324546,"elevationM":1469},{"id":"node:1243290623","kind":"peak","name":"Cerro de la Buitrera","lat":37.4025473,"lon":-3.6497087,"elevationM":1377},{"id":"node:1243290627","kind":"peak","name":"Peñón del Fraile","lat":37.0163059,"lon":-3.3422751,"elevationM":2171},{"id":"node:1243290660","kind":"peak","name":"Cerro Bajero","lat":37.5566585,"lon":-3.2513437,"elevationM":1072},{"id":"node:1243290671","kind":"peak","name":"Cerro Machado","lat":37.3290621,"lon":-3.1992964,"elevationM":894},{"id":"node:1243290700","kind":"peak","name":"Morroncillo de Fuente Fría","lat":37.1196707,"lon":-3.0298806,"elevationM":2055},{"id":"node:1243290837","kind":"peak","name":"Cerro del Caballo","lat":37.3458473,"lon":-3.5254486,"elevationM":1192},{"id":"node:1243291538","kind":"peak","name":"Cerro del Tío del Yeso","lat":37.2521398,"lon":-3.7370746,"elevationM":736},{"id":"node:1243291634","kind":"peak","name":"Cerro de la Vegueta","lat":37.2679795,"lon":-3.5933573,"elevationM":903},{"id":"node:1243291681","kind":"peak","name":"Cerro de las Minas","lat":37.0988773,"lon":-3.4994087,"elevationM":1849},{"id":"node:1243291770","kind":"peak","name":"Loma del Juncarón","lat":37.3550796,"lon":-3.5976572,"elevationM":872},{"id":"node:1243291825","kind":"peak","name":"Monte Fuerte","lat":37.2677488,"lon":-3.8849892,"elevationM":812},{"id":"node:1243292224","kind":"peak","name":"Peñón de la Cruz","lat":37.3368133,"lon":-3.4252923,"elevationM":1713},{"id":"node:1243292254","kind":"peak","name":"Cerro Padre Miguel","lat":37.1052894,"lon":-3.8596992,"elevationM":887},{"id":"node:1243292286","kind":"peak","name":"Cerro de la Torre","lat":37.4252829,"lon":-3.1815076,"elevationM":851},{"id":"node:1243292352","kind":"peak","name":"Trevenquillo","lat":37.0782467,"lon":-3.4732986,"elevationM":1834},{"id":"node:1243292360","kind":"peak","name":"Carboneros","lat":37.4190139,"lon":-3.7042025,"elevationM":995},{"id":"node:1243292467","kind":"peak","name":"Cerrillo de Borondo","lat":37.3560572,"lon":-3.8360256,"elevationM":947},{"id":"node:1243292476","kind":"peak","name":"Cerro de las Pilas del Lobo","lat":37.0973481,"lon":-3.9512812,"elevationM":898},{"id":"node:1243292496","kind":"peak","name":"Cerro del Cues","lat":37.4600321,"lon":-3.6837884,"elevationM":1102},{"id":"node:1243292521","kind":"peak","name":"Cerro Calar Blanco","lat":37.25791,"lon":-3.4692266,"elevationM":1414},{"id":"node:1243292538","kind":"peak","name":"Cerro Oscuro","lat":37.4051567,"lon":-3.6101756,"elevationM":1392},{"id":"node:1243292953","kind":"peak","name":"Cerro del Águila","lat":37.1871344,"lon":-3.9034317,"elevationM":601},{"id":"node:1243293123","kind":"peak","name":"Cerrillo del Aire","lat":37.3769497,"lon":-3.5522036,"elevationM":867},{"id":"node:1243293159","kind":"peak","name":"Cerro Mantubo","lat":37.2789666,"lon":-3.5935184,"elevationM":934},{"id":"node:1243293246","kind":"peak","name":"Las Lomillas","lat":37.4636635,"lon":-3.1917617,"elevationM":894},{"id":"node:1243293274","kind":"peak","name":"Cerro del Coscojar","lat":37.0455753,"lon":-3.8885638,"elevationM":1049},{"id":"node:1243293821","kind":"peak","name":"El Cerrajón","lat":37.3019535,"lon":-3.9204536,"elevationM":1503},{"id":"node:1243293830","kind":"peak","name":"Pecho del Lastonar","lat":37.0333716,"lon":-3.169113,"elevationM":2115},{"id":"node:1243293936","kind":"peak","name":"Cerro de las Matas","lat":37.5343023,"lon":-3.3522266,"elevationM":1155},{"id":"node:1243294012","kind":"peak","name":"Cerro la Noria","lat":37.2771577,"lon":-3.2168297,"elevationM":1108},{"id":"node:1243294025","kind":"peak","name":"Peñón de la Giganta","lat":37.3606472,"lon":-3.3958478,"elevationM":1703},{"id":"node:1243294033","kind":"peak","name":"Cerro de la Calera","lat":37.1476241,"lon":-3.1693379,"elevationM":1741},{"id":"node:1243294044","kind":"peak","name":"Peñón de las Majadas","lat":37.2481607,"lon":-3.7370733,"elevationM":763},{"id":"node:1243294143","kind":"peak","name":"Cerro Mirabueno","lat":37.5246971,"lon":-3.2374384,"elevationM":1142},{"id":"node:1243294163","kind":"peak","name":"Loma del Chaparralón","lat":37.3475939,"lon":-3.7612102,"elevationM":1247},{"id":"node:1243294178","kind":"peak","name":"Cerro de las Torrubias","lat":37.0889213,"lon":-3.9603374,"elevationM":917},{"id":"node:1243294224","kind":"peak","name":"Cerro Gordo","lat":37.008648,"lon":-3.1791324,"elevationM":2086},{"id":"node:1243294695","kind":"peak","name":"Cerro de la Cueva","lat":37.4392117,"lon":-3.5644309,"elevationM":1097},{"id":"node:1243294825","kind":"peak","name":"Cerro de la Trocha o Peñón del Puerto","lat":37.0923568,"lon":-3.1597007,"elevationM":2754},{"id":"node:1243294848","kind":"peak","name":"Cerro de los Quemados","lat":37.4223173,"lon":-3.5921583,"elevationM":1175},{"id":"node:1243294928","kind":"peak","name":"Pico del Grajo","lat":37.4492032,"lon":-3.1532542,"elevationM":841},{"id":"node:1243294975","kind":"peak","name":"Monte Ahí de Cara","lat":37.123892,"lon":-3.432473,"elevationM":2106},{"id":"node:1243294988","kind":"peak","name":"Cerro del Yeso","lat":37.4900567,"lon":-3.150218,"elevationM":895},{"id":"node:1243295150","kind":"peak","name":"Cerro Farfán","lat":37.5234886,"lon":-3.3698405,"elevationM":1196},{"id":"node:1243295153","kind":"peak","name":"Cerro de los Bolos","lat":37.1622523,"lon":-3.2192128,"elevationM":2002},{"id":"node:1243295188","kind":"peak","name":"Alto del Navazuelo","lat":37.5138666,"lon":-3.4185343,"elevationM":1181},{"id":"node:1243295423","kind":"peak","name":"Cerro del Monte","lat":37.1396229,"lon":-3.4436713,"elevationM":1614},{"id":"node:1243295873","kind":"peak","name":"Cerro de Manolete","lat":37.1244111,"lon":-3.4620537,"elevationM":1576},{"id":"node:1243296044","kind":"peak","name":"Cerrillo del Cebo","lat":37.4052646,"lon":-3.6638367,"elevationM":1069},{"id":"node:1243296108","kind":"peak","name":"Cerro de la Minilla","lat":37.5939021,"lon":-3.4860278,"elevationM":1223},{"id":"node:1243296216","kind":"peak","name":"Cerro de los Potros","lat":37.5623565,"lon":-3.2855966,"elevationM":1023},{"id":"node:1243296472","kind":"peak","name":"Cabeza Cebo","lat":37.377523,"lon":-3.5762459,"elevationM":949},{"id":"node:1243296485","kind":"peak","name":"Cerrillo de las Perdices","lat":37.2199114,"lon":-3.2137562,"elevationM":1359},{"id":"node:1243296497","kind":"peak","name":"Cerro del Almirez","lat":37.2308441,"lon":-3.7011581,"elevationM":694},{"id":"node:1243296516","kind":"peak","name":"Cerro Zorreras","lat":37.0451545,"lon":-3.8471356,"elevationM":1058},{"id":"node:1243296616","kind":"peak","name":"Morrón de Haza Mesa","lat":37.1120474,"lon":-3.3676452,"elevationM":2206},{"id":"node:1243296651","kind":"peak","name":"Cerro de los Carriles","lat":37.0359369,"lon":-3.7348651,"elevationM":1096},{"id":"node:1243296662","kind":"peak","name":"Peñón de Murcia","lat":37.3123138,"lon":-3.9389744,"elevationM":1343},{"id":"node:1243296666","kind":"peak","name":"Morrón de las Tres Lindes","lat":37.1132277,"lon":-3.0150344,"elevationM":2219},{"id":"node:1243296707","kind":"peak","name":"Peñón de la Era","lat":37.310885,"lon":-3.4790534,"elevationM":1652},{"id":"node:1243296718","kind":"peak","name":"Cerro Cañada del Espino","lat":37.1710353,"lon":-3.8904609,"elevationM":625},{"id":"node:1243296822","kind":"peak","name":"Cerrillo de la Estrella","lat":37.5322022,"lon":-3.0822651,"elevationM":836},{"id":"node:1243296988","kind":"peak","name":"Cerro del Aire","lat":37.4046996,"lon":-3.5865016,"elevationM":1181},{"id":"node:1243296996","kind":"peak","name":"Cerro del Coscojar","lat":37.0247795,"lon":-3.7882907,"elevationM":1226},{"id":"node:1243297003","kind":"peak","name":"Cerrillo de las Laderas","lat":37.4424065,"lon":-3.7470518,"elevationM":1072},{"id":"node:1243297350","kind":"peak","name":"Cerro de las Grajas","lat":37.1324736,"lon":-3.4527897,"elevationM":1738},{"id":"node:1243297521","kind":"peak","name":"Cerro de Madrigueras","lat":37.0585001,"lon":-3.7194094,"elevationM":846},{"id":"node:1243297528","kind":"peak","name":"Cerro de las Encebras","lat":37.4796166,"lon":-3.684272,"elevationM":1244},{"id":"node:1243297666","kind":"peak","name":"Peña de la Cruz","lat":37.3336675,"lon":-3.468107,"elevationM":2027},{"id":"node:1243297731","kind":"peak","name":"Puntal del Toril","lat":37.1185205,"lon":-3.001334,"elevationM":2022},{"id":"node:1243297817","kind":"peak","name":"Cerro Molinero","lat":37.0405875,"lon":-3.8992602,"elevationM":1011},{"id":"node:1243297884","kind":"peak","name":"Cerro de Vaciacámaras","lat":37.4848634,"lon":-3.7538577,"elevationM":1144},{"id":"node:1243297917","kind":"peak","name":"Puntal de Puerto Luque","lat":37.1324359,"lon":-3.3609629,"elevationM":1545},{"id":"node:1243297933","kind":"peak","name":"Peñón del Lobo","lat":37.0914748,"lon":-3.1201209,"elevationM":2768},{"id":"node:1243297952","kind":"peak","name":"Cerro del Aulagar","lat":37.0283009,"lon":-3.7001993,"elevationM":1078},{"id":"node:1243298104","kind":"peak","name":"Cerrillo de Cagachín","lat":37.1705569,"lon":-3.0034757,"elevationM":1311},{"id":"node:1243298261","kind":"peak","name":"Cerro de la Pava","lat":37.0246306,"lon":-3.8914598,"elevationM":1117},{"id":"node:1243298264","kind":"peak","name":"Cerrillo del Panadero","lat":37.3974288,"lon":-3.3228317,"elevationM":1294},{"id":"node:1243298293","kind":"peak","name":"Cerro Castillejo","lat":37.442143,"lon":-3.6202205,"elevationM":1120},{"id":"node:1243298322","kind":"peak","name":"Cerro de los Jugares","lat":37.525548,"lon":-3.3517292,"elevationM":1183},{"id":"node:1243298381","kind":"peak","name":"Cerro Portalón","lat":37.2652013,"lon":-3.3698674,"elevationM":1411},{"id":"node:1243298382","kind":"peak","name":"Cerrillo del Aire","lat":37.0493553,"lon":-3.6630519,"elevationM":871},{"id":"node:1243298428","kind":"peak","name":"Cerro de la Viña","lat":37.1030481,"lon":-3.9595417,"elevationM":881},{"id":"node:1243298468","kind":"peak","name":"Cerro Lares","lat":37.2752595,"lon":-3.2189912,"elevationM":1094},{"id":"node:1243298476","kind":"peak","name":"Cerro del Castillejo","lat":37.3649547,"lon":-3.6540527,"elevationM":1079},{"id":"node:1243298490","kind":"peak","name":"Peña Lonja","lat":37.3925469,"lon":-3.3540669,"elevationM":1426},{"id":"node:1243298492","kind":"peak","name":"Cerro del Puerco","lat":37.4314632,"lon":-3.7203242,"elevationM":989},{"id":"node:1243298554","kind":"peak","name":"Cerro de la Cabaña","lat":37.4748772,"lon":-3.562697,"elevationM":1024},{"id":"node:1243298618","kind":"peak","name":"Morrón Sanjuanero","lat":37.0926332,"lon":-3.0535709,"elevationM":2609},{"id":"node:1243298664","kind":"peak","name":"Cerro del Cocón","lat":37.0981688,"lon":-3.4889471,"elevationM":1856},{"id":"node:1243298686","kind":"peak","name":"Cerro del Caracol","lat":37.3441864,"lon":-3.9295454,"elevationM":1048},{"id":"node:1243298796","kind":"peak","name":"Loma de la Veira","lat":37.2626338,"lon":-3.6264667,"elevationM":873},{"id":"node:1243298822","kind":"peak","name":"Picacho Alto","lat":37.0517533,"lon":-3.5329593,"elevationM":1776},{"id":"node:1243298853","kind":"peak","name":"Cerro el Laerón","lat":37.2623364,"lon":-3.9411244,"elevationM":759},{"id":"node:1243298985","kind":"peak","name":"Cerro de los Caniches","lat":37.4937989,"lon":-3.6387543,"elevationM":1067},{"id":"node:1243299045","kind":"peak","name":"Tajo de los Machos Sur","lat":37.0126353,"lon":-3.4099824,"elevationM":3056},{"id":"node:1243299081","kind":"peak","name":"Cerro Buitrera","lat":37.4187565,"lon":-3.6505766,"elevationM":1341},{"id":"node:1243299085","kind":"peak","name":"Cerro el Castellón","lat":37.1628347,"lon":-3.9776184,"elevationM":651},{"id":"node:1243299086","kind":"peak","name":"Cerro Montañés","lat":37.5934569,"lon":-3.4912176,"elevationM":1269},{"id":"node:1243299088","kind":"peak","name":"Morrón Artero","lat":37.481514,"lon":-3.1887772,"elevationM":1081},{"id":"node:1243299135","kind":"peak","name":"Peñón de Granada","lat":37.0039739,"lon":-3.5308137,"elevationM":1715},{"id":"node:1243299136","kind":"peak","name":"Cerro de la Matanza","lat":37.3662152,"lon":-3.8225514,"elevationM":833},{"id":"node:1243299140","kind":"peak","name":"Cerro del Obispo","lat":37.1185141,"lon":-3.962613,"elevationM":837},{"id":"node:1243299221","kind":"peak","name":"Cerro del Cortijillo","lat":37.44951,"lon":-3.7042422,"elevationM":1169},{"id":"node:1243299230","kind":"peak","name":"Cerro del Piorno","lat":37.2476711,"lon":-3.7221359,"elevationM":1083},{"id":"node:1243299232","kind":"peak","name":"Alto de Doña Marina","lat":37.5428965,"lon":-3.3384963,"elevationM":1113},{"id":"node:1243299411","kind":"peak","name":"Cerro el Cazorro","lat":37.2703281,"lon":-3.8258598,"elevationM":821},{"id":"node:1243299475","kind":"peak","name":"Cerro del Guarda","lat":37.3962127,"lon":-3.6369078,"elevationM":1234},{"id":"node:1243299560","kind":"peak","name":"Morrón del Hacho","lat":37.3346853,"lon":-3.7948339,"elevationM":1255},{"id":"node:1243299562","kind":"peak","name":"Alto del Chaparral","lat":37.1578963,"lon":-3.0952799,"elevationM":1528},{"id":"node:1243299573","kind":"peak","name":"Cerro de la Venta de Barajas","lat":37.510963,"lon":-3.6214527,"elevationM":1121},{"id":"node:1243299641","kind":"peak","name":"Cerro Gitano","lat":37.1507795,"lon":-3.1413674,"elevationM":1573},{"id":"node:1243299643","kind":"peak","name":"Cerro Baldío","lat":37.3990058,"lon":-3.794497,"elevationM":972},{"id":"node:1243299649","kind":"peak","name":"Peñón de los Gallegos","lat":37.3441419,"lon":-3.5073998,"elevationM":1273},{"id":"node:1243299679","kind":"peak","name":"Los Castillejos","lat":37.0522465,"lon":-3.5006703,"elevationM":1986},{"id":"node:1243299701","kind":"peak","name":"Cerro de Piedras Blancas","lat":37.1470096,"lon":-3.1109206,"elevationM":1746},{"id":"node:1243299737","kind":"peak","name":"Cerro de Pitel","lat":37.3628691,"lon":-3.7909351,"elevationM":947},{"id":"node:1243299740","kind":"peak","name":"Peñón de Bermejo","lat":37.2801758,"lon":-3.8371939,"elevationM":916},{"id":"node:1243299741","kind":"peak","name":"Cerro de la Piedra","lat":37.0929783,"lon":-3.9549328,"elevationM":911},{"id":"node:1243299761","kind":"peak","name":"Cerrillo del Pajonal","lat":37.0176973,"lon":-3.866066,"elevationM":1159},{"id":"node:1243299772","kind":"peak","name":"Alto del Rayo","lat":37.4072651,"lon":-3.6382441,"elevationM":1489},{"id":"node:1243299782","kind":"peak","name":"Cerro de los Majanos","lat":37.5360153,"lon":-3.33526,"elevationM":1167},{"id":"node:1243300122","kind":"peak","name":"Cerro de los Mosquitos","lat":37.3765466,"lon":-3.7445157,"elevationM":1304},{"id":"node:1243300179","kind":"peak","name":"Campanario","lat":37.0560837,"lon":-3.3637113,"elevationM":3329},{"id":"node:1243300195","kind":"peak","name":"Cerro Alto","lat":37.4211691,"lon":-3.7175247,"elevationM":903},{"id":"node:1243300416","kind":"peak","name":"Picacho","lat":37.0180281,"lon":-3.1971789,"elevationM":1897},{"id":"node:1243300440","kind":"peak","name":"Puntal de los Cuartos","lat":37.1106886,"lon":-3.2745004,"elevationM":3154},{"id":"node:1243300540","kind":"peak","name":"Morrón de Río Chico","lat":37.0963775,"lon":-3.1378678,"elevationM":2611},{"id":"node:1243300796","kind":"peak","name":"Cerro del Abejanar","lat":37.4661978,"lon":-3.7464926,"elevationM":1339},{"id":"node:1243300873","kind":"peak","name":"La Herradura","lat":37.2013285,"lon":-3.9475167,"elevationM":602},{"id":"node:1243300908","kind":"peak","name":"Cerro de la Venta","lat":37.0473672,"lon":-3.8277998,"elevationM":971},{"id":"node:1243301064","kind":"peak","name":"Cerro Cantuezo","lat":37.2749761,"lon":-3.5424743,"elevationM":1261},{"id":"node:1243301288","kind":"peak","name":"Cerro de Toloveo","lat":37.1039483,"lon":-3.9781918,"elevationM":869},{"id":"node:1243301750","kind":"peak","name":"El Morrón","lat":37.4127879,"lon":-3.6790488,"elevationM":1128},{"id":"node:1243301808","kind":"peak","name":"Cerrillo del Mojón","lat":37.4074148,"lon":-3.0414694,"elevationM":1132},{"id":"node:1243301988","kind":"peak","name":"Cerrillo del Trigo","lat":37.1253783,"lon":-3.2760324,"elevationM":2678},{"id":"node:1243302113","kind":"peak","name":"Cerro de la Cruz","lat":37.2502912,"lon":-3.2158996,"elevationM":1200},{"id":"node:1243302214","kind":"peak","name":"Cerro Leal","lat":37.4424681,"lon":-3.1463258,"elevationM":896},{"id":"node:1243302404","kind":"peak","name":"Cerro la Huerta","lat":37.5918962,"lon":-3.2023477,"elevationM":926},{"id":"node:1243302467","kind":"peak","name":"Cerro de Lucas","lat":37.3904251,"lon":-3.7090968,"elevationM":962},{"id":"node:1243302536","kind":"peak","name":"Peña de las Águilas","lat":37.3648648,"lon":-3.6735652,"elevationM":1324},{"id":"node:1243303136","kind":"peak","name":"Cerro del Viso","lat":37.1352337,"lon":-3.9230185,"elevationM":779},{"id":"node:1243303141","kind":"peak","name":"Garrucha","lat":37.4967868,"lon":-3.2395417,"elevationM":1049},{"id":"node:1243303200","kind":"peak","name":"Cerro del Tobar","lat":37.3409706,"lon":-3.8387208,"elevationM":897},{"id":"node:1243303611","kind":"peak","name":"Cerro del Castillo","lat":37.1648918,"lon":-3.1505462,"elevationM":1444},{"id":"node:1243303625","kind":"peak","name":"Cerro del Retamar","lat":37.4504879,"lon":-3.6889987,"elevationM":1083},{"id":"node:1243303756","kind":"peak","name":"Cerro de la Atalaya","lat":37.504423,"lon":-3.4468119,"elevationM":1226},{"id":"node:1243304011","kind":"peak","name":"Cerro de la Cruz","lat":37.0648317,"lon":-3.8290676,"elevationM":931},{"id":"node:1243304022","kind":"peak","name":"Peñón de Muñoz","lat":37.0132014,"lon":-3.5015689,"elevationM":1938},{"id":"node:1243304129","kind":"peak","name":"Cerro de las Rozas","lat":37.358903,"lon":-3.7474079,"elevationM":1253},{"id":"node:1243304185","kind":"peak","name":"Puntal de la Mora","lat":37.2788714,"lon":-3.4773847,"elevationM":1644},{"id":"node:1243304399","kind":"peak","name":"Cerro Gordo","lat":37.2905381,"lon":-3.7364044,"elevationM":786},{"id":"node:1243304432","kind":"peak","name":"Cerro de la Hormiga","lat":37.4389706,"lon":-3.5340827,"elevationM":927},{"id":"node:1243304581","kind":"peak","name":"Cerrillo del Tocón","lat":37.4279743,"lon":-3.593291,"elevationM":1198},{"id":"node:1243305040","kind":"peak","name":"Majojos","lat":37.1405701,"lon":-3.5123565,"elevationM":1359},{"id":"node:1243305133","kind":"peak","name":"Cerro del Portichuelo","lat":37.2800503,"lon":-3.5547002,"elevationM":1267},{"id":"node:1243305148","kind":"peak","name":"Cerro de la Dehesilla","lat":37.1087601,"lon":-3.4695949,"elevationM":1517},{"id":"node:1243305171","kind":"peak","name":"Cerro del Rey","lat":37.4321439,"lon":-3.6579973,"elevationM":1037},{"id":"node:1243305202","kind":"peak","name":"Cerro de la Peñuela","lat":37.5328399,"lon":-3.2221051,"elevationM":1156},{"id":"node:1243305224","kind":"peak","name":"Cerro Angosto","lat":37.3450378,"lon":-3.8696212,"elevationM":951},{"id":"node:1243305363","kind":"peak","name":"Cerro del Frage","lat":37.4013935,"lon":-3.5948457,"elevationM":1258},{"id":"node:1243305444","kind":"peak","name":"Tajo Colorado","lat":37.2356565,"lon":-3.7139003,"elevationM":766},{"id":"node:1243305536","kind":"peak","name":"Cerro Montenegro","lat":37.0696224,"lon":-3.8865428,"elevationM":953},{"id":"node:1243305621","kind":"peak","name":"Mojón del Trigo","lat":37.0907767,"lon":-3.3818946,"elevationM":2609},{"id":"node:1243305734","kind":"peak","name":"Peña del Hacho","lat":37.3783439,"lon":-3.7167546,"elevationM":962},{"id":"node:1243305957","kind":"peak","name":"Alto de las Chorreras","lat":37.0724193,"lon":-3.1606965,"elevationM":2649},{"id":"node:1243306110","kind":"peak","name":"Panillero","lat":37.1742352,"lon":-3.009533,"elevationM":1307},{"id":"node:1243306369","kind":"peak","name":"Cerro de la Silleta","lat":37.0395189,"lon":-3.5947641,"elevationM":1520},{"id":"node:1243306389","kind":"peak","name":"Cerro de los Lelitas","lat":37.1629791,"lon":-3.1112479,"elevationM":1509},{"id":"node:1243306500","kind":"peak","name":"Cerro de las Minas","lat":37.1561015,"lon":-3.1211858,"elevationM":1534},{"id":"node:1243306556","kind":"peak","name":"Monte Armín","lat":37.5016625,"lon":-3.2685046,"elevationM":1091},{"id":"node:1243306767","kind":"peak","name":"Cerro de Haza Alta","lat":37.456676,"lon":-3.7513721,"elevationM":1329},{"id":"node:1243307126","kind":"peak","name":"Cerro de Cuesta Bermeja","lat":37.1279515,"lon":-3.4568145,"elevationM":1697},{"id":"node:1243307158","kind":"peak","name":"Cerro de la Fresnedilla","lat":37.3536733,"lon":-3.8027541,"elevationM":945},{"id":"node:1243307181","kind":"peak","name":"Cerro de Mascaharina","lat":37.09871,"lon":-3.9795952,"elevationM":882},{"id":"node:1243307234","kind":"peak","name":"Cerro de los Almorchones","lat":37.485352,"lon":-3.6713769,"elevationM":1092},{"id":"node:1243307539","kind":"peak","name":"Cerro de las Armas","lat":37.1645864,"lon":-3.0117131,"elevationM":1506},{"id":"node:1243308015","kind":"peak","name":"Cerro de la Torre del Hoyo","lat":37.0781833,"lon":-3.9676759,"elevationM":987},{"id":"node:1243308079","kind":"peak","name":"Cerro de la Misa","lat":37.4371849,"lon":-3.6151512,"elevationM":1102},{"id":"node:1243308175","kind":"peak","name":"Cerro Pajarillo","lat":37.0407892,"lon":-3.8860189,"elevationM":1054},{"id":"node:1243308186","kind":"peak","name":"Cerro de las Piñas","lat":37.018249,"lon":-3.7903654,"elevationM":1275},{"id":"node:1243308282","kind":"peak","name":"Cerro de las Agujetas","lat":37.2673914,"lon":-3.7593917,"elevationM":629},{"id":"node:1243308300","kind":"peak","name":"Cerro de los Cocones","lat":37.3557299,"lon":-3.0022212,"elevationM":1404},{"id":"node:1243308326","kind":"peak","name":"Cerro Blanco","lat":37.3281329,"lon":-3.8835517,"elevationM":1292},{"id":"node:1243308512","kind":"peak","name":"Cerro de la Hoya del Esparto","lat":37.2706934,"lon":-3.5169321,"elevationM":1482},{"id":"node:1243308549","kind":"peak","name":"Cerro Peñalver","lat":37.4223135,"lon":-3.5622175,"elevationM":1038},{"id":"node:1243308624","kind":"peak","name":"Morrón de Sierra de Enmedio","lat":37.3288649,"lon":-3.8105944,"elevationM":1254},{"id":"node:1243308763","kind":"peak","name":"Cerro de los Cañones","lat":37.3558459,"lon":-3.6573925,"elevationM":1056},{"id":"node:1243309087","kind":"peak","name":"Cerro Cucazorra","lat":37.2677276,"lon":-3.8510594,"elevationM":824},{"id":"node:1243309202","kind":"peak","name":"Alto de las Vacas","lat":37.4587099,"lon":-3.678586,"elevationM":1082},{"id":"node:1243309250","kind":"peak","name":"Cerro de los Poyos de Monachil","lat":37.1089633,"lon":-3.4872996,"elevationM":1826},{"id":"node:1243309971","kind":"peak","name":"Cerro Mulero","lat":37.411259,"lon":-3.8223255,"elevationM":879},{"id":"node:1243310012","kind":"peak","name":"Cerro del Conejo","lat":37.273443,"lon":-3.9585019,"elevationM":833},{"id":"node:1243310517","kind":"peak","name":"Cerro del Cristiano","lat":37.0021382,"lon":-3.8177882,"elevationM":1298},{"id":"node:1243310881","kind":"peak","name":"Cerrillo Jazmín","lat":37.1919226,"lon":-3.0327912,"elevationM":1269},{"id":"node:1243310923","kind":"peak","name":"Cerro Elvira","lat":37.3180124,"lon":-3.8440379,"elevationM":857},{"id":"node:1243311238","kind":"peak","name":"Cerro Hierro","lat":37.2831103,"lon":-3.9822507,"elevationM":908},{"id":"node:1243311274","kind":"peak","name":"Peñón de la Loma","lat":37.0429884,"lon":-3.0956093,"elevationM":1884},{"id":"node:1243311333","kind":"peak","name":"Cerro Garay","lat":37.2759827,"lon":-3.5064232,"elevationM":1477},{"id":"node:1243311415","kind":"peak","name":"Cerro de la Meseta","lat":37.4219804,"lon":-3.6791389,"elevationM":919},{"id":"node:1243312050","kind":"peak","name":"Cerro del Cortijuelo","lat":37.414699,"lon":-3.5528142,"elevationM":946},{"id":"node:1243312156","kind":"peak","name":"Cerro de la Sierrecilla","lat":37.4503854,"lon":-3.7107332,"elevationM":1216},{"id":"node:1243312232","kind":"peak","name":"Peñón de los Conejos","lat":37.2410792,"lon":-3.722078,"elevationM":868},{"id":"node:1243312586","kind":"peak","name":"Cerrillo de los Guardas","lat":37.0295862,"lon":-3.8139973,"elevationM":1126},{"id":"node:1243312726","kind":"peak","name":"Cerro del Tejo del Águila","lat":37.3723765,"lon":-3.033569,"elevationM":1276},{"id":"node:1243313000","kind":"peak","name":"Cabezo de las Hazas del Pleito","lat":37.4936571,"lon":-3.3438266,"elevationM":1217},{"id":"node:1243313045","kind":"peak","name":"Cerro Gurrino","lat":37.0402907,"lon":-3.6757953,"elevationM":917},{"id":"node:1243313049","kind":"peak","name":"Peñón Bermejo","lat":37.336437,"lon":-3.7517778,"elevationM":1018},{"id":"node:1243313149","kind":"peak","name":"Cerro de Manolón","lat":37.1245548,"lon":-3.4768353,"elevationM":1599},{"id":"node:1243313272","kind":"peak","name":"Peña Bermeja","lat":37.099721,"lon":-3.3169053,"elevationM":2323},{"id":"node:1243313294","kind":"peak","name":"Cerrillo del Tuerto","lat":37.0484507,"lon":-3.0981134,"elevationM":1923},{"id":"node:1243313377","kind":"peak","name":"Cerro de los Gambuzones","lat":37.4497753,"lon":-3.548133,"elevationM":1097},{"id":"node:1243313553","kind":"peak","name":"Alto de la Vega","lat":37.2206741,"lon":-3.237663,"elevationM":1288},{"id":"node:1243313793","kind":"peak","name":"Cerro del Fraile","lat":37.4735292,"lon":-3.6879077,"elevationM":1202},{"id":"node:1243313827","kind":"peak","name":"Cerro del Muerto","lat":37.5055429,"lon":-3.399521,"elevationM":1242},{"id":"node:1243314230","kind":"peak","name":"Puntal del Trompillo","lat":37.225447,"lon":-3.3624062,"elevationM":1620},{"id":"node:1243314292","kind":"peak","name":"Cerro Peña Lisa","lat":37.4760183,"lon":-3.5904921,"elevationM":1162},{"id":"node:1243314453","kind":"peak","name":"Cerro Castillejo","lat":37.2577071,"lon":-3.5854763,"elevationM":1084},{"id":"node:1243314691","kind":"peak","name":"Cerro de las Urracas","lat":37.5445298,"lon":-3.5305823,"elevationM":1231},{"id":"node:1243314758","kind":"peak","name":"Cerro Pelado","lat":37.1032938,"lon":-3.2536722,"elevationM":3182},{"id":"node:1243314914","kind":"peak","name":"Cerro de la Cortijuela","lat":37.0893337,"lon":-3.4714295,"elevationM":1852},{"id":"node:1243315038","kind":"peak","name":"Cerro de las Monjas","lat":37.3985317,"lon":-3.6742055,"elevationM":986},{"id":"node:1243315221","kind":"peak","name":"Cerro del Tío Pozo","lat":37.0686728,"lon":-3.8529812,"elevationM":981},{"id":"node:1243315237","kind":"peak","name":"Cerro del Palo","lat":37.5375967,"lon":-3.2114811,"elevationM":1146},{"id":"node:1243315287","kind":"peak","name":"Cerro del Aire","lat":37.3274011,"lon":-3.1959189,"elevationM":897},{"id":"node:1243315439","kind":"peak","name":"Cerro San Torcuato","lat":37.1596538,"lon":-3.0205464,"elevationM":1585},{"id":"node:1243316317","kind":"peak","name":"Cerro de las Yeseras","lat":37.0260164,"lon":-3.8450536,"elevationM":1081},{"id":"node:1243316823","kind":"peak","name":"Cerro del Moro","lat":37.5661016,"lon":-3.52851,"elevationM":1379},{"id":"node:1243317213","kind":"peak","name":"Cerro de las Coronillas","lat":37.4351977,"lon":-3.5860643,"elevationM":1168},{"id":"node:1243317358","kind":"peak","name":"Cerro de la Calera","lat":37.5629686,"lon":-3.2194226,"elevationM":1029},{"id":"node:1243317583","kind":"peak","name":"Cerro de la Pedriza","lat":37.2896177,"lon":-3.777764,"elevationM":726},{"id":"node:1243317630","kind":"peak","name":"La Chaja","lat":37.0183881,"lon":-3.5407768,"elevationM":1515},{"id":"node:1243317842","kind":"peak","name":"Covarrón del Huerto","lat":37.4422876,"lon":-3.133776,"elevationM":922},{"id":"node:1243318074","kind":"peak","name":"Cerro del Moro","lat":37.4781845,"lon":-3.7271313,"elevationM":1224},{"id":"node:1243318343","kind":"peak","name":"Cerro del Espartal","lat":37.431903,"lon":-3.4340063,"elevationM":1086},{"id":"node:1243318505","kind":"peak","name":"Cerro Gordo","lat":37.0040932,"lon":-3.6827943,"elevationM":1082},{"id":"node:1243318638","kind":"peak","name":"El Escopetar","lat":37.0187828,"lon":-3.5251488,"elevationM":1617},{"id":"node:1243318701","kind":"peak","name":"Cerro de las Juntas","lat":37.4116276,"lon":-3.8158493,"elevationM":942},{"id":"node:1243319230","kind":"peak","name":"Cerro de la Pera","lat":37.0172281,"lon":-3.8071751,"elevationM":1303},{"id":"node:1243319235","kind":"peak","name":"Cerro de la Retama","lat":37.3633808,"lon":-3.045276,"elevationM":1248},{"id":"node:1243319251","kind":"peak","name":"Cerro de la Fuente","lat":37.4938017,"lon":-3.7137472,"elevationM":1249},{"id":"node:1243319293","kind":"peak","name":"Peñón de la Mata","lat":37.2840328,"lon":-3.4488736,"elevationM":1506},{"id":"node:1243319328","kind":"peak","name":"Cerrillo Redondo","lat":37.115361,"lon":-3.1036529,"elevationM":2146},{"id":"node:1243319706","kind":"peak","name":"Las Cabezuelas","lat":37.3481124,"lon":-3.6839633,"elevationM":1014},{"id":"node:1243319915","kind":"peak","name":"Cerro de la Cruz","lat":37.2956539,"lon":-3.5661083,"elevationM":1104},{"id":"node:1243319927","kind":"peak","name":"El Púlpito","lat":37.2708626,"lon":-3.5041832,"elevationM":1424},{"id":"node:1243320115","kind":"peak","name":"Cerro Cucadero","lat":37.4102741,"lon":-3.5594772,"elevationM":999},{"id":"node:1243320206","kind":"peak","name":"Cerro de la Mochila","lat":37.5158645,"lon":-3.3853017,"elevationM":1232},{"id":"node:1243320272","kind":"peak","name":"Cerro del Pingurucho","lat":37.0517879,"lon":-3.9053461,"elevationM":915},{"id":"node:1243320292","kind":"peak","name":"Manflor","lat":37.1894846,"lon":-3.5706483,"elevationM":991},{"id":"node:1243320549","kind":"peak","name":"Morrón del Hornillo","lat":37.1008911,"lon":-3.0426713,"elevationM":2377},{"id":"node:1243320776","kind":"peak","name":"Cerro de las Caballerías","lat":37.5937579,"lon":-3.525321,"elevationM":1397},{"id":"node:1243320838","kind":"peak","name":"Cerro de las Pedrizas","lat":37.3425255,"lon":-3.9162739,"elevationM":1135},{"id":"node:1243321086","kind":"peak","name":"Cerro del Padre Eterno","lat":37.3427315,"lon":-3.5886185,"elevationM":809},{"id":"node:1243321126","kind":"peak","name":"La Boca de la Pescá","lat":37.0760327,"lon":-3.5452504,"elevationM":1518},{"id":"node:1243321154","kind":"peak","name":"Cerro del Reloj","lat":37.2785964,"lon":-3.9975377,"elevationM":955},{"id":"node:1243321175","kind":"peak","name":"Cerro de la Escucha de la Sabina","lat":37.4656812,"lon":-3.0984162,"elevationM":984},{"id":"node:1243321263","kind":"peak","name":"Cerro del Romeral","lat":37.5310585,"lon":-3.1181651,"elevationM":1007},{"id":"node:1243321476","kind":"peak","name":"Cerro de los Majanos","lat":37.5062834,"lon":-3.4084718,"elevationM":1236},{"id":"node:1243321484","kind":"peak","name":"Cerrillo del Poste","lat":37.2916982,"lon":-3.4770363,"elevationM":1452},{"id":"node:1243321512","kind":"peak","name":"Cerro Zapatero","lat":37.4132483,"lon":-3.7178931,"elevationM":951},{"id":"node:1243321572","kind":"peak","name":"Peñón del Lobo","lat":37.0459156,"lon":-3.1651326,"elevationM":2286},{"id":"node:1243321631","kind":"peak","name":"Cerro de los Gamones","lat":37.541393,"lon":-3.5350352,"elevationM":1263},{"id":"node:1243321726","kind":"peak","name":"Cerro del Cántaro","lat":37.428501,"lon":-3.6776691,"elevationM":952},{"id":"node:1243321740","kind":"peak","name":"Cabezo de Utrera","lat":37.5921124,"lon":-3.4975656,"elevationM":1309},{"id":"node:1243321761","kind":"peak","name":"Cerro del Librado","lat":37.5371939,"lon":-3.20274,"elevationM":1124},{"id":"node:1243321928","kind":"peak","name":"Loma del Galgo","lat":37.3360929,"lon":-3.6117802,"elevationM":827},{"id":"node:1243321933","kind":"peak","name":"Cerrillo de Cantares","lat":37.364989,"lon":-3.8117719,"elevationM":815},{"id":"node:1243322176","kind":"peak","name":"Cerro Palomo","lat":37.245361,"lon":-3.6963283,"elevationM":822},{"id":"node:1243322408","kind":"peak","name":"Cerro Almagrero","lat":37.6252454,"lon":-3.202451,"elevationM":1005},{"id":"node:1243322429","kind":"peak","name":"Cerrillo de Pedro Romero","lat":37.3855237,"lon":-3.0218655,"elevationM":1235},{"id":"node:1243322439","kind":"peak","name":"Cerro del Perdigón","lat":37.0070744,"lon":-3.504007,"elevationM":1895},{"id":"node:1243322880","kind":"peak","name":"Cerro de la Pedriza","lat":37.4373351,"lon":-3.6744406,"elevationM":925},{"id":"node:1243322988","kind":"peak","name":"Pelao de los Zorros","lat":37.3496252,"lon":-3.5460714,"elevationM":976},{"id":"node:1243323007","kind":"peak","name":"Cerro del Campanario","lat":37.2870257,"lon":-3.7719218,"elevationM":765},{"id":"node:1249943360","kind":"peak","name":"Cerro del Aguilón","lat":37.4084701,"lon":-3.4137122,"elevationM":1142},{"id":"node:1249943366","kind":"peak","name":"Cerro San Antonio","lat":37.2755916,"lon":-3.2882649,"elevationM":1086},{"id":"node:1249943377","kind":"peak","name":"Cerro de las Higuerillas","lat":37.260061,"lon":-3.5525021,"elevationM":1489},{"id":"node:1249943383","kind":"peak","name":"Cerro de las Víboras","lat":37.2696755,"lon":-3.475963,"elevationM":1631},{"id":"node:1249943391","kind":"peak","name":"Cerro Bermite","lat":37.2407176,"lon":-3.2728189,"elevationM":1302},{"id":"node:1249943396","kind":"peak","name":"Alto del Chaparral","lat":37.2246315,"lon":-3.4986716,"elevationM":1158},{"id":"node:1249943406","kind":"peak","name":"Cerro Trincadero","lat":37.330435,"lon":-3.4208395,"elevationM":1653},{"id":"node:1249943408","kind":"peak","name":"Cerrillo Orea","lat":37.4595129,"lon":-3.4457726,"elevationM":1044},{"id":"node:1249943424","kind":"peak","name":"Tozal del Cartujo","lat":37.039533,"lon":-3.4048781,"elevationM":3152},{"id":"node:1249943429","kind":"peak","name":"Cerro de la Torre","lat":37.3984171,"lon":-3.26629,"elevationM":1049},{"id":"node:1249943433","kind":"peak","name":"Cerro del Ladrón","lat":37.0923458,"lon":-3.5550037,"elevationM":1212},{"id":"node:1249943435","kind":"peak","name":"Cerro de la Venta","lat":37.2473598,"lon":-3.3545021,"elevationM":1636},{"id":"node:1249943441","kind":"peak","name":"Pico de Loma Pelada","lat":37.0529494,"lon":-3.3323105,"elevationM":3183},{"id":"node:1249943443","kind":"peak","name":"Cerro del Quejigo","lat":37.2772695,"lon":-3.4013203,"elevationM":1439},{"id":"node:1249943445","kind":"peak","name":"Cerro Blanco","lat":37.4283178,"lon":-3.3849335,"elevationM":1207},{"id":"node:1249943463","kind":"peak","name":"Cerro del Fraile","lat":37.2163633,"lon":-3.467929,"elevationM":1242},{"id":"node:1249943519","kind":"peak","name":"Cerro Mencal Menor","lat":37.4948936,"lon":-3.189084,"elevationM":1384},{"id":"node:1249943526","kind":"peak","name":"Cerro Moreno","lat":37.2961826,"lon":-3.3355866,"elevationM":1143},{"id":"node:1249943537","kind":"peak","name":"Peñón de la Mata","lat":37.2891938,"lon":-3.5417467,"elevationM":1669},{"id":"node:1249943546","kind":"peak","name":"Cerro de Matías","lat":37.5049132,"lon":-3.1894069,"elevationM":1368},{"id":"node:1249943572","kind":"peak","name":"Cerro Ballesteros","lat":37.3618901,"lon":-3.4880515,"elevationM":1207},{"id":"node:1249943629","kind":"peak","name":"Cerro del Caballo","lat":37.0119157,"lon":-3.4397817,"elevationM":3011},{"id":"node:1249943632","kind":"peak","name":"Cerro del Señorico","lat":37.2341543,"lon":-3.5460356,"elevationM":1169},{"id":"node:1249943638","kind":"peak","name":"Cerro de Poyo Alfaro","lat":37.3511242,"lon":-3.3162814,"elevationM":1333},{"id":"node:1249943645","kind":"peak","name":"Cerro de las Calaveras","lat":37.1840225,"lon":-3.2831585,"elevationM":2207},{"id":"node:1249943663","kind":"peak","name":"Cerro Secanillo","lat":37.2271761,"lon":-3.4140711,"elevationM":1349},{"id":"node:1249943733","kind":"peak","name":"Cerro Almuéjar","lat":37.3216109,"lon":-3.4452323,"elevationM":1522},{"id":"node:1249943752","kind":"peak","name":"Cabezo de Terre","lat":37.4504825,"lon":-3.4998749,"elevationM":976},{"id":"node:1249943874","kind":"peak","name":"Pico Juego de Bolos","lat":37.0627723,"lon":-3.3215598,"elevationM":3021},{"id":"node:1249943907","kind":"peak","name":"Cerro de Loma Redonda","lat":37.1398711,"lon":-3.5314,"elevationM":1122},{"id":"node:1249943909","kind":"peak","name":"Cerro del Pino Oscuro","lat":37.2699756,"lon":-3.4039074,"elevationM":1591},{"id":"node:1249943919","kind":"peak","name":"Cerro del Almendro","lat":37.4463594,"lon":-3.3522059,"elevationM":1142},{"id":"node:1249943945","kind":"peak","name":"Cerro del Ataque","lat":37.3700761,"lon":-3.3993091,"elevationM":1294},{"id":"node:1249943953","kind":"peak","name":"Alto de Atochas","lat":37.2611315,"lon":-3.2599095,"elevationM":1198},{"id":"node:1249943980","kind":"peak","name":"Cerro de la Cruz","lat":37.2420262,"lon":-3.632447,"elevationM":771},{"id":"node:1249943987","kind":"peak","name":"Cerro de la Cueva del Agua","lat":37.2536669,"lon":-3.5321379,"elevationM":1605},{"id":"node:1249943992","kind":"peak","name":"Cerro de la Encinilla","lat":37.4975303,"lon":-3.3892234,"elevationM":1247},{"id":"node:1249943995","kind":"peak","name":"Cerro de Aldabón","lat":37.3177795,"lon":-3.2186066,"elevationM":977},{"id":"node:1249944007","kind":"peak","name":"Cerro de las Víboras","lat":37.3174871,"lon":-3.4974142,"elevationM":1824},{"id":"node:1249944025","kind":"peak","name":"Cerro de los Almendros","lat":37.3445135,"lon":-3.3668969,"elevationM":1306},{"id":"node:1249944108","kind":"peak","name":"Cerro de los Machos","lat":37.0571848,"lon":-3.3575055,"elevationM":3329},{"id":"node:1249944116","kind":"peak","name":"Cerro del Mesto","lat":37.3331454,"lon":-3.3386777,"elevationM":1464},{"id":"node:1249944145","kind":"peak","name":"Cerro de los Inquisidores","lat":37.2460323,"lon":-3.3412351,"elevationM":1678},{"id":"node:1249944147","kind":"peak","name":"Cerro Parejo","lat":37.0874259,"lon":-3.552465,"elevationM":1241},{"id":"node:1249944158","kind":"peak","name":"Cerro la Cañadilla","lat":37.2172753,"lon":-3.3745937,"elevationM":1628},{"id":"node:1249944234","kind":"peak","name":"Cerro Cucadero","lat":37.327651,"lon":-3.4004951,"elevationM":1603},{"id":"node:1249944252","kind":"peak","name":"Cerro de Pérez","lat":37.4974822,"lon":-3.3298617,"elevationM":1217},{"id":"node:1249944267","kind":"peak","name":"Cerro de la Val","lat":37.2125863,"lon":-3.4572583,"elevationM":1289},{"id":"node:1249944366","kind":"peak","name":"Cerro de los Pinochos","lat":37.4869717,"lon":-3.2220409,"elevationM":1009},{"id":"node:1249944376","kind":"peak","name":"Cerro Pararrayos","lat":37.2686815,"lon":-3.416015,"elevationM":1657},{"id":"node:1249944389","kind":"peak","name":"Cerro de las Calaveras","lat":37.2561862,"lon":-3.5233736,"elevationM":1586},{"id":"node:1249944413","kind":"peak","name":"Cerro de las Minas","lat":37.3595221,"lon":-3.0172334,"elevationM":1421},{"id":"node:1249944420","kind":"peak","name":"Cerro de Alicún","lat":37.6031603,"lon":-3.1438893,"elevationM":1072},{"id":"node:1249944424","kind":"peak","name":"Cerro Montefría","lat":37.2437405,"lon":-3.3319835,"elevationM":1725},{"id":"node:1249944435","kind":"peak","name":"Cerro de la Hoya","lat":37.3510464,"lon":-3.4774784,"elevationM":1209},{"id":"node:1249944438","kind":"peak","name":"Cerro del Cardal","lat":37.1878784,"lon":-3.0270667,"elevationM":1354},{"id":"node:1249944451","kind":"peak","name":"Cerro de la Yedra","lat":37.265768,"lon":-3.5369096,"elevationM":1489},{"id":"node:1249944454","kind":"peak","name":"Cerro Gordo","lat":37.2028089,"lon":-3.5471235,"elevationM":1046},{"id":"node:1249944460","kind":"peak","name":"Cerro Buzao","lat":37.3984154,"lon":-3.2756601,"elevationM":1102},{"id":"node:1249944467","kind":"peak","name":"Peña Bermeja","lat":37.2388081,"lon":-3.331426,"elevationM":1669},{"id":"node:1249944473","kind":"peak","name":"Cerro del Pino","lat":37.2702509,"lon":-3.2888398,"elevationM":1103},{"id":"node:1249944485","kind":"peak","name":"Cerro del Calabocillo","lat":37.2997284,"lon":-3.4268684,"elevationM":1404},{"id":"node:1249944488","kind":"peak","name":"Cerro de la Cruz","lat":37.4416444,"lon":-3.491692,"elevationM":978},{"id":"node:1249944547","kind":"peak","name":"Cerro Tesoro","lat":37.465218,"lon":-3.312353,"elevationM":1064},{"id":"node:1249944550","kind":"peak","name":"Cerro del Mochuelo","lat":37.2733473,"lon":-3.3824059,"elevationM":1428},{"id":"node:1249944731","kind":"peak","name":"Peñón del Muerto I","lat":37.063246,"lon":-3.2168627,"elevationM":2866},{"id":"node:1249944742","kind":"peak","name":"Calar Blanco","lat":37.2648087,"lon":-3.4605798,"elevationM":1634},{"id":"node:1249944756","kind":"peak","name":"Cerro del Tío Luque","lat":37.4227423,"lon":-3.337035,"elevationM":1105},{"id":"node:1249944802","kind":"peak","name":"Cerro Domingo","lat":37.0409481,"lon":-3.5707956,"elevationM":1468},{"id":"node:1249944911","kind":"peak","name":"Cerro de los Tranquilos","lat":37.3650029,"lon":-3.4947919,"elevationM":1112},{"id":"node:1249944953","kind":"peak","name":"Cerro de los Castillejos","lat":37.0363689,"lon":-3.8057718,"elevationM":1051},