{"tileKey":"la_p44_lo_p15","version":"v1-1775891056926","entries":[{"id":"node:26862750","kind":"peak","name":"Crnopac","lat":44.2520467,"lon":15.8368449,"elevationM":1404},{"id":"node:26863645","kind":"peak","name":"Mali Rajinac","lat":44.7943613,"lon":15.0131705,"elevationM":1699},{"id":"node:26864173","kind":"peak","name":"Ozeblin","lat":44.578681,"lon":15.8760274,"elevationM":1656},{"id":"node:26865014","kind":"peak","name":"Vaganski vrh","lat":44.3673159,"lon":15.5045559,"elevationM":1758},{"id":"node:568646311","kind":"peak","name":"Mali Vitrenik","lat":44.3065119,"lon":15.4426438,"elevationM":410},{"id":"node:702255603","kind":"peak","name":"Visočica","lat":44.4296447,"lon":15.3714127,"elevationM":1619},{"id":"node:772608815","kind":"peak","name":"Veliki Kozjak","lat":44.7330729,"lon":15.0354587,"elevationM":1620},{"id":"node:772625279","kind":"peak","name":"Šatorina","lat":44.647689,"lon":15.0484582,"elevationM":1624},{"id":"node:945344830","kind":"peak","name":"Vrh","lat":44.785643,"lon":15.8831288,"elevationM":572},{"id":"node:973807580","kind":"peak","name":"Veliki Vitrenik","lat":44.3010836,"lon":15.4529938,"elevationM":433},{"id":"node:1196638011","kind":"peak","name":"Vlaški grad","lat":44.3249449,"lon":15.5506099,"elevationM":1383},{"id":"node:1196647368","kind":"peak","name":"Sveto brdo","lat":44.3286279,"lon":15.5697131,"elevationM":1750},{"id":"node:1196661103","kind":"peak","name":"Bojin Kuk","lat":44.3490248,"lon":15.4131806,"elevationM":1110},{"id":"node:1196715135","kind":"peak","name":"Zir","lat":44.430181,"lon":15.6143769,"elevationM":850},{"id":"node:1196944189","kind":"peak","name":"Anića kuk","lat":44.3069691,"lon":15.4824768,"elevationM":712},{"id":"node:1196968891","kind":"peak","name":"Bačić kuk","lat":44.5793864,"lon":15.0961539,"elevationM":1304},{"id":"node:1197034332","kind":"peak","name":"Laktin vrh","lat":44.6210821,"lon":15.0925921,"elevationM":1504},{"id":"node:1197046519","kind":"peak","name":"Budakovo brdo","lat":44.5826639,"lon":15.0736779,"elevationM":1317},{"id":"node:1197189878","kind":"peak","name":"Visibaba","lat":44.5658469,"lon":15.1059467,"elevationM":1161},{"id":"node:1197189938","kind":"peak","name":"Velinac","lat":44.5597757,"lon":15.072143,"elevationM":965},{"id":"node:1197205187","kind":"peak","name":"Kiza","lat":44.5484662,"lon":15.1599514,"elevationM":1274},{"id":"node:1197399282","kind":"peak","name":"Metla","lat":44.5392526,"lon":15.2133358,"elevationM":1288},{"id":"node:1197399992","kind":"peak","name":"Ljubičko brdo","lat":44.5373874,"lon":15.1900268,"elevationM":1320},{"id":"node:1197422043","kind":"peak","name":"Žuti kuk","lat":44.5491373,"lon":15.1547991,"elevationM":1197},{"id":"node:1197422156","kind":"peak","name":"Vranji kuk","lat":44.5504761,"lon":15.1500904,"elevationM":1121},{"id":"node:1201752560","kind":"peak","name":"Veliki Sadikovac","lat":44.5061359,"lon":15.1842418,"elevationM":1286},{"id":"node:1201769548","kind":"peak","name":"Vratarski kuk","lat":44.7658839,"lon":15.0005326,"elevationM":1676},{"id":"node:1201776609","kind":"peak","name":"Hajdučki kuk","lat":44.7639997,"lon":15.0216652,"elevationM":1649},{"id":"node:1201776801","kind":"peak","name":"Golubić","lat":44.767536,"lon":15.0165294,"elevationM":1650},{"id":"node:1201803788","kind":"peak","name":"Obli kuk","lat":44.736224,"lon":15.017974,"elevationM":1515},{"id":"node:1201999087","kind":"peak","name":"Jadićeva plan","lat":44.917211,"lon":15.0218719,"elevationM":1416},{"id":"node:1268257098","kind":"peak","name":"Šćah","lat":44.0853525,"lon":15.1440304,"elevationM":286},{"id":"node:1285292005","kind":"peak","name":"Kremen","lat":44.4641132,"lon":15.8864561,"elevationM":1591},{"id":"node:1285358643","kind":"peak","name":"Gola Plješivica","lat":44.793824,"lon":15.7484909,"elevationM":1646},{"id":"node:1293150302","kind":"peak","name":"Babićovac","lat":44.0150889,"lon":15.0772842,"elevationM":97},{"id":"node:1312815916","kind":"peak","name":"Zoljin kuk","lat":44.318258,"lon":15.468384,"elevationM":847},{"id":"node:1371597984","kind":"peak","name":"Korenski vrh","lat":44.8012056,"lon":15.1986007,"elevationM":1101},{"id":"node:1377925527","kind":"peak","name":"Gracina","lat":44.1399014,"lon":15.0197629,"elevationM":145},{"id":"node:1399045660","kind":"peak","name":"Medvjeđak oštri","lat":44.8876562,"lon":15.6537846,"elevationM":889},{"id":"node:1399137016","kind":"peak","name":"Medvjeđak tupi","lat":44.8902701,"lon":15.6421877,"elevationM":876},{"id":"node:1399137347","kind":"peak","name":"Turčić","lat":44.8977966,"lon":15.6253692,"elevationM":801},{"id":"node:1406919578","kind":"peak","name":"Crni vrh","lat":44.3309856,"lon":15.5028122,"elevationM":1110},{"id":"node:1517581988","kind":"peak","name":"Maričića Vrh","lat":44.6861648,"lon":15.8414699,"elevationM":1393},{"id":"node:1517581994","kind":"peak","name":"Šljeme","lat":44.7456006,"lon":15.6542934,"elevationM":1243},{"id":"node:1861727497","kind":"peak","name":"Ćelavac","lat":44.2600848,"lon":15.7849966,"elevationM":1202},{"id":"node:1906033871","kind":"peak","name":"Jurasova glavica","lat":44.3141007,"lon":15.4863815,"elevationM":742},{"id":"node:1906033884","kind":"peak","name":"Maniti kuk","lat":44.3127102,"lon":15.4748076,"elevationM":702},{"id":"node:1907087218","kind":"peak","name":"Golić","lat":44.3502107,"lon":15.4483557,"elevationM":1265},{"id":"node:1907087691","kind":"peak","name":"Grabar","lat":44.3458388,"lon":15.4552816,"elevationM":1197},{"id":"node:1988617694","kind":"peak","name":"Seliški vrh","lat":44.872148,"lon":15.5335363,"elevationM":1279},{"id":"node:1995943089","kind":"peak","name":"Cagalj","lat":44.874622,"lon":15.6165266,"elevationM":646},{"id":"node:1995944998","kind":"peak","name":"Stubica","lat":44.8757644,"lon":15.6016012,"elevationM":685},{"id":"node:1995945004","kind":"peak","name":"Tavanak","lat":44.8854013,"lon":15.595001,"elevationM":736},{"id":"node:1996918810","kind":"peak","name":"Mukinje","lat":44.8739083,"lon":15.6249472,"elevationM":722},{"id":"node:1996990061","kind":"peak","name":"Gulanov vrh","lat":44.8679066,"lon":15.5805863,"elevationM":826},{"id":"node:1996990062","kind":"peak","name":"Kameniti vrh","lat":44.8778633,"lon":15.5694931,"elevationM":945},{"id":"node:1996990160","kind":"peak","name":"Paleščić","lat":44.8747784,"lon":15.5605041,"elevationM":905},{"id":"node:1996990285","kind":"peak","name":"Vrh Preke kose","lat":44.8951033,"lon":15.5634701,"elevationM":1043},{"id":"node:1996990383","kind":"peak","name":"Javorak","lat":44.9042004,"lon":15.5193059,"elevationM":1107},{"id":"node:2005771201","kind":"peak","name":"Ivar","lat":44.8461042,"lon":15.591017,"elevationM":763},{"id":"node:2006314132","kind":"peak","name":"Bijeli vrh","lat":44.8256979,"lon":15.649296,"elevationM":807},{"id":"node:2006314133","kind":"peak","name":"Košanički vršeljak","lat":44.8813568,"lon":15.6635922,"elevationM":773},{"id":"node:2006324724","kind":"peak","name":"M. Kik","lat":44.814625,"lon":15.5824095,"elevationM":1005},{"id":"node:2006324725","kind":"peak","name":"Mažarski vrh","lat":44.837178,"lon":15.6580078,"elevationM":792},{"id":"node:2006324726","kind":"peak","name":"Prokres","lat":44.8220387,"lon":15.5652339,"elevationM":872},{"id":"node:2006324763","kind":"peak","name":"Bijeli vrh","lat":44.8393205,"lon":15.6189002,"elevationM":835},{"id":"node:2006324764","kind":"peak","name":"Trnovski tavan","lat":44.8257589,"lon":15.6050921,"elevationM":822},{"id":"node:2006324765","kind":"peak","name":"Veliki Kik","lat":44.8192696,"lon":15.5899924,"elevationM":1085},{"id":"node:2006369255","kind":"peak","name":"Gorica","lat":44.9182111,"lon":15.6153443,"elevationM":559},{"id":"node:2009443512","kind":"peak","name":"Crni vrh","lat":44.8509243,"lon":15.5619624,"elevationM":1071},{"id":"node:2009443520","kind":"peak","name":"Crni vrh","lat":44.8662268,"lon":15.6061844,"elevationM":754},{"id":"node:2009443539","kind":"peak","name":"Pavlinov vrh","lat":44.8426111,"lon":15.5342262,"elevationM":940},{"id":"node:2009444865","kind":"peak","name":"Rasovački ogradak","lat":44.8756335,"lon":15.5436483,"elevationM":1209},{"id":"node:2009540976","kind":"peak","name":"Cigelj","lat":44.8939112,"lon":15.5259287,"elevationM":1252},{"id":"node:2009540982","kind":"peak","name":"Osinjak","lat":44.9124654,"lon":15.5013216,"elevationM":1013},{"id":"node:2009540988","kind":"peak","name":"Pavlovački vrh","lat":44.9099917,"lon":15.4825085,"elevationM":1035},{"id":"node:2012648642","kind":"peak","name":"Mala Plješivica","lat":44.7857416,"lon":15.7561073,"elevationM":1576},{"id":"node:2012695486","kind":"peak","name":"Bijeli vrh","lat":44.8166167,"lon":15.7288266,"elevationM":1299},{"id":"node:2012695487","kind":"peak","name":"Crni vrh","lat":44.7768123,"lon":15.7627078,"elevationM":1562},{"id":"node:2012695488","kind":"peak","name":"Crni vrh","lat":44.787671,"lon":15.7836229,"elevationM":1356},{"id":"node:2012695489","kind":"peak","name":"Grabovo rame","lat":44.7868505,"lon":15.7705429,"elevationM":1328},{"id":"node:2012695490","kind":"peak","name":"Jelovi vrh","lat":44.8065753,"lon":15.7208281,"elevationM":1240},{"id":"node:2012695491","kind":"peak","name":"Kržin vrh","lat":44.7657748,"lon":15.7598326,"elevationM":1168},{"id":"node:2012695492","kind":"peak","name":"Mali Kik","lat":44.7866504,"lon":15.7422441,"elevationM":1266},{"id":"node:2012695493","kind":"peak","name":"Mladonjin vrh","lat":44.7963405,"lon":15.7268753,"elevationM":1155},{"id":"node:2012695494","kind":"peak","name":"Opaliti vrh","lat":44.7759201,"lon":15.7912833,"elevationM":1225},{"id":"node:2012695495","kind":"peak","name":"Paljka","lat":44.7647437,"lon":15.8049018,"elevationM":1144},{"id":"node:2012695666","kind":"peak","name":"Veliki Kik","lat":44.7912891,"lon":15.7397058,"elevationM":1287},{"id":"node:2012695667","kind":"peak","name":"Šeganovac","lat":44.7594199,"lon":15.7463637,"elevationM":1039},{"id":"node:2012702799","kind":"peak","name":"Hrnjakov vršak","lat":44.8711653,"lon":15.6407066,"elevationM":698},{"id":"node:2029184558","kind":"peak","name":"Hrastovi vrh","lat":44.9243485,"lon":15.6319109,"elevationM":630},{"id":"node:2029184562","kind":"peak","name":"Kraljev vršak","lat":44.8480641,"lon":15.6765761,"elevationM":685},{"id":"node:2029184565","kind":"peak","name":"M. Palež","lat":44.85294,"lon":15.6995846,"elevationM":691},{"id":"node:2029184569","kind":"peak","name":"M. Živulja","lat":44.8657663,"lon":15.6927916,"elevationM":749},{"id":"node:2029184693","kind":"peak","name":"V. Palež","lat":44.8459962,"lon":15.7096275,"elevationM":802},{"id":"node:2029184698","kind":"peak","name":"Čejića vršak","lat":44.8962162,"lon":15.6738052,"elevationM":599},{"id":"node:2134138074","kind":"peak","name":"Oljavčev vršak","lat":44.827631,"lon":15.6679351,"elevationM":786},{"id":"node:2169734248","kind":"peak","name":"Badanj","lat":44.3896209,"lon":15.4680407,"elevationM":1638},{"id":"node:2169747783","kind":"peak","name":"Štirovac","lat":44.3832074,"lon":15.4827619,"elevationM":1597},{"id":"node:2169889197","kind":"peak","name":"Panos","lat":44.4266089,"lon":15.2819199,"elevationM":1258},{"id":"node:2171104332","kind":"peak","name":"Stapina","lat":44.4061743,"lon":15.3278145,"elevationM":1125},{"id":"node:2171110710","kind":"peak","name":"Debeli kuk","lat":44.4179169,"lon":15.3103063,"elevationM":1269},{"id":"node:2171123563","kind":"peak","name":"Saljev kuk","lat":44.4450284,"lon":15.2459991,"elevationM":1199},{"id":"node:2171127697","kind":"peak","name":"Veliki Stolac","lat":44.4506721,"lon":15.2553226,"elevationM":1406},{"id":"node:2172385913","kind":"peak","name":"Konjevača","lat":44.4906666,"lon":15.2059724,"elevationM":1381},{"id":"node:2172435732","kind":"peak","name":"Sladovačko brdo","lat":44.5145552,"lon":15.1726671,"elevationM":1241},{"id":"node:2172453873","kind":"peak","name":"Jelarje","lat":44.5179723,"lon":15.1643839,"elevationM":1173},{"id":"node:2172456063","kind":"peak","name":"Debela kosa","lat":44.5233029,"lon":15.1472204,"elevationM":974},{"id":"node:2172525690","kind":"peak","name":"Oštri Kozjak","lat":44.5239711,"lon":15.2386696,"elevationM":1168},{"id":"node:2172645414","kind":"peak","name":"Jadićevac","lat":44.555528,"lon":15.1997235,"elevationM":1274},{"id":"node:2173120361","kind":"peak","name":"Crni vrh","lat":44.5257773,"lon":15.2128631,"elevationM":1197},{"id":"node:2173125845","kind":"peak","name":"Filipov kuk","lat":44.5309073,"lon":15.1986756,"elevationM":1080},{"id":"node:2173139488","kind":"peak","name":"Medvjeđi kuk","lat":44.5416357,"lon":15.1800248,"elevationM":1250},{"id":"node:2173142523","kind":"peak","name":"Kuk od pećica","lat":44.546469,"lon":15.1625774,"elevationM":1266},{"id":"node:2173148055","kind":"peak","name":"Vršeljci","lat":44.5463732,"lon":15.179675,"elevationM":1212},{"id":"node:2173195105","kind":"peak","name":"Čelina","lat":44.5650949,"lon":15.1247004,"elevationM":914},{"id":"node:2173336109","kind":"peak","name":"Butinovača","lat":44.5544152,"lon":15.1287877,"elevationM":1127},{"id":"node:2173336716","kind":"peak","name":"Široki kuk","lat":44.5557321,"lon":15.1371533,"elevationM":1081},{"id":"node:2173362288","kind":"peak","name":"Prikinuto brdo","lat":44.5739791,"lon":15.0886365,"elevationM":1265},{"id":"node:2173971167","kind":"peak","name":"Matijević brijeg","lat":44.64164,"lon":15.0362766,"elevationM":1611},{"id":"node:2174033862","kind":"peak","name":"Kurozeb","lat":44.6046918,"lon":15.0276449,"elevationM":1168},{"id":"node:2174051116","kind":"peak","name":"Stipčev vrh","lat":44.5985796,"lon":15.0024775,"elevationM":545},{"id":"node:2174053877","kind":"peak","name":"Lisac","lat":44.6206412,"lon":15.0589191,"elevationM":1449},{"id":"node:2174157534","kind":"peak","name":"Crni vrh","lat":44.6987756,"lon":15.0283624,"elevationM":1558},{"id":"node:2174831975","kind":"peak","name":"Goljak","lat":44.7242432,"lon":15.0132175,"elevationM":1605},{"id":"node:2174831976","kind":"peak","name":"Veliki Golić","lat":44.7238615,"lon":15.0072204,"elevationM":1577},{"id":"node:2174841373","kind":"peak","name":"Mali Golić","lat":44.7121385,"lon":15.0232992,"elevationM":1577},{"id":"node:2174929722","kind":"peak","name":"Veliki Rajinac","lat":44.7826635,"lon":15.0257194,"elevationM":1667},{"id":"node:2325434489","kind":"peak","name":"Bijeli vrh","lat":44.8166188,"lon":15.7288306,"elevationM":1299},{"id":"node:2363211185","kind":"peak","name":"Ljuljevačko brdo","lat":44.6718104,"lon":15.0391129,"elevationM":1521},{"id":"node:2368782578","kind":"peak","name":"Umac","lat":44.8658021,"lon":15.246411,"elevationM":548},{"id":"node:2376460099","kind":"peak","name":"Basača","lat":44.5332499,"lon":15.1370321,"elevationM":1089},{"id":"node:2376477387","kind":"peak","name":"Grabar","lat":44.5476383,"lon":15.1672291,"elevationM":1270},{"id":"node:2376607339","kind":"peak","name":"Bili kuk","lat":44.2625613,"lon":15.839745,"elevationM":1171},{"id":"node:2376640037","kind":"peak","name":"Čardak","lat":44.2429377,"lon":15.9516645,"elevationM":1173},{"id":"node:2463217040","kind":"peak","name":"Martinjak","lat":44.0026816,"lon":15.274286,"elevationM":139},{"id":"node:2535217665","kind":"peak","name":"Glavica","lat":44.7950285,"lon":15.880659,"elevationM":446},{"id":"node:2535519216","kind":"peak","name":"Spahićka glavica","lat":44.8733987,"lon":15.9174893,"elevationM":497},{"id":"node:2549267477","kind":"peak","name":"Mrđa","lat":44.7671712,"lon":15.9069422,"elevationM":489},{"id":"node:2549448124","kind":"peak","name":"Velika Glavica","lat":44.8264361,"lon":15.8189604,"elevationM":null},{"id":"node:2549459056","kind":"peak","name":"Prtišen","lat":44.8695768,"lon":15.7924551,"elevationM":401},{"id":"node:2561701369","kind":"peak","name":"Borik","lat":44.7604483,"lon":15.8334584,"elevationM":675},{"id":"node:2561701371","kind":"peak","name":"Gizdin vrh","lat":44.7724837,"lon":15.8155675,"elevationM":793},{"id":"node:2561701373","kind":"peak","name":"Javornjača","lat":44.7579735,"lon":15.8032724,"elevationM":1172},{"id":"node:2561701374","kind":"peak","name":"Zeleni vrh","lat":44.7689173,"lon":15.7884306,"elevationM":1208},{"id":"node:2561701375","kind":"peak","name":"Vršak","lat":44.7855743,"lon":15.8105352,"elevationM":615},{"id":"node:2590572038","kind":"peak","name":"Panos","lat":44.5014121,"lon":15.0338291,"elevationM":218},{"id":"node:2590572046","kind":"peak","name":"Visoka strana","lat":44.505699,"lon":15.0270888,"elevationM":205},{"id":"node:2691841378","kind":"peak","name":"Oklinak","lat":44.2393622,"lon":15.9615858,"elevationM":1186},{"id":"node:2796010163","kind":"peak","name":"Škorić brdo","lat":44.4800672,"lon":15.9810197,"elevationM":1061},{"id":"node:2952064976","kind":"peak","name":"Tabla","lat":44.7009915,"lon":15.8558122,"elevationM":1613},{"id":"node:3065842868","kind":"peak","name":"Bogdanić","lat":44.5575599,"lon":15.308202,"elevationM":651},{"id":"node:3074089565","kind":"peak","name":"Zaglav","lat":44.0370833,"lon":15.2512878,"elevationM":47},{"id":"node:3105986326","kind":"peak","name":"Tišmina Glava","lat":44.5893515,"lon":15.9373412,"elevationM":854},{"id":"node:3130258233","kind":"peak","name":"Čutinovac","lat":44.5874971,"lon":15.8467654,"elevationM":1408},{"id":"node:3130258234","kind":"peak","name":"Šanac","lat":44.5972765,"lon":15.8787802,"elevationM":1552},{"id":"node:3130258235","kind":"peak","name":"Runjavac","lat":44.5905533,"lon":15.8777932,"elevationM":1589},{"id":"node:3130258236","kind":"peak","name":"Birovača","lat":44.5874971,"lon":15.9505347,"elevationM":875},{"id":"node:3130258237","kind":"peak","name":"Visoka Glava","lat":44.5970321,"lon":15.9510497,"elevationM":971},{"id":"node:3130258238","kind":"peak","name":"Tičevo","lat":44.6099431,"lon":15.905384,"elevationM":1174},{"id":"node:3130258239","kind":"peak","name":"Rudi Lisac","lat":44.5580876,"lon":15.8720854,"elevationM":1608},{"id":"node:3130258240","kind":"peak","name":"Čardak","lat":44.6195798,"lon":15.8329895,"elevationM":1550},{"id":"node:3130258241","kind":"peak","name":"Crni vrh","lat":44.5725496,"lon":15.874832,"elevationM":1604},{"id":"node:3290315838","kind":"peak","name":"Ždrilski kuk","lat":44.4825934,"lon":15.1854367,"elevationM":1165},{"id":"node:3469097336","kind":"peak","name":"Orljak","lat":44.006416,"lon":15.0448339,"elevationM":301},{"id":"node:3623478198","kind":"peak","name":"Ograđenik","lat":44.6560044,"lon":15.0194664,"elevationM":1604},{"id":"node:3743534478","kind":"peak","name":"Visovača","lat":44.4061734,"lon":15.2910317,"elevationM":1018},{"id":"node:3743544497","kind":"peak","name":"Babin Vrh","lat":44.3395907,"lon":15.5638713,"elevationM":1744},{"id":"node:3743546398","kind":"peak","name":"Liburnija","lat":44.3548173,"lon":15.5139957,"elevationM":1705},{"id":"node:3743547025","kind":"peak","name":"Višerujno","lat":44.375554,"lon":15.4454904,"elevationM":1633},{"id":"node:3743547435","kind":"peak","name":"Babin vrh","lat":44.3760159,"lon":15.4888229,"elevationM":1738},{"id":"node:3743547653","kind":"peak","name":"Malovan","lat":44.3560773,"lon":15.5279048,"elevationM":1709},{"id":"node:3743548025","kind":"peak","name":"Bili Vrh","lat":44.3454585,"lon":15.5404174,"elevationM":1656},{"id":"node:3743548593","kind":"peak","name":"Zoranićev vrh","lat":44.3676765,"lon":15.4864999,"elevationM":1702},{"id":"node:3743556780","kind":"peak","name":"Krug","lat":44.4609304,"lon":15.2356352,"elevationM":1342},{"id":"node:3743556994","kind":"peak","name":"Siljevača","lat":44.4667041,"lon":15.2443735,"elevationM":1451},{"id":"node:3743557225","kind":"peak","name":"Pasji Kuk","lat":44.4692866,"lon":15.2344937,"elevationM":1384},{"id":"node:3743557334","kind":"peak","name":"Debelo Brdo","lat":44.3137442,"lon":15.5760477,"elevationM":1441},{"id":"node:3765405095","kind":"peak","name":"Sveti Mihovil","lat":44.0719567,"lon":15.1592969,"elevationM":265},{"id":"node:3870405987","kind":"peak","name":"Obljaj","lat":44.5346173,"lon":15.9612616,"elevationM":666},{"id":"node:3870423098","kind":"peak","name":"Gologuz","lat":44.5794323,"lon":15.968139,"elevationM":1052},{"id":"node:3870531731","kind":"peak","name":"Nikina plasa","lat":44.7281198,"lon":15.66707,"elevationM":1268},{"id":"node:3872694781","kind":"peak","name":"Kosa","lat":44.7507951,"lon":15.6138491,"elevationM":1017},{"id":"node:3902967044","kind":"peak","name":"Vlaka","lat":44.4856193,"lon":15.1764146,"elevationM":null},{"id":"node:3945377945","kind":"peak","name":"Fratar","lat":44.0559533,"lon":15.1776395,"elevationM":183},{"id":"node:3945435068","kind":"peak","name":"Vela glava","lat":44.0671758,"lon":15.1645405,"elevationM":236},{"id":"node:3950411078","kind":"peak","name":"Umac","lat":44.2360141,"lon":15.4648442,"elevationM":248},{"id":"node:3950411080","kind":"peak","name":"Lergova gradina","lat":44.2497552,"lon":15.4418175,"elevationM":268},{"id":"node:3971353850","kind":"peak","name":"Trišnjak","lat":44.0741554,"lon":15.177151,"elevationM":115},{"id":"node:3980020460","kind":"peak","name":"Miškovac","lat":44.1857124,"lon":15.3532662,"elevationM":101},{"id":"node:3980025282","kind":"peak","name":"Križ","lat":44.0719734,"lon":15.3064945,"elevationM":154},{"id":"node:3989534950","kind":"peak","name":"Velika gradina","lat":44.2063065,"lon":15.6230815,"elevationM":268},{"id":"node:4275441479","kind":"peak","name":"Grabovača","lat":44.6428584,"lon":15.3520411,"elevationM":770},{"id":"node:4297984496","kind":"peak","name":"Badanj","lat":44.543318,"lon":15.1466539,"elevationM":1164},{"id":"node:4298483806","kind":"peak","name":"Panos","lat":44.8407438,"lon":15.1355909,"elevationM":828},{"id":"node:4355947378","kind":"peak","name":"Kita Gaćešina","lat":44.2713023,"lon":15.839621,"elevationM":1227},{"id":"node:4368924844","kind":"peak","name":"Veliki Golić","lat":44.6935001,"lon":15.0728932,"elevationM":1550},{"id":"node:4368924845","kind":"peak","name":"Veliki Obljak","lat":44.7044405,"lon":15.0817235,"elevationM":1501},{"id":"node:4368924846","kind":"peak","name":"Grabovo rame","lat":44.7255148,"lon":15.0634256,"elevationM":1242},{"id":"node:4370706952","kind":"peak","name":"Babiji vrh","lat":44.7140918,"lon":15.2395841,"elevationM":878},{"id":"node:4370706954","kind":"peak","name":"Mala Greda","lat":44.7355055,"lon":15.2040841,"elevationM":842},{"id":"node:4370706955","kind":"peak","name":"Mali Oštrac","lat":44.7159263,"lon":15.1727157,"elevationM":911},{"id":"node:4370706956","kind":"peak","name":"Mali Oštrac","lat":44.7177221,"lon":15.1633765,"elevationM":975},{"id":"node:4370706957","kind":"peak","name":"Međuvak glavica","lat":44.6971419,"lon":15.1640083,"elevationM":925},{"id":"node:4370706958","kind":"peak","name":"Tarni vrh","lat":44.7313627,"lon":15.230562,"elevationM":894},{"id":"node:4371184524","kind":"peak","name":"Gradina","lat":44.7260909,"lon":15.2683434,"elevationM":658},{"id":"node:4375154791","kind":"peak","name":"Kuk","lat":44.7457108,"lon":15.0870178,"elevationM":1282},{"id":"node:4375154832","kind":"peak","name":"Vrh Kite","lat":44.7498703,"lon":15.0802557,"elevationM":1298},{"id":"node:4376795794","kind":"peak","name":"Veliki vrh","lat":44.6960496,"lon":15.2480629,"elevationM":910},{"id":"node:4381819495","kind":"peak","name":"Jurekovački kuk","lat":44.7507675,"lon":15.0279927,"elevationM":1525},{"id":"node:4385157811","kind":"peak","name":"Tavan","lat":44.798192,"lon":15.0631984,"elevationM":1425},{"id":"node:4881604336","kind":"peak","name":"Javornik","lat":44.7068369,"lon":15.060756,"elevationM":1507},{"id":"node:4902703055","kind":"peak","name":"Polanka","lat":44.6985631,"lon":15.7294071,"elevationM":924},{"id":"node:4903556682","kind":"peak","name":"Mandića glavica","lat":44.2017008,"lon":15.8308995,"elevationM":416},{"id":"node:4911943218","kind":"peak","name":"Metlica","lat":44.7189361,"lon":15.6658547,"elevationM":1163},{"id":"node:4911943219","kind":"peak","name":"Gradinica","lat":44.6944684,"lon":15.6342661,"elevationM":862},{"id":"node:4911943220","kind":"peak","name":"Gradina","lat":44.6952904,"lon":15.6135995,"elevationM":958},{"id":"node:4920374175","kind":"peak","name":"Čelopek","lat":44.8862676,"lon":15.7196331,"elevationM":526},{"id":"node:4920405853","kind":"peak","name":"Lisina","lat":44.9177443,"lon":15.6762671,"elevationM":552},{"id":"node:4920448897","kind":"peak","name":"Panos","lat":44.7725742,"lon":15.5575418,"elevationM":1206},{"id":"node:4920448898","kind":"peak","name":"Obljaj","lat":44.7505736,"lon":15.5774116,"elevationM":936},{"id":"node:4939670927","kind":"peak","name":"Golo trlo","lat":44.6900935,"lon":15.5704701,"elevationM":1267},{"id":"node:4946885238","kind":"peak","name":"Obljaj","lat":44.7502383,"lon":15.326609,"elevationM":900},{"id":"node:4955285631","kind":"peak","name":"Marković Rudina","lat":44.7880602,"lon":15.2884927,"elevationM":1105},{"id":"node:4955285632","kind":"peak","name":"Đakovac","lat":44.7665631,"lon":15.3167954,"elevationM":1052},{"id":"node:4984185179","kind":"peak","name":"Čelinka","lat":44.6718651,"lon":15.2321845,"elevationM":933},{"id":"node:4984185180","kind":"peak","name":"Medveđak","lat":44.6784492,"lon":15.1985121,"elevationM":961},{"id":"node:5128173592","kind":"peak","name":"Panos","lat":44.3270276,"lon":15.116241,"elevationM":61},{"id":"node:5194042831","kind":"peak","name":"Žutica vrh","lat":44.3257318,"lon":15.7904769,"elevationM":909},{"id":"node:5194042832","kind":"peak","name":"Pećinski vrh","lat":44.3324737,"lon":15.7989393,"elevationM":1039},{"id":"node:5194042833","kind":"peak","name":"Vrh bukovi","lat":44.3089189,"lon":15.830506,"elevationM":830},{"id":"node:5194042834","kind":"peak","name":"Volarica","lat":44.3769557,"lon":15.7009319,"elevationM":762},{"id":"node:5194042835","kind":"peak","name":"Medvidovaća","lat":44.3708628,"lon":15.7157327,"elevationM":832},{"id":"node:5194042836","kind":"peak","name":"Vrh Matovinovića","lat":44.3621361,"lon":15.7356227,"elevationM":988},{"id":"node:5198903786","kind":"peak","name":"Veliki Tisovac","lat":44.7898969,"lon":15.2362919,"elevationM":1037},{"id":"node:5198903787","kind":"peak","name":"Ogoleli grič","lat":44.850078,"lon":15.2031227,"elevationM":757},{"id":"node:5198903788","kind":"peak","name":"Veliki Sinjal","lat":44.8558499,"lon":15.1947495,"elevationM":773},{"id":"node:5198903789","kind":"peak","name":"Perin vrh","lat":44.8436002,"lon":15.2252355,"elevationM":733},{"id":"node:5199459994","kind":"peak","name":"Veliki vrh","lat":44.8779814,"lon":15.2954363,"elevationM":795},{"id":"node:5200363773","kind":"peak","name":"Jurjeva kosa","lat":44.8793954,"lon":15.3626203,"elevationM":897},{"id":"node:5200804437","kind":"peak","name":"Štetin grič","lat":44.791932,"lon":15.4420566,"elevationM":1067},{"id":"node:5223897054","kind":"peak","name":"Kopanj","lat":44.83848,"lon":15.1427221,"elevationM":867},{"id":"node:5223897055","kind":"peak","name":"Razvršine","lat":44.8360607,"lon":15.1496315,"elevationM":846},{"id":"node:5225330746","kind":"peak","name":"Crni vrh","lat":44.8997814,"lon":15.3823614,"elevationM":851},{"id":"node:5225354833","kind":"peak","name":"Atlinovac","lat":44.8956014,"lon":15.3342747,"elevationM":799},{"id":"node:5225357496","kind":"peak","name":"Markovac","lat":44.9221168,"lon":15.41491,"elevationM":1081},{"id":"node:5225363751","kind":"peak","name":"Krivi Javor","lat":44.8846843,"lon":15.4666846,"elevationM":1204},{"id":"node:5229730746","kind":"peak","name":"Mali Lisac","lat":44.9394723,"lon":15.354327,"elevationM":1027},{"id":"node:5233448075","kind":"peak","name":"Erderoga Kosa","lat":44.9175923,"lon":15.2942133,"elevationM":933},{"id":"node:5298165734","kind":"peak","name":"Borovačko brdo","lat":44.6843142,"lon":15.0076813,"elevationM":1553},{"id":"node:5331514198","kind":"peak","name":"Ražovljeva glavica","lat":44.0914027,"lon":15.462471,"elevationM":165},{"id":"node:5381275048","kind":"peak","name":"Crljeni kuk","lat":44.3645216,"lon":15.4859582,"elevationM":1661},{"id":"node:5381275788","kind":"peak","name":"Badanjski Vrh","lat":44.3933717,"lon":15.4595991,"elevationM":1625},{"id":"node:5381285428","kind":"peak","name":"Ćelavac","lat":44.41316,"lon":15.4018062,"elevationM":1601},{"id":"node:5381286894","kind":"peak","name":"Trošeljev vrh","lat":44.4380148,"lon":15.3320521,"elevationM":1445},{"id":"node:5381291028","kind":"peak","name":"Šiljak","lat":44.4268747,"lon":15.3565577,"elevationM":1491},{"id":"node:5381291500","kind":"peak","name":"Seline","lat":44.4228376,"lon":15.3827331,"elevationM":1493},{"id":"node:5381307943","kind":"peak","name":"Vilin kuk","lat":44.3858469,"lon":15.3900945,"elevationM":1401},{"id":"node:5381315024","kind":"peak","name":"Bobički kuk","lat":44.3918746,"lon":15.3797938,"elevationM":1439},{"id":"node:5381319448","kind":"peak","name":"Golić","lat":44.405483,"lon":15.3690233,"elevationM":1424},{"id":"node:5381330005","kind":"peak","name":"Šegestin","lat":44.3638815,"lon":15.5166102,"elevationM":1715},{"id":"node:5381336793","kind":"peak","name":"Brundo","lat":44.3596668,"lon":15.5127435,"elevationM":1716},{"id":"node:5381343193","kind":"peak","name":"Vršina","lat":44.3162027,"lon":15.5411115,"elevationM":1240},{"id":"node:5381346790","kind":"peak","name":"Veliki Golić","lat":44.3060681,"lon":15.6110363,"elevationM":1371},{"id":"node:5381361962","kind":"peak","name":"Siljevača","lat":44.4696587,"lon":15.2850009,"elevationM":1449},{"id":"node:5381366767","kind":"peak","name":"Kozjak","lat":44.4038077,"lon":15.3974617,"elevationM":1572},{"id":"node:5383480275","kind":"peak","name":"Robinac","lat":44.8150737,"lon":15.0168943,"elevationM":1587},{"id":"node:5383563628","kind":"peak","name":"Vršeljak","lat":44.6933694,"lon":15.3015947,"elevationM":814},{"id":"node:5489045718","kind":"peak","name":"Oštra","lat":44.5304386,"lon":15.3263773,"elevationM":796},{"id":"node:5515660386","kind":"peak","name":"Ljuljačka","lat":44.614881,"lon":15.0391781,"elevationM":1278},{"id":"node:5519808221","kind":"peak","name":"Kita","lat":44.6081904,"lon":15.2509117,"elevationM":827},{"id":"node:5595856494","kind":"peak","name":"Ivetuša","lat":44.8901138,"lon":15.0439739,"elevationM":1392},{"id":"node:5595856495","kind":"peak","name":"Bijeli vrh","lat":44.8717341,"lon":15.0651439,"elevationM":1492},{"id":"node:5695939738","kind":"peak","name":"Ždenac","lat":44.9050857,"lon":15.0096416,"elevationM":1344},{"id":"node:5717280823","kind":"peak","name":"Veliki Urljaj","lat":44.40504,"lon":15.9430969,"elevationM":1295},{"id":"node:5717292998","kind":"peak","name":"Mali Urljaj","lat":44.4086877,"lon":15.9533995,"elevationM":1266},{"id":"node:5717296877","kind":"peak","name":"Lisac","lat":44.3337845,"lon":15.9945325,"elevationM":1335},{"id":"node:5717317140","kind":"peak","name":"Visibaba","lat":44.3934151,"lon":15.9969769,"elevationM":1278},{"id":"node:5717338858","kind":"peak","name":"Veliki Brusnić","lat":44.5686462,"lon":15.819726,"elevationM":1371},{"id":"node:5717342043","kind":"peak","name":"Obljajac","lat":44.5735089,"lon":15.8270881,"elevationM":1390},{"id":"node:5717347606","kind":"peak","name":"Troura","lat":44.6039377,"lon":15.7941883,"elevationM":1336},{"id":"node:5717357501","kind":"peak","name":"Trovrh","lat":44.7120064,"lon":15.8346998,"elevationM":1602},{"id":"node:5974523729","kind":"peak","name":"Munižabin vrh","lat":44.2624663,"lon":15.8613503,"elevationM":1098},{"id":"node:6033537410","kind":"peak","name":"Bas","lat":44.3655309,"lon":15.1013046,"elevationM":20},{"id":"node:6033537411","kind":"peak","name":"Orlova smrt","lat":44.3376249,"lon":15.1679387,"elevationM":79},{"id":"node:6033537412","kind":"peak","name":"Pasja stina","lat":44.3260869,"lon":15.191032,"elevationM":80},{"id":"node:6033537413","kind":"peak","name":"Jamurina","lat":44.3083454,"lon":15.2209832,"elevationM":40},{"id":"node:6034408787","kind":"peak","name":"Vinculja","lat":44.0000428,"lon":15.5084479,"elevationM":134},{"id":"node:6034427567","kind":"peak","name":"Vrčevo","lat":44.0323508,"lon":15.3925979,"elevationM":213},{"id":"node:6034724718","kind":"peak","name":"Pržun","lat":44.139274,"lon":15.6566007,"elevationM":351},{"id":"node:6039913285","kind":"peak","name":"Gubavica","lat":44.0238815,"lon":15.4710032,"elevationM":124},{"id":"node:6068893091","kind":"peak","name":"Sandalj kuk","lat":44.243398,"lon":15.7392459,"elevationM":null},{"id":"node:6068894301","kind":"peak","name":"Kuk Ražovi","lat":44.2449587,"lon":15.7288195,"elevationM":810},{"id":"node:6068930039","kind":"peak","name":"Panoga","lat":44.2476186,"lon":15.7507914,"elevationM":1064},{"id":"node:6068931279","kind":"peak","name":"Ošćenica","lat":44.2711943,"lon":15.6775914,"elevationM":1182},{"id":"node:6077222835","kind":"peak","name":"Alanac","lat":44.2717997,"lon":15.6393526,"elevationM":1071},{"id":"node:6077251379","kind":"peak","name":"Čovik","lat":44.2999112,"lon":15.5789895,"elevationM":1117},{"id":"node:6083147951","kind":"peak","name":"Muvača","lat":44.0048194,"lon":15.5002003,"elevationM":120},{"id":"node:6083175151","kind":"peak","name":"Komić","lat":44.3074454,"lon":15.5456767,"elevationM":1008},{"id":"node:6083175152","kind":"peak","name":"Oščenica","lat":44.2930877,"lon":15.5708938,"elevationM":1023},{"id":"node:6092544964","kind":"peak","name":"Velika Bobija","lat":44.2465453,"lon":15.6415116,"elevationM":584},{"id":"node:6092544965","kind":"peak","name":"Mala Bobija","lat":44.2412144,"lon":15.6594785,"elevationM":511},{"id":"node:6111240316","kind":"peak","name":"Tavan","lat":44.644588,"lon":15.9276116,"elevationM":981},{"id":"node:6160139937","kind":"peak","name":"Porobljenik","lat":44.3085999,"lon":15.5868488,"elevationM":1346},{"id":"node:6162316124","kind":"peak","name":"Sopanj","lat":44.2862949,"lon":15.5445428,"elevationM":789},{"id":"node:6252154698","kind":"peak","name":"Mikića vrh","lat":44.986441,"lon":15.0849581,"elevationM":732},{"id":"node:6253254738","kind":"peak","name":"Veliki Goljak","lat":44.9748008,"lon":15.0276058,"elevationM":833},{"id":"node:6304357792","kind":"peak","name":"Crkvina","lat":44.9140922,"lon":15.1454667,"elevationM":472},{"id":"node:6348530450","kind":"peak","name":"Babin kuk","lat":44.3514177,"lon":15.5078663,"elevationM":1431},{"id":"node:6547106061","kind":"peak","name":"Sijaset","lat":44.3293977,"lon":15.5608257,"elevationM":1556},{"id":"node:6547201902","kind":"peak","name":"Slatki vrh","lat":44.2472549,"lon":15.7634604,"elevationM":957},{"id":"node:6547201903","kind":"peak","name":"Bijeli Kuci","lat":44.2403568,"lon":15.7547593,"elevationM":975},{"id":"node:6723129533","kind":"peak","name":"Mali Kuk","lat":44.7477952,"lon":15.0050402,"elevationM":1565},{"id":"node:6723225674","kind":"peak","name":"Mali Kozjak","lat":44.7430405,"lon":15.0346329,"elevationM":1466},{"id":"node:6804859799","kind":"peak","name":"Krčmar","lat":44.570694,"lon":15.2931283,"elevationM":773},{"id":"node:6805171422","kind":"peak","name":"Risovac","lat":44.669869,"lon":15.3137123,"elevationM":860},{"id":"node:6805196190","kind":"peak","name":"Ostrovica","lat":44.6528715,"lon":15.2243137,"elevationM":845},{"id":"node:6831386876","kind":"peak","name":"Grabar","lat":44.0164143,"lon":15.4896526,"elevationM":94},{"id":"node:6831386877","kind":"peak","name":"Gradina","lat":44.0191273,"lon":15.4772394,"elevationM":118},{"id":"node:6906573043","kind":"peak","name":"Tulove grede","lat":44.263513,"lon":15.6556044,"elevationM":1120},{"id":"node:6978416865","kind":"peak","name":"Žilovača","lat":44.0359351,"lon":15.3886395,"elevationM":null},{"id":"node:6978416866","kind":"peak","name":"Čičikan","lat":44.038826,"lon":15.3855311,"elevationM":151},{"id":"node:6978416867","kind":"peak","name":"Glavica","lat":44.0409855,"lon":15.3835248,"elevationM":178},{"id":"node:6981812803","kind":"peak","name":"Metlača","lat":44.65718,"lon":15.306567,"elevationM":800},{"id":"node:6981814411","kind":"peak","name":"Markovac","lat":44.6637577,"lon":15.2946332,"elevationM":746},{"id":"node:6981814891","kind":"peak","name":"Sklopača","lat":44.6466292,"lon":15.3293101,"elevationM":777},{"id":"node:6982909912","kind":"peak","name":"Sorića vrh","lat":44.6210953,"lon":15.3984216,"elevationM":730},{"id":"node:6982909913","kind":"peak","name":"Antonovića vrh","lat":44.6273999,"lon":15.3849544,"elevationM":778},{"id":"node:6982918393","kind":"peak","name":"Kalvarija","lat":44.6497756,"lon":15.3709303,"elevationM":611},{"id":"node:6982936387","kind":"peak","name":"Gradina","lat":44.6078928,"lon":15.4037509,"elevationM":682},{"id":"node:6996897508","kind":"peak","name":"Torine","lat":44.0268022,"lon":15.3948887,"elevationM":141},{"id":"node:6996951742","kind":"peak","name":"Gradina","lat":44.0517962,"lon":15.5320611,"elevationM":194},{"id":"node:6997116869","kind":"peak","name":"Lisičja glava","lat":44.4663291,"lon":15.0569327,"elevationM":192},{"id":"node:6997116870","kind":"peak","name":"Ledenik","lat":44.46335,"lon":15.0618544,"elevationM":236},{"id":"node:6997116872","kind":"peak","name":"Ražaško","lat":44.4311406,"lon":15.0913287,"elevationM":208},{"id":"node:6997116873","kind":"peak","name":"Barbenjak","lat":44.3161072,"lon":15.037817,"elevationM":107},{"id":"node:6997116876","kind":"peak","name":"Korinjak","lat":44.0583537,"lon":15.0959197,"elevationM":168},{"id":"node:6997116877","kind":"peak","name":"Martinjac","lat":44.0453979,"lon":15.1049446,"elevationM":131},{"id":"node:6997116878","kind":"peak","name":"Kozjak","lat":44.0187246,"lon":15.1387833,"elevationM":110},{"id":"node:6997197474","kind":"peak","name":"Debeljak","lat":44.0453543,"lon":15.3765641,"elevationM":193},{"id":"node:6997564745","kind":"peak","name":"Crveni brig","lat":44.0120754,"lon":15.3817018,"elevationM":136},{"id":"node:6998256374","kind":"peak","name":"Bandira","lat":44.3017769,"lon":15.052517,"elevationM":112},{"id":"node:7000628276","kind":"peak","name":"Gradac","lat":44.4355255,"lon":15.0458706,"elevationM":197},{"id":"node:7000873447","kind":"peak","name":"Mali Sadikovac","lat":44.4968487,"lon":15.1927322,"elevationM":1168},{"id":"node:7000873448","kind":"peak","name":"Miljković vrh","lat":44.4817913,"lon":15.2209323,"elevationM":1352},{"id":"node:7000873449","kind":"peak","name":"Goli vrh","lat":44.4764323,"lon":15.2495584,"elevationM":1449},{"id":"node:7000873450","kind":"peak","name":"Veliki kuk","lat":44.3411153,"lon":15.4856393,"elevationM":772},{"id":"node:7000873451","kind":"peak","name":"Kuk od Rujice","lat":44.3372365,"lon":15.4932876,"elevationM":963},{"id":"node:7000873452","kind":"peak","name":"Borovnik","lat":44.328934,"lon":15.4935839,"elevationM":1024},{"id":"node:7000873454","kind":"peak","name":"Veliki mozak","lat":44.3514047,"lon":15.4699827,"elevationM":793},{"id":"node:7000873455","kind":"peak","name":"Mali mozak","lat":44.3537733,"lon":15.4654034,"elevationM":864},{"id":"node:7001028175","kind":"peak","name":"Mala Visočica","lat":44.4226553,"lon":15.4079491,"elevationM":1545},{"id":"node:7004127435","kind":"peak","name":"Trebačnik","lat":44.1750283,"lon":15.8712066,"elevationM":350},{"id":"node:7004127436","kind":"peak","name":"Grojito","lat":44.2028369,"lon":15.8044059,"elevationM":371},{"id":"node:7004127437","kind":"peak","name":"Veliki prosjek","lat":44.1115389,"lon":15.8317077,"elevationM":657},{"id":"node:7004127438","kind":"peak","name":"Mali prosjek","lat":44.1029876,"lon":15.8551273,"elevationM":592},{"id":"node:7004127441","kind":"peak","name":"Visibaba","lat":44.0700563,"lon":15.7624869,"elevationM":545},{"id":"node:7004127443","kind":"peak","name":"Straža","lat":44.1071382,"lon":15.7118916,"elevationM":643},{"id":"node:7004127445","kind":"peak","name":"Stražbenica","lat":44.1333436,"lon":15.6891628,"elevationM":628},{"id":"node:7004127446","kind":"peak","name":"V. Vranjinac","lat":44.303421,"lon":15.1606036,"elevationM":38},{"id":"node:7004195351","kind":"peak","name":"Teplice","lat":44.4988469,"lon":15.0422293,"elevationM":206},{"id":"node:7004195354","kind":"peak","name":"Kuk od Dubrave","lat":44.3012344,"lon":15.5154541,"elevationM":735},{"id":"node:7004197918","kind":"peak","name":"Komić","lat":44.3253669,"lon":15.4888191,"elevationM":838},{"id":"node:7004197919","kind":"peak","name":"Orlov kuk","lat":44.3312742,"lon":15.4839354,"elevationM":865},{"id":"node:7004197921","kind":"peak","name":"Badalj","lat":44.3349605,"lon":15.5375589,"elevationM":1238},{"id":"node:7004228627","kind":"peak","name":"Panos","lat":44.4918485,"lon":15.1632024,"elevationM":1064},{"id":"node:7004228631","kind":"peak","name":"Čelopek","lat":44.3822898,"lon":15.4066583,"elevationM":1415},{"id":"node:7004228632","kind":"peak","name":"Sarajevo","lat":44.3945055,"lon":15.3597029,"elevationM":1072},{"id":"node:7004228633","kind":"peak","name":"Korovilje","lat":44.3765924,"lon":15.4271893,"elevationM":1500},{"id":"node:7004228634","kind":"peak","name":"Rujinačka kosa","lat":44.3691555,"lon":15.4060187,"elevationM":937},{"id":"node:7004228635","kind":"peak","name":"Čunj","lat":44.3884061,"lon":15.4283287,"elevationM":1430},{"id":"node:7004228638","kind":"peak","name":"Počiteljski vrh","lat":44.4175321,"lon":15.4152824,"elevationM":1546},{"id":"node:7005855292","kind":"peak","name":"Panos","lat":44.3666998,"lon":15.1839559,"elevationM":116},{"id":"node:7005855293","kind":"peak","name":"Škaničko","lat":44.35575,"lon":15.2229279,"elevationM":109},{"id":"node:7005855294","kind":"peak","name":"Tusta","lat":44.3458839,"lon":15.2268117,"elevationM":112},{"id":"node:7005855297","kind":"peak","name":"Kraljeva ograda","lat":44.321128,"lon":15.2278487,"elevationM":71},{"id":"node:7005855298","kind":"peak","name":"Ogrc","lat":44.3273757,"lon":15.2222483,"elevationM":73},{"id":"node:7005855299","kind":"peak","name":"Konjska","lat":44.3205467,"lon":15.1764182,"elevationM":33},{"id":"node:7006250353","kind":"peak","name":"Veli Opaćac","lat":44.0451611,"lon":15.1150162,"elevationM":98},{"id":"node:7006250355","kind":"peak","name":"Čelinjak","lat":44.0486901,"lon":15.0936424,"elevationM":99},{"id":"node:7006250356","kind":"peak","name":"Zaglav","lat":44.0543817,"lon":15.0794131,"elevationM":57},{"id":"node:7006250357","kind":"peak","name":"V. Kurozeb","lat":44.293756,"lon":15.1780856,"elevationM":20},{"id":"node:7006250358","kind":"peak","name":"Škrline","lat":44.3175982,"lon":15.1397824,"elevationM":42},{"id":"node:7006250359","kind":"peak","name":"Bočina","lat":44.3226476,"lon":15.1308872,"elevationM":53},{"id":"node:7006250360","kind":"peak","name":"Stanić","lat":44.3272822,"lon":15.1235926,"elevationM":59},{"id":"node:7006516633","kind":"peak","name":"Obrva","lat":44.3008919,"lon":15.4947855,"elevationM":597},{"id":"node:7006516673","kind":"peak","name":"Malo bilo","lat":44.3234194,"lon":15.5950568,"elevationM":1435},{"id":"node:7006519236","kind":"peak","name":"Orlov kamen","lat":44.2656302,"lon":15.8255964,"elevationM":1214},{"id":"node:7006519237","kind":"peak","name":"Mali Bat","lat":44.2614575,"lon":15.8282586,"elevationM":1280},{"id":"node:7006519238","kind":"peak","name":"Veliki Bat","lat":44.2569295,"lon":15.8281354,"elevationM":1381},{"id":"node:7006519239","kind":"peak","name":"Mali Crnopac","lat":44.2560998,"lon":15.830477,"elevationM":1375},{"id":"node:7006519241","kind":"peak","name":"Presvrata","lat":44.2655959,"lon":15.8929556,"elevationM":974},{"id":"node:7006519243","kind":"peak","name":"Paleščići","lat":44.2770855,"lon":15.8621195,"elevationM":794},{"id":"node:7006519244","kind":"peak","name":"Malinjak","lat":44.2782927,"lon":15.841875,"elevationM":1031},{"id":"node:7007812379","kind":"peak","name":"Načun","lat":44.48056,"lon":15.0675713,"elevationM":90},{"id":"node:7007812381","kind":"peak","name":"Vela glavica","lat":44.4905731,"lon":15.0552681,"elevationM":117},{"id":"node:7007812383","kind":"peak","name":"Široka glavica","lat":44.4981609,"lon":15.0597372,"elevationM":63},{"id":"node:7008062476","kind":"peak","name":"Kruna","lat":44.5142457,"lon":15.0124229,"elevationM":173},{"id":"node:7008478726","kind":"peak","name":"Vidakov kuk","lat":44.3224104,"lon":15.4658213,"elevationM":864},{"id":"node:7008478778","kind":"peak","name":"Visoka glava","lat":44.3111582,"lon":15.4699309,"elevationM":717},{"id":"node:7008478779","kind":"peak","name":"Oštra glava","lat":44.3116189,"lon":15.4649795,"elevationM":640},{"id":"node:7008567694","kind":"peak","name":"Glava od krastača","lat":44.2885986,"lon":15.5473089,"elevationM":788},{"id":"node:7009348387","kind":"peak","name":"Čunjenica","lat":44.3397975,"lon":15.3678933,"elevationM":275},{"id":"node:7009348388","kind":"peak","name":"Široka glava","lat":44.3371655,"lon":15.372171,"elevationM":271},{"id":"node:7010638336","kind":"peak","name":"Bat","lat":44.3065861,"lon":15.492796,"elevationM":694},{"id":"node:7010638337","kind":"peak","name":"Glava od Jasenara","lat":44.3058189,"lon":15.5028075,"elevationM":776},{"id":"node:7010638340","kind":"peak","name":"Pleće","lat":44.2875754,"lon":15.5300622,"elevationM":707},{"id":"node:7011169109","kind":"peak","name":"Zeleni vrh","lat":44.3497788,"lon":15.5572344,"elevationM":1423},{"id":"node:7011179865","kind":"peak","name":"Tadina glavica","lat":44.3686631,"lon":15.4619311,"elevationM":1494},{"id":"node:7011658013","kind":"peak","name":"Debelo brdo","lat":44.3723517,"lon":15.4488584,"elevationM":1597},{"id":"node:7025862500","kind":"peak","name":"Šikića glavica","lat":44.3459099,"lon":15.4358554,"elevationM":887},{"id":"node:7025862512","kind":"peak","name":"Razvršje","lat":44.3480981,"lon":15.4272839,"elevationM":977},{"id":"node:7025885783","kind":"peak","name":"Katića glavica","lat":44.3555869,"lon":15.4081456,"elevationM":965},{"id":"node:7025907085","kind":"peak","name":"Zvirjak","lat":44.3629809,"lon":15.3941552,"elevationM":968},{"id":"node:7053919034","kind":"peak","name":"Mali Vlaškograd","lat":44.3202023,"lon":15.5572728,"elevationM":1174},{"id":"node:7053941427","kind":"peak","name":"Čavinka","lat":44.3108671,"lon":15.5572314,"elevationM":955},{"id":"node:7053941431","kind":"peak","name":"Gradina","lat":44.2995587,"lon":15.549206,"elevationM":833},{"id":"node:7053941432","kind":"peak","name":"Glavica Antičevića","lat":44.3018776,"lon":15.5506437,"elevationM":null},{"id":"node:7053941433","kind":"peak","name":"Runjavica","lat":44.2996342,"lon":15.5332071,"elevationM":714},{"id":"node:7053941434","kind":"peak","name":"Trnovača","lat":44.295864,"lon":15.5319556,"elevationM":708},{"id":"node:7053941435","kind":"peak","name":"Velika oštra glavica","lat":44.2934841,"lon":15.5373167,"elevationM":775},{"id":"node:7053941525","kind":"peak","name":"Jablanuša","lat":44.3296647,"lon":15.5274337,"elevationM":1000},{"id":"node:7068953501","kind":"peak","name":"Strženjak","lat":44.0433574,"lon":15.2250026,"elevationM":109},{"id":"node:7068953502","kind":"peak","name":"Straža","lat":44.0466016,"lon":15.2290295,"elevationM":152},{"id":"node:7068953507","kind":"peak","name":"Zdahova","lat":44.0115646,"lon":15.2633386,"elevationM":57},{"id":"node:7068953508","kind":"peak","name":"Zmorašnji Zaglav","lat":44.0184572,"lon":15.2661692,"elevationM":45},{"id":"node:7069810513","kind":"peak","name":"Borina glavica","lat":44.3748664,"lon":15.374893,"elevationM":825},{"id":"node:7069810514","kind":"peak","name":"Jovinov kuk","lat":44.3746037,"lon":15.3538096,"elevationM":954},{"id":"node:7069810515","kind":"peak","name":"Zamršten kuk","lat":44.3736577,"lon":15.3613342,"elevationM":875},{"id":"node:7069810517","kind":"peak","name":"Prodanova glavica","lat":44.364705,"lon":15.3423719,"elevationM":693},{"id":"node:7069810518","kind":"peak","name":"Visoka glavica","lat":44.3721867,"lon":15.3314493,"elevationM":637},{"id":"node:7069810520","kind":"peak","name":"Kojića glavica","lat":44.3318508,"lon":15.4481898,"elevationM":738},{"id":"node:7069810523","kind":"peak","name":"Njivarska glavica","lat":44.3361601,"lon":15.4621271,"elevationM":909},{"id":"node:7069810524","kind":"peak","name":"Klekovac","lat":44.3380939,"lon":15.4551099,"elevationM":928},{"id":"node:7069946511","kind":"peak","name":"Pariževačka glavica","lat":44.223692,"lon":15.6153435,"elevationM":151},{"id":"node:7071730779","kind":"peak","name":"Čiker od Srbljina","lat":44.3486623,"lon":15.2154208,"elevationM":97},{"id":"node:7071730898","kind":"peak","name":"Vršina","lat":44.0050885,"lon":15.2869844,"elevationM":69},{"id":"node:7071730899","kind":"peak","name":"Šilo","lat":44.000674,"lon":15.2889173,"elevationM":71},{"id":"node:7071730903","kind":"peak","name":"Kamenjak","lat":44.0079351,"lon":15.2641841,"elevationM":94},{"id":"node:7071963053","kind":"peak","name":"Sv. Juraj","lat":44.4560186,"lon":15.0623741,"elevationM":205},{"id":"node:7072024834","kind":"peak","name":"Zaglav","lat":44.3929453,"lon":15.0468516,"elevationM":63},{"id":"node:7079365567","kind":"peak","name":"Brdašce","lat":44.3905758,"lon":15.416347,"elevationM":1399},{"id":"node:7079365568","kind":"peak","name":"Vršine","lat":44.3935015,"lon":15.4032768,"elevationM":1486},{"id":"node:7079365872","kind":"peak","name":"Turnić","lat":44.3870602,"lon":15.1195623,"elevationM":51},{"id":"node:7079366147","kind":"peak","name":"Standerac","lat":44.2845646,"lon":15.1988227,"elevationM":36},{"id":"node:7079366148","kind":"peak","name":"V. Vlaka","lat":44.2739378,"lon":15.2138186,"elevationM":41},{"id":"node:7079366149","kind":"peak","name":"V. Čunj","lat":44.2388775,"lon":15.3142774,"elevationM":95},{"id":"node:7079400137","kind":"peak","name":"Runjeva glavica","lat":44.4317562,"lon":15.2559234,"elevationM":916},{"id":"node:7079400138","kind":"peak","name":"Buljma","lat":44.3860319,"lon":15.3978848,"elevationM":1418},{"id":"node:7079400140","kind":"peak","name":"Javorje","lat":44.38782,"lon":15.3571321,"elevationM":851},{"id":"node:7079400141","kind":"peak","name":"Vlaka","lat":44.3887729,"lon":15.3499606,"elevationM":972},{"id":"node:7079400142","kind":"peak","name":"Široki kuk","lat":44.3891644,"lon":15.332412,"elevationM":966},{"id":"node:7079400143","kind":"peak","name":"Baričin kuk","lat":44.3848005,"lon":15.3377772,"elevationM":887},{"id":"node:7079400146","kind":"peak","name":"Strmoglavica","lat":44.3806243,"lon":15.3140794,"elevationM":435},{"id":"node:7085716312","kind":"peak","name":"Bačić vrh","lat":44.6153923,"lon":15.0538313,"elevationM":1358},{"id":"node:7085716313","kind":"peak","name":"Merliov vrh","lat":44.6027277,"lon":15.061496,"elevationM":1228},{"id":"node:7085716339","kind":"peak","name":"Ravni vrh","lat":44.5952717,"lon":15.0629766,"elevationM":1221},{"id":"node:7085716340","kind":"peak","name":"Stinov vrh","lat":44.5913447,"lon":15.0638349,"elevationM":null},{"id":"node:7085716341","kind":"peak","name":"Velika glavica","lat":44.5869633,"lon":15.0477852,"elevationM":1066},{"id":"node:7085716342","kind":"peak","name":"Kukovac","lat":44.5940011,"lon":15.0352743,"elevationM":1020},{"id":"node:7089532194","kind":"peak","name":"Vrh punta","lat":44.2132476,"lon":15.6443237,"elevationM":135},{"id":"node:7089532195","kind":"peak","name":"Zevelinački punat","lat":44.2189255,"lon":15.6227597,"elevationM":141},{"id":"node:7089532225","kind":"peak","name":"Bojnik","lat":44.2079642,"lon":15.5941601,"elevationM":201},{"id":"node:7116166397","kind":"peak","name":"Mali vrh","lat":44.8489391,"lon":15.0077109,"elevationM":1076},{"id":"node:7116166400","kind":"peak","name":"Kapljuv","lat":44.8166122,"lon":15.0023617,"elevationM":1570},{"id":"node:7116166402","kind":"peak","name":"Pljišivica","lat":44.8045756,"lon":15.0313586,"elevationM":1560},{"id":"node:7116166403","kind":"peak","name":"Krecelj","lat":44.8021174,"lon":15.0448375,"elevationM":1518},{"id":"node:7116166444","kind":"peak","name":"Ložnica","lat":44.7891578,"lon":15.0398745,"elevationM":1486},{"id":"node:7116166445","kind":"peak","name":"Kitavac","lat":44.7814182,"lon":15.0387379,"elevationM":1559},{"id":"node:7116408985","kind":"peak","name":"Pločati kuk","lat":44.2534556,"lon":15.8437294,"elevationM":1254},{"id":"node:7116408986","kind":"peak","name":"Vidovića glavica","lat":44.2433457,"lon":15.872341,"elevationM":764},{"id":"node:7116408988","kind":"peak","name":"Modrin vrh","lat":44.2541347,"lon":15.8748652,"elevationM":836},{"id":"node:7116408989","kind":"peak","name":"Dorin vrh","lat":44.2613995,"lon":15.8815664,"elevationM":872},{"id":"node:7116408992","kind":"peak","name":"Janjčak","lat":44.2668264,"lon":15.8808996,"elevationM":939},{"id":"node:7116408993","kind":"peak","name":"Durđev vrh","lat":44.2553932,"lon":15.9068231,"elevationM":948},{"id":"node:7116408994","kind":"peak","name":"Pilar","lat":44.2653031,"lon":15.8721787,"elevationM":981},{"id":"node:7116408995","kind":"peak","name":"Perlinski vrh","lat":44.268318,"lon":15.8747487,"elevationM":963},{"id":"node:7116409008","kind":"peak","name":"Vršić","lat":44.2531592,"lon":15.8044075,"elevationM":875},{"id":"node:7116409009","kind":"peak","name":"Obli kuk","lat":44.2452128,"lon":15.8044719,"elevationM":864},{"id":"node:7116409010","kind":"peak","name":"Popova kapa","lat":44.2434911,"lon":15.8167242,"elevationM":765},{"id":"node:7116409011","kind":"peak","name":"Korito","lat":44.2474569,"lon":15.8230542,"elevationM":987},{"id":"node:7116409012","kind":"peak","name":"Kavrga","lat":44.2466423,"lon":15.8278393,"elevationM":1100},{"id":"node:7116409013","kind":"peak","name":"Duman","lat":44.2430761,"lon":15.8325814,"elevationM":1027},{"id":"node:7117006475","kind":"peak","name":"Klekovac","lat":44.2399293,"lon":15.8087769,"elevationM":898},{"id":"node:7117006476","kind":"peak","name":"Lipovac","lat":44.2373731,"lon":15.7964107,"elevationM":909},{"id":"node:7117006477","kind":"peak","name":"Samogred","lat":44.2397151,"lon":15.792133,"elevationM":953},{"id":"node:7117006480","kind":"peak","name":"Mila","lat":44.2359208,"lon":15.7845693,"elevationM":860},{"id":"node:7117006481","kind":"peak","name":"Kuk Ćukulin","lat":44.2371589,"lon":15.7700346,"elevationM":887},{"id":"node:7117006482","kind":"peak","name":"Lakin vrh","lat":44.2335453,"lon":15.7500096,"elevationM":857},{"id":"node:7117006483","kind":"peak","name":"Veliki vrh","lat":44.2292109,"lon":15.7490519,"elevationM":701},{"id":"node:7117006486","kind":"peak","name":"Tabakovac","lat":44.2301728,"lon":15.7193502,"elevationM":381},{"id":"node:7117006487","kind":"peak","name":"Porat","lat":44.2373187,"lon":15.7142725,"elevationM":463},{"id":"node:7117006488","kind":"peak","name":"Zagoni","lat":44.242478,"lon":15.7158937,"elevationM":644},{"id":"node:7117006502","kind":"peak","name":"Veliki vrh","lat":44.2454185,"lon":15.6912707,"elevationM":721},{"id":"node:7117006520","kind":"peak","name":"Čabrinka","lat":44.243723,"lon":15.6841147,"elevationM":666},{"id":"node:7117006525","kind":"peak","name":"Šarinka","lat":44.2490665,"lon":15.7141366,"elevationM":742},{"id":"node:7117006640","kind":"peak","name":"Golić","lat":44.263875,"lon":15.6720645,"elevationM":1064},{"id":"node:7117006641","kind":"peak","name":"Visibaba","lat":44.2642965,"lon":15.7002393,"elevationM":976},{"id":"node:7117006642","kind":"peak","name":"Strašilovac","lat":44.2677231,"lon":15.6904975,"elevationM":1004},{"id":"node:7117006644","kind":"peak","name":"Kita","lat":44.2432974,"lon":15.6016358,"elevationM":262},{"id":"node:7117006645","kind":"peak","name":"Puča","lat":44.2451338,"lon":15.5927123,"elevationM":242},{"id":"node:7117006646","kind":"peak","name":"Stražbenica","lat":44.2490066,"lon":15.5810244,"elevationM":237},{"id":"node:7117006649","kind":"peak","name":"Dragačevac","lat":44.2364233,"lon":15.551318,"elevationM":199},{"id":"node:7117006650","kind":"peak","name":"Gromila","lat":44.2619051,"lon":15.5448941,"elevationM":141},{"id":"node:7117006651","kind":"peak","name":"Dokozin umac","lat":44.2612876,"lon":15.5748705,"elevationM":415},{"id":"node:7117006652","kind":"peak","name":"Svinjska glavica","lat":44.2612065,"lon":15.5857712,"elevationM":465},{"id":"node:7117006653","kind":"peak","name":"Lipov vrh","lat":44.2722412,"lon":15.6063426,"elevationM":1004},{"id":"node:7204560800","kind":"peak","name":"Orjak","lat":44.0594108,"lon":15.197531,"elevationM":136},{"id":"node:7216218009","kind":"peak","name":"Čardačina","lat":44.1277919,"lon":15.6914041,"elevationM":651},{"id":"node:7216218010","kind":"peak","name":"Šušina glavica","lat":44.1261249,"lon":15.6704465,"elevationM":517},{"id":"node:7296257156","kind":"peak","name":"Hunjci","lat":44.4503655,"lon":15.0583955,"elevationM":80},{"id":"node:7464557864","kind":"peak","name":"Otrovni vrh","lat":44.4800378,"lon":15.2393214,"elevationM":1411},{"id":"node:7469378111","kind":"peak","name":"Plančica","lat":44.4913901,"lon":15.218646,"elevationM":1217},{"id":"node:7469383687","kind":"peak","name":"Paljež","lat":44.4899657,"lon":15.2536304,"elevationM":1065},{"id":"node:7469383688","kind":"peak","name":"Čardatišće","lat":44.4832137,"lon":15.2729658,"elevationM":922},{"id":"node:7469383689","kind":"peak","name":"Siljevača","lat":44.4671349,"lon":15.2881952,"elevationM":1449},{"id":"node:7469383690","kind":"peak","name":"Davidov vrh","lat":44.4497128,"lon":15.2660366,"elevationM":1364},{"id":"node:7469383692","kind":"peak","name":"Vrši","lat":44.4455462,"lon":15.2864214,"elevationM":1255},{"id":"node:7469383693","kind":"peak","name":"Golovrh","lat":44.4460977,"lon":15.3230282,"elevationM":1368},{"id":"node:7473093500","kind":"peak","name":"Vršak","lat":44.6728898,"lon":15.0701767,"elevationM":1136},{"id":"node:7473093505","kind":"peak","name":"Debeli vrh","lat":44.6461115,"lon":15.0821669,"elevationM":1347},{"id":"node:7473093506","kind":"peak","name":"Debelo brdo","lat":44.6418394,"lon":15.0598089,"elevationM":1416},{"id":"node:7637126395","kind":"peak","name":"Vrče brdo","lat":44.8833941,"lon":15.2438629,"elevationM":502},{"id":"node:7637126396","kind":"peak","name":"Rudinak","lat":44.8971442,"lon":15.1492345,"elevationM":588},{"id":"node:7637126398","kind":"peak","name":"Velika Punta","lat":44.9091662,"lon":15.1276481,"elevationM":590},{"id":"node:7637126401","kind":"peak","name":"Petešjak","lat":44.9664072,"lon":15.2213001,"elevationM":900},{"id":"node:7637126402","kind":"peak","name":"Progledalo","lat":44.9648435,"lon":15.2350974,"elevationM":908},{"id":"node:7637126403","kind":"peak","name":"Gradina","lat":44.9683011,"lon":15.2507186,"elevationM":792},{"id":"node:7637126404","kind":"peak","name":"Stinovac","lat":44.9797201,"lon":15.2642155,"elevationM":940},{"id":"node:7637126405","kind":"peak","name":"Kita","lat":44.9921801,"lon":15.2693546,"elevationM":1029},{"id":"node:7637126406","kind":"peak","name":"Osmagino brdo","lat":44.9543896,"lon":15.3672016,"elevationM":752},{"id":"node:7637126407","kind":"peak","name":"Danguba","lat":44.9628774,"lon":15.3565693,"elevationM":834},{"id":"node:7637126408","kind":"peak","name":"Konjska glava","lat":44.9732766,"lon":15.3556466,"elevationM":967},{"id":"node:7637126409","kind":"peak","name":"Dubrava","lat":44.9744378,"lon":15.3352833,"elevationM":853},{"id":"node:7637126410","kind":"peak","name":"Rastik","lat":44.9797277,"lon":15.3040409,"elevationM":813},{"id":"node:7637126411","kind":"peak","name":"Čelina","lat":44.9778835,"lon":15.2838921,"elevationM":910},{"id":"node:7637126412","kind":"peak","name":"Veliki vrh","lat":44.968229,"lon":15.2848148,"elevationM":935},{"id":"node:7637126413","kind":"peak","name":"Pištenjak","lat":44.9318279,"lon":15.2540231,"elevationM":800},{"id":"node:7637126414","kind":"peak","name":"Oždrelo","lat":44.9302405,"lon":15.2699125,"elevationM":795},{"id":"node:7637126415","kind":"peak","name":"Crni vrh","lat":44.9413367,"lon":15.2855444,"elevationM":934},{"id":"node:7637126416","kind":"peak","name":"Torenički vrh","lat":44.9867624,"lon":15.281918,"elevationM":1001},{"id":"node:7637126417","kind":"peak","name":"Jožić vrh","lat":44.978521,"lon":15.315789,"elevationM":816},{"id":"node:7637126421","kind":"peak","name":"Vučkova glavica","lat":44.954196,"lon":15.334425,"elevationM":741},{"id":"node:7637126422","kind":"peak","name":"Lipov vrščić","lat":44.9290707,"lon":15.3095984,"elevationM":858},{"id":"node:7637126423","kind":"peak","name":"Veliki vrh","lat":44.9277187,"lon":15.3269148,"elevationM":900},{"id":"node:7637126424","kind":"peak","name":"Jasen","lat":44.9336736,"lon":15.3239214,"elevationM":817},{"id":"node:7647108374","kind":"peak","name":"Lipova glava","lat":44.6583834,"lon":15.4306512,"elevationM":670},{"id":"node:7647515850","kind":"peak","name":"Nadinska Gradina","lat":44.0723506,"lon":15.5093012,"elevationM":265},{"id":"node:7647515851","kind":"peak","name":"Vijenac","lat":44.068822,"lon":15.5158385,"elevationM":236},{"id":"node:7647517393","kind":"peak","name":"Križova glavica","lat":44.0749164,"lon":15.5067113,"elevationM":237},{"id":"node:7647517394","kind":"peak","name":"Orlovača","lat":44.1074002,"lon":15.4420153,"elevationM":150},{"id":"node:7647517395","kind":"peak","name":"Čaušovica","lat":44.0595905,"lon":15.5238863,"elevationM":184},{"id":"node:7647517396","kind":"peak","name":"Štrkovača","lat":44.0150276,"lon":15.521776,"elevationM":157},{"id":"node:7723614496","kind":"peak","name":"Mala Kosić","lat":44.8313287,"lon":15.9492176,"elevationM":465},{"id":"node:7723614497","kind":"peak","name":"Ribićka Glavica","lat":44.8108236,"lon":15.9133654,"elevationM":354},{"id":"node:7723614500","kind":"peak","name":"Trovrh","lat":44.818425,"lon":15.9634722,"elevationM":476},{"id":"node:7724324990","kind":"peak","name":"Stogaj","lat":44.499549,"lon":15.0338057,"elevationM":null},{"id":"node:7736761155","kind":"peak","name":"Crni vrh","lat":44.2440179,"lon":15.7049333,"elevationM":696},{"id":"node:7736897631","kind":"peak","name":"Lipovača","lat":44.2503827,"lon":15.6820065,"elevationM":868},{"id":"node:7764089311","kind":"peak","name":"Glavice","lat":44.8185163,"lon":15.8429016,"elevationM":251},{"id":"node:7764089313","kind":"peak","name":"Garavica","lat":44.8284928,"lon":15.8313899,"elevationM":228},{"id":"node:7779506088","kind":"peak","name":"Velika gradina","lat":44.0282366,"lon":15.5604316,"elevationM":168},{"id":"node:7787706181","kind":"peak","name":"Gradina","lat":44.2022615,"lon":15.8364494,"elevationM":436},{"id":"node:7787706182","kind":"peak","name":"Krnješka glavica","lat":44.2035836,"lon":15.8535307,"elevationM":408},{"id":"node:7787706183","kind":"peak","name":"Babin grad","lat":44.189618,"lon":15.8200257,"elevationM":149},{"id":"node:7806458639","kind":"peak","name":"Gazin kuk","lat":44.193457,"lon":15.7892632,"elevationM":72},{"id":"node:7827759794","kind":"peak","name":"Kosa","lat":44.0487402,"lon":15.4359231,"elevationM":92},{"id":"node:7827759795","kind":"peak","name":"Kapela","lat":44.0313508,"lon":15.4686465,"elevationM":109},{"id":"node:7852479727","kind":"peak","name":"Kamenica","lat":44.6522101,"lon":15.6082732,"elevationM":968},{"id":"node:7912710895","kind":"peak","name":"Crni vrh","lat":44.2960957,"lon":15.7558801,"elevationM":934},{"id":"node:7912710896","kind":"peak","name":"Bijela greda","lat":44.2905691,"lon":15.7708529,"elevationM":854},{"id":"node:7912710897","kind":"peak","name":"Zavikar","lat":44.286854,"lon":15.7774042,"elevationM":905},{"id":"node:7912710921","kind":"peak","name":"Glavica-Samarđijina","lat":44.3345805,"lon":15.8268853,"elevationM":691},{"id":"node:7912710940","kind":"peak","name":"Glavica Pištića","lat":44.3560877,"lon":15.8313279,"elevationM":655},{"id":"node:7917256405","kind":"peak","name":"Veliki Gašparac","lat":44.817335,"lon":15.287879,"elevationM":764},{"id":"node:7917256406","kind":"peak","name":"Veliki Hržić","lat":44.8106235,"lon":15.2786522,"elevationM":923},{"id":"node:7920998681","kind":"peak","name":"Prozorina","lat":44.8448372,"lon":15.2623384,"elevationM":645},{"id":"node:7920998682","kind":"peak","name":"Vital","lat":44.8428678,"lon":15.2788152,"elevationM":556},{"id":"node:7920998683","kind":"peak","name":"Špilnička glavica","lat":44.8515947,"lon":15.2727096,"elevationM":541},{"id":"node:7920998684","kind":"peak","name":"Tisov vrh","lat":44.7988607,"lon":15.2746149,"elevationM":867},{"id":"node:7931868916","kind":"peak","name":"Vučijak","lat":44.6815144,"lon":15.700868,"elevationM":896},{"id":"node:7989309857","kind":"peak","name":"Smiljevac","lat":44.0162154,"lon":15.5339035,"elevationM":163},{"id":"node:8000997019","kind":"peak","name":"Crni vrh","lat":44.4317413,"lon":15.3890097,"elevationM":1269},{"id":"node:8000997020","kind":"peak","name":"Budin vrh","lat":44.4369026,"lon":15.3894722,"elevationM":1119},{"id":"node:8059904173","kind":"peak","name":"Vršak Dujin","lat":44.4294972,"lon":15.7093012,"elevationM":815},{"id":"node:8059947214","kind":"peak","name":"Gostuša","lat":44.4442592,"lon":15.684185,"elevationM":931},{"id":"node:8075849093","kind":"peak","name":"Veliko brdašce","lat":44.5358351,"lon":15.1793008,"elevationM":1219},{"id":"node:8075849094","kind":"peak","name":"Malo brdašce","lat":44.5349955,"lon":15.1753388,"elevationM":1205},{"id":"node:8075849095","kind":"peak","name":"Vranjkin Vršak","lat":44.5278649,"lon":15.1927474,"elevationM":1003},{"id":"node:8075849096","kind":"peak","name":"Kuk Vranjković","lat":44.560458,"lon":15.1290797,"elevationM":940},{"id":"node:8075893330","kind":"peak","name":"Kuk od Karline plane","lat":44.5396709,"lon":15.1844973,"elevationM":1336},{"id":"node:8075893331","kind":"peak","name":"Božin kuk","lat":44.5383155,"lon":15.1842071,"elevationM":1303},{"id":"node:8104079330","kind":"peak","name":"Čubrijan","lat":44.1361741,"lon":15.2615352,"elevationM":110},{"id":"node:8104079331","kind":"peak","name":"Travičina glava","lat":44.1024443,"lon":15.3075827,"elevationM":106},{"id":"node:8104079332","kind":"peak","name":"Sv. Juraj","lat":44.1692023,"lon":15.3164531,"elevationM":86},{"id":"node:8107688648","kind":"peak","name":"Golovro","lat":44.2550174,"lon":15.7331337,"elevationM":976},{"id":"node:8107688675","kind":"peak","name":"Milsko bilo","lat":44.2744244,"lon":15.7013975,"elevationM":1030},{"id":"node:8107688678","kind":"peak","name":"Plana","lat":44.2842797,"lon":15.6713458,"elevationM":1119},{"id":"node:8108696701","kind":"peak","name":"Stružnica","lat":44.2781132,"lon":15.6704465,"elevationM":1117},{"id":"node:8120466739","kind":"peak","name":"Šiljci","lat":44.2418794,"lon":15.7634897,"elevationM":947},{"id":"node:8124501084","kind":"peak","name":"Stanesa","lat":44.2673069,"lon":15.3164427,"elevationM":95},{"id":"node:8124501085","kind":"peak","name":"Velika peć","lat":44.2534641,"lon":15.3470655,"elevationM":139},{"id":"node:8124501086","kind":"peak","name":"Pekotin brig","lat":44.2441117,"lon":15.3574337,"elevationM":164},{"id":"node:8124501087","kind":"peak","name":"Debelo brdo","lat":44.2387614,"lon":15.3723135,"elevationM":166},{"id":"node:8124501088","kind":"peak","name":"Gradina","lat":44.2324727,"lon":15.3782876,"elevationM":165},{"id":"node:8124501089","kind":"peak","name":"Visočica","lat":44.2273095,"lon":15.3949931,"elevationM":143},{"id":"node:8124501090","kind":"peak","name":"Vranjkovac","lat":44.2113312,"lon":15.4133853,"elevationM":111},{"id":"node:8124501091","kind":"peak","name":"Slašnica","lat":44.2080264,"lon":15.4179847,"elevationM":112},{"id":"node:8145605002","kind":"peak","name":"Velika Duliba","lat":44.2510737,"lon":15.7578359,"elevationM":871},{"id":"node:8145605005","kind":"peak","name":"Razvržje","lat":44.243136,"lon":15.6740159,"elevationM":610},{"id":"node:8145605014","kind":"peak","name":"Redaš","lat":44.2785104,"lon":15.6496988,"elevationM":1002},{"id":"node:8145605015","kind":"peak","name":"Ruja","lat":44.2851457,"lon":15.6364364,"elevationM":1139},{"id":"node:8174540316","kind":"peak","name":"Tulo Maričića","lat":44.257871,"lon":15.6721214,"elevationM":950},{"id":"node:8174544553","kind":"peak","name":"Kuci Marunića","lat":44.2664836,"lon":15.6378257,"elevationM":1060},{"id":"node:8186954345","kind":"peak","name":"V. hlad","lat":44.3550353,"lon":15.1453252,"elevationM":15},{"id":"node:8196710226","kind":"peak","name":"Mala Panoga","lat":44.2486801,"lon":15.7461755,"elevationM":1059},{"id":"node:8201551457","kind":"peak","name":"Vilenski vrh","lat":44.2471844,"lon":15.7435958,"elevationM":988},{"id":"node:8218954345","kind":"peak","name":"Kosirica","lat":44.3467491,"lon":15.4740128,"elevationM":697},{"id":"node:8235964869","kind":"peak","name":"Burnjača","lat":44.1087244,"lon":15.1386513,"elevationM":143},{"id":"node:8235964870","kind":"peak","name":"Kuranj","lat":44.115041,"lon":15.126914,"elevationM":150},{"id":"node:8236031752","kind":"peak","name":"Vela glava","lat":44.1579602,"lon":15.00394,"elevationM":89},{"id":"node:8236172303","kind":"peak","name":"Veli vrh","lat":44.0013362,"lon":15.0487168,"elevationM":328},{"id":"node:8236192629","kind":"peak","name":"Zaglav","lat":44.0814785,"lon":15.0057318,"elevationM":109},{"id":"node:8236197715","kind":"peak","name":"Ripnjak","lat":44.0523122,"lon":15.0078913,"elevationM":209},{"id":"node:8259385464","kind":"peak","name":"Pleća Šipnatice","lat":44.02433,"lon":15.0294676,"elevationM":165},{"id":"node:8259385465","kind":"peak","name":"Padrare","lat":44.027813,"lon":15.0260022,"elevationM":151},{"id":"node:8259385466","kind":"peak","name":"Škrline","lat":44.042252,"lon":15.0151768,"elevationM":194},{"id":"node:8264947889","kind":"peak","name":"Veliko sljeme","lat":44.0490286,"lon":15.9774891,"elevationM":320},{"id":"node:8264985518","kind":"peak","name":"Kočo","lat":44.1217824,"lon":15.9710625,"elevationM":493},{"id":"node:8264986086","kind":"peak","name":"Crni vrh","lat":44.2110444,"lon":15.977827,"elevationM":1087},{"id":"node:8264995796","kind":"peak","name":"Sedlo","lat":44.1937389,"lon":15.9681496,"elevationM":1058},{"id":"node:8265393193","kind":"peak","name":"Jurišinka","lat":44.1181875,"lon":15.6997154,"elevationM":674},{"id":"node:8265396031","kind":"peak","name":"Careva glavica","lat":44.1209217,"lon":15.6765841,"elevationM":518},{"id":"node:8265396033","kind":"peak","name":"Golić","lat":44.1131731,"lon":15.6894801,"elevationM":565},{"id":"node:8265396164","kind":"peak","name":"Čolino brdo","lat":44.1094659,"lon":15.5592683,"elevationM":334},{"id":"node:8265399245","kind":"peak","name":"Marina kosa","lat":44.1473027,"lon":15.6735585,"elevationM":566},{"id":"node:8265407928","kind":"peak","name":"Vrtlina","lat":44.1151662,"lon":15.5455032,"elevationM":295},{"id":"node:8265407929","kind":"peak","name":"Pijevčovo brdo","lat":44.118016,"lon":15.5431536,"elevationM":299},{"id":"node:8265414282","kind":"peak","name":"Kosmač","lat":44.1685851,"lon":15.6947641,"elevationM":447},{"id":"node:8265414395","kind":"peak","name":"Vršina","lat":44.0955346,"lon":15.6847755,"elevationM":449},{"id":"node:8265420109","kind":"peak","name":"Splitvina","lat":44.1584336,"lon":15.6515322,"elevationM":530},{"id":"node:8265420110","kind":"peak","name":"Vršina","lat":44.159465,"lon":15.661789,"elevationM":566},{"id":"node:8265423126","kind":"peak","name":"Kum","lat":44.0853512,"lon":15.6927685,"elevationM":416},{"id":"node:8265433340","kind":"peak","name":"Bajnovača","lat":44.1361773,"lon":15.7162432,"elevationM":554},{"id":"node:8265433341","kind":"peak","name":"Zelengrad","lat":44.1382716,"lon":15.7240753,"elevationM":553},{"id":"node:8265433342","kind":"peak","name":"Debela kosa","lat":44.1422137,"lon":15.7420139,"elevationM":495},{"id":"node:8265433343","kind":"peak","name":"Gradina","lat":44.1314031,"lon":15.7346754,"elevationM":518},{"id":"node:8265439417","kind":"peak","name":"Greda Ivaniševa","lat":44.1025343,"lon":15.6979881,"elevationM":542},{"id":"node:8265442273","kind":"peak","name":"Krunjača","lat":44.1686929,"lon":15.6668047,"elevationM":411},{"id":"node:8265442689","kind":"peak","name":"Mikulčanka","lat":44.1480186,"lon":15.6971673,"elevationM":544},{"id":"node:8265442690","kind":"peak","name":"Rušina glavica","lat":44.14982,"lon":15.7066087,"elevationM":514},{"id":"node:8265442691","kind":"peak","name":"Mali Greljevci","lat":44.1445234,"lon":15.7093553,"elevationM":515},{"id":"node:8265442692","kind":"peak","name":"Crni vrh","lat":44.14149,"lon":15.7049565,"elevationM":553},{"id":"node:8265442693","kind":"peak","name":"Greljevac","lat":44.1428143,"lon":15.7161788,"elevationM":530},{"id":"node:8265442694","kind":"peak","name":"Jasenovača","lat":44.1589185,"lon":15.7136468,"elevationM":417},{"id":"node:8265454792","kind":"peak","name":"Piljina kosa","lat":44.0312611,"lon":15.822802,"elevationM":375},{"id":"node:8265460437","kind":"peak","name":"Rašeljka","lat":44.1215764,"lon":15.7169299,"elevationM":572},{"id":"node:8265460438","kind":"peak","name":"Dragaševa glavica","lat":44.0938278,"lon":15.7125954,"elevationM":547},{"id":"node:8265462157","kind":"peak","name":"Kunovac","lat":44.0837328,"lon":15.7420514,"elevationM":641},{"id":"node:8265469326","kind":"peak","name":"Urljaj","lat":44.1221309,"lon":15.8086775,"elevationM":563},{"id":"node:8265470929","kind":"peak","name":"Štandarac","lat":44.0550605,"lon":15.8046274,"elevationM":490},{"id":"node:8265496741","kind":"peak","name":"Medić glavica","lat":44.1242469,"lon":15.7574312,"elevationM":545},{"id":"node:8265550353","kind":"peak","name":"Erstina glavica","lat":44.1174692,"lon":15.7662932,"elevationM":519},{"id":"node:8265578629","kind":"peak","name":"Ječimštova glavica","lat":44.1146809,"lon":15.7709495,"elevationM":495},{"id":"node:8265578630","kind":"peak","name":"Gendića glavica","lat":44.1128938,"lon":15.7627527,"elevationM":513},{"id":"node:8265592057","kind":"peak","name":"Štanjgarde","lat":44.1089652,"lon":15.7730309,"elevationM":485},{"id":"node:8265593753","kind":"peak","name":"Magareća glavica","lat":44.1050517,"lon":15.8126418,"elevationM":458},{"id":"node:8265600734","kind":"peak","name":"Gljevača","lat":44.1132636,"lon":15.7853476,"elevationM":452},{"id":"node:8265600735","kind":"peak","name":"Veliki Zelenkovac","lat":44.1102113,"lon":15.7916649,"elevationM":471},{"id":"node:8265601269","kind":"peak","name":"Drčina glavica","lat":44.0888402,"lon":15.8565227,"elevationM":463},{"id":"node:8265627974","kind":"peak","name":"Omčikus-glavica","lat":44.0704198,"lon":15.8281772,"elevationM":368},{"id":"node:8265643410","kind":"peak","name":"Vrščić","lat":44.1106137,"lon":15.8243791,"elevationM":499},{"id":"node:8265645239","kind":"peak","name":"Ražovište","lat":44.0810296,"lon":15.8692954,"elevationM":517},{"id":"node:8311181157","kind":"peak","name":"Vrh Hercegov","lat":44.3229919,"lon":15.4415368,"elevationM":714},{"id":"node:8326600363","kind":"peak","name":"Debelo brdo","lat":44.5411477,"lon":15.2991913,"elevationM":697},{"id":"node:8327805858","kind":"peak","name":"Glava od Šušanja","lat":44.2755992,"lon":15.5148233,"elevationM":177},{"id":"node:8336435498","kind":"peak","name":"Veli vrh","lat":44.153181,"lon":15.0675542,"elevationM":76},{"id":"node:8336445323","kind":"peak","name":"Novina","lat":44.1655519,"lon":15.0217877,"elevationM":47},{"id":"node:8336445324","kind":"peak","name":"Omiš","lat":44.1674759,"lon":15.0248776,"elevationM":56},{"id":"node:8336445325","kind":"peak","name":"Zemljačina","lat":44.1514663,"lon":15.0498973,"elevationM":59},{"id":"node:8336445326","kind":"peak","name":"Vela glava","lat":44.1470706,"lon":15.0458632,"elevationM":83},{"id":"node:8336469502","kind":"peak","name":"Ovčjak","lat":44.1325186,"lon":15.0664277,"elevationM":43},{"id":"node:8336512310","kind":"peak","name":"Otavac","lat":44.0535559,"lon":15.6927557,"elevationM":414},{"id":"node:8336534916","kind":"peak","name":"Gradina","lat":44.1864124,"lon":15.4807968,"elevationM":165},{"id":"node:8336557947","kind":"peak","name":"Šušina glavica","lat":44.0413331,"lon":15.6983669,"elevationM":377},{"id":"node:8336570134","kind":"peak","name":"Glavica Velika","lat":44.2471895,"lon":15.3908248,"elevationM":183},{"id":"node:8336574874","kind":"peak","name":"Velika glavica","lat":44.2592105,"lon":15.3703391,"elevationM":162},{"id":"node:8336576018","kind":"peak","name":"Kućerak","lat":44.2401531,"lon":15.418017,"elevationM":180},{"id":"node:8336576020","kind":"peak","name":"Glavica Mala","lat":44.2454818,"lon":15.3939365,"elevationM":178},{"id":"node:8336587200","kind":"peak","name":"Ljubačka kosa","lat":44.2737419,"lon":15.2930679,"elevationM":99},{"id":"node:8336598733","kind":"peak","name":"Matakov šušanj","lat":44.238345,"lon":15.3249374,"elevationM":102},{"id":"node:8336614328","kind":"peak","name":"Velika Mejanica","lat":44.0170481,"lon":15.7139864,"elevationM":414},{"id":"node:8336614329","kind":"peak","name":"Mala Mejanica","lat":44.0217852,"lon":15.7212177,"elevationM":315},{"id":"node:8336614330","kind":"peak","name":"Plješevica","lat":44.0105822,"lon":15.7290068,"elevationM":334},{"id":"node:8336614331","kind":"peak","name":"Jarebinjak","lat":44.0287436,"lon":15.731925,"elevationM":354},{"id":"node:8336614332","kind":"peak","name":"Kosinjak","lat":44.0355006,"lon":15.7159391,"elevationM":338},{"id":"node:8338838911","kind":"peak","name":"Kosa","lat":44.0220442,"lon":15.8296885,"elevationM":376},{"id":"node:8338954463","kind":"peak","name":"Velika Muvača","lat":44.0004151,"lon":15.5138295,"elevationM":131},{"id":"node:8339039455","kind":"peak","name":"Peć","lat":44.1414781,"lon":15.7873284,"elevationM":552},{"id":"node:8339039456","kind":"peak","name":"Stari vrh","lat":44.1428409,"lon":15.791105,"elevationM":551},{"id":"node:8339041769","kind":"peak","name":"Umac","lat":44.041893,"lon":15.7614934,"elevationM":388},{"id":"node:8339041770","kind":"peak","name":"Vrščić","lat":44.0373735,"lon":15.7719862,"elevationM":358},{"id":"node:8339080797","kind":"peak","name":"Popina","lat":44.0621573,"lon":15.7490479,"elevationM":468},{"id":"node:8339095069","kind":"peak","name":"Mala Kreta","lat":44.1546462,"lon":15.7873284,"elevationM":338},{"id":"node:8339095070","kind":"peak","name":"Velika Kreta","lat":44.149073,"lon":15.7879507,"elevationM":444},{"id":"node:8339137779","kind":"peak","name":"Vinculja","lat":44.1280915,"lon":15.7633226,"elevationM":478},{"id":"node:8339137780","kind":"peak","name":"Pilipovića glavica","lat":44.1184644,"lon":15.773794,"elevationM":494},{"id":"node:8339137781","kind":"peak","name":"Mršinka","lat":44.1326657,"lon":15.7608121,"elevationM":484},{"id":"node:8339137782","kind":"peak","name":"Dukića glavica","lat":44.1354994,"lon":15.7562631,"elevationM":447},{"id":"node:8339137783","kind":"peak","name":"Ćelavica","lat":44.134868,"lon":15.7639235,"elevationM":472},{"id":"node:8339137784","kind":"peak","name":"Vruljska glavica","lat":44.1411047,"lon":15.756027,"elevationM":441},{"id":"node:8339137988","kind":"peak","name":"Runjavac","lat":44.1411971,"lon":15.7781284,"elevationM":494},{"id":"node:8339138545","kind":"peak","name":"Bunarina","lat":44.1355302,"lon":15.784673,"elevationM":532},{"id":"node:8339143556","kind":"peak","name":"Zelenik","lat":44.1474832,"lon":15.7628989,"elevationM":431},{"id":"node:8339152753","kind":"peak","name":"Gradina","lat":44.1306943,"lon":15.7788151,"elevationM":459},{"id":"node:8339152754","kind":"peak","name":"Glavičica","lat":44.1329121,"lon":15.7738369,"elevationM":454},{"id":"node:8339165803","kind":"peak","name":"Šimunova glavica","lat":44.1384368,"lon":15.704196,"elevationM":561},{"id":"node:8339166950","kind":"peak","name":"Pržuni","lat":44.1327311,"lon":15.701664,"elevationM":588},{"id":"node:8339171000","kind":"peak","name":"Košćak","lat":44.1549849,"lon":15.6852596,"elevationM":554},{"id":"node:8339171001","kind":"peak","name":"Uvezac","lat":44.1542921,"lon":15.6970613,"elevationM":549},{"id":"node:8339171002","kind":"peak","name":"Marinovića glavica","lat":44.1513516,"lon":15.6832426,"elevationM":517},{"id":"node:8339171003","kind":"peak","name":"Trnovača","lat":44.157094,"lon":15.6725138,"elevationM":521},{"id":"node:8339171004","kind":"peak","name":"Lukovača","lat":44.1586103,"lon":15.6778836,"elevationM":523},{"id":"node:8339171005","kind":"peak","name":"Lomivrat","lat":44.1700855,"lon":15.7084768,"elevationM":354},{"id":"node:8339171006","kind":"peak","name":"Travnjak","lat":44.1681308,"lon":15.7101291,"elevationM":326},{"id":"node:8339670258","kind":"peak","name":"Crna glavica","lat":44.3197202,"lon":15.2688923,"elevationM":43},{"id":"node:8339670259","kind":"peak","name":"Velika glavica","lat":44.3070228,"lon":15.2840199,"elevationM":56},{"id":"node:8339670260","kind":"peak","name":"Kičar","lat":44.2784858,"lon":15.3280296,"elevationM":76},{"id":"node:8340144368","kind":"peak","name":"Bilo brdo","lat":44.2215888,"lon":15.324388,"elevationM":118},{"id":"node:8340157115","kind":"peak","name":"Pandžinica","lat":44.2178135,"lon":15.3321101,"elevationM":125},{"id":"node:8340158615","kind":"peak","name":"Škripače","lat":44.2336821,"lon":15.3090431,"elevationM":104},{"id":"node:8340158616","kind":"peak","name":"Standarac","lat":44.2285314,"lon":15.3139033,"elevationM":114},{"id":"node:8340227156","kind":"peak","name":"Greda","lat":44.2125346,"lon":15.3432225,"elevationM":133},{"id":"node:8340237149","kind":"peak","name":"Brig Prorokovića","lat":44.197668,"lon":15.3995704,"elevationM":125},{"id":"node:8340239081","kind":"peak","name":"Kantunište","lat":44.0206965,"lon":15.3714447,"elevationM":147},{"id":"node:8342719346","kind":"peak","name":"Velika Debeljača","lat":44.0061478,"lon":15.5464817,"elevationM":199},{"id":"node:8342719347","kind":"peak","name":"Dvovrh","lat":44.0031767,"lon":15.5517496,"elevationM":182},{"id":"node:8342719349","kind":"peak","name":"Ćosina gradina","lat":44.0002055,"lon":15.5412139,"elevationM":158},{"id":"node:8342737570","kind":"peak","name":"Crveni brig","lat":44.0018223,"lon":15.3950442,"elevationM":159},{"id":"node:8342794015","kind":"peak","name":"Tišvarova glava","lat":44.1415698,"lon":15.3412632,"elevationM":113},{"id":"node:8342794016","kind":"peak","name":"Zidine","lat":44.1293806,"lon":15.3591857,"elevationM":120},{"id":"node:8342815150","kind":"peak","name":"Špijaljka","lat":44.1183366,"lon":15.5357716,"elevationM":283},{"id":"node:8342816217","kind":"peak","name":"Sjenice","lat":44.1329537,"lon":15.3552804,"elevationM":117},{"id":"node:8342816218","kind":"peak","name":"Pudarica","lat":44.1390097,"lon":15.3476093,"elevationM":116},{"id":"node:8342830012","kind":"peak","name":"Debelo brdo","lat":44.1021364,"lon":15.5609468,"elevationM":340},{"id":"node:8342885001","kind":"peak","name":"Rastova glavica","lat":44.0851228,"lon":15.5393068,"elevationM":211},{"id":"node:8342885002","kind":"peak","name":"Gola glavica","lat":44.0832423,"lon":15.5355302,"elevationM":203},{"id":"node:8342897405","kind":"peak","name":"Milenkovo brdo","lat":44.1127291,"lon":15.6243301,"elevationM":116},{"id":"node:8342924415","kind":"peak","name":"Gradić","lat":44.0792134,"lon":15.6125231,"elevationM":289},{"id":"node:8343315307","kind":"peak","name":"Kita","lat":44.2208271,"lon":15.5620515,"elevationM":132},{"id":"node:8343350487","kind":"peak","name":"Kosa","lat":44.220212,"lon":15.5939537,"elevationM":201},{"id":"node:8343376528","kind":"peak","name":"Gromila","lat":44.2243177,"lon":15.5959331,"elevationM":197},{"id":"node:8343389790","kind":"peak","name":"Patkin kuk","lat":44.2393736,"lon":15.5452126,"elevationM":169},{"id":"node:8343413554","kind":"peak","name":"Visoka glavica","lat":44.2575513,"lon":15.6005278,"elevationM":457},{"id":"node:8343453059","kind":"peak","name":"Visoka glavica","lat":44.2699982,"lon":15.5693712,"elevationM":509},{"id":"node:8343460716","kind":"peak","name":"Glavica Marića","lat":44.173481,"lon":15.6736126,"elevationM":382},{"id":"node:8343471312","kind":"peak","name":"Bukovo pleće","lat":44.2743296,"lon":15.6248828,"elevationM":1170},{"id":"node:8343482067","kind":"peak","name":"Visulja","lat":44.234406,"lon":15.6363192,"elevationM":243},{"id":"node:8343501167","kind":"peak","name":"Jurina glavica","lat":44.1884191,"lon":15.6433358,"elevationM":260},{"id":"node:8343501168","kind":"peak","name":"Kadulja","lat":44.1856649,"lon":15.6481423,"elevationM":271},{"id":"node:8343501169","kind":"peak","name":"Velika glavica","lat":44.1857726,"lon":15.6557813,"elevationM":281},{"id":"node:8343501170","kind":"peak","name":"Čordak","lat":44.1730616,"lon":15.6778397,"elevationM":386},{"id":"node:8343520449","kind":"peak","name":"Miljanića glavica","lat":44.1908808,"lon":15.6324353,"elevationM":238},{"id":"node:8343529217","kind":"peak","name":"Sljeme","lat":44.1931089,"lon":15.6232304,"elevationM":212},{"id":"node:8349451466","kind":"peak","name":"Crni Umac","lat":44.2451953,"lon":15.4484939,"elevationM":242},{"id":"node:8349453787","kind":"peak","name":"Travnik","lat":44.2290569,"lon":15.4987531,"elevationM":172},{"id":"node:8349453788","kind":"peak","name":"Goli brig","lat":44.2334542,"lon":15.4706007,"elevationM":237},{"id":"node:8349453789","kind":"peak","name":"Brisnica","lat":44.2322703,"lon":15.4789048,"elevationM":224},{"id":"node:8349453790","kind":"peak","name":"Padina glavica","lat":44.2270273,"lon":15.4840546,"elevationM":211},{"id":"node:8349479302","kind":"peak","name":"Crna glavica","lat":44.1309132,"lon":15.8103936,"elevationM":504},{"id":"node:8349500287","kind":"peak","name":"Rokića glavica","lat":44.1234431,"lon":15.7363861,"elevationM":514},{"id":"node:8349501964","kind":"peak","name":"Visoka glavica","lat":44.1191224,"lon":15.7890727,"elevationM":457},{"id":"node:8445821595","kind":"peak","name":"Gajište","lat":44.4249537,"lon":15.5956292,"elevationM":607},{"id":"node:8445821596","kind":"peak","name":"Bukova glavica","lat":44.413398,"lon":15.5849647,"elevationM":702},{"id":"node:8445821597","kind":"peak","name":"Lisina","lat":44.4240955,"lon":15.5670154,"elevationM":690},{"id":"node:8445821598","kind":"peak","name":"Vrh pločavi","lat":44.4211684,"lon":15.5538296,"elevationM":643},{"id":"node:8445821599","kind":"peak","name":"Vrletuša","lat":44.4161262,"lon":15.5512547,"elevationM":669},{"id":"node:8445821600","kind":"peak","name":"Terekuša","lat":44.4128462,"lon":15.5637002,"elevationM":683},{"id":"node:8445821601","kind":"peak","name":"Magaretin","lat":44.4086999,"lon":15.5521989,"elevationM":676},{"id":"node:8445821602","kind":"peak","name":"Mala Paljevica","lat":44.4000769,"lon":15.5421352,"elevationM":690},{"id":"node:8445821603","kind":"peak","name":"Tomčaja","lat":44.4057261,"lon":15.5295288,"elevationM":642},{"id":"node:8445821604","kind":"peak","name":"Brklja","lat":44.3993142,"lon":15.4901648,"elevationM":1245},{"id":"node:8445821605","kind":"peak","name":"Lisac","lat":44.4086156,"lon":15.4695225,"elevationM":1450},{"id":"node:8445821606","kind":"peak","name":"Plavi vrh","lat":44.4299684,"lon":15.4439127,"elevationM":1162},{"id":"node:8445821607","kind":"peak","name":"Bukovača","lat":44.4394602,"lon":15.4621464,"elevationM":635},{"id":"node:8445821608","kind":"peak","name":"Brezovača","lat":44.4347528,"lon":15.4749513,"elevationM":608},{"id":"node:8446227837","kind":"peak","name":"Inin vrh","lat":44.8816844,"lon":15.233433,"elevationM":632},{"id":"node:8446227838","kind":"peak","name":"Fortica","lat":44.8769113,"lon":15.2231784,"elevationM":567},{"id":"node:8446227839","kind":"peak","name":"Poljički vrh","lat":44.8831822,"lon":15.220516,"elevationM":655},{"id":"node:8446227840","kind":"peak","name":"Rastik","lat":44.8799402,"lon":15.2123819,"elevationM":647},{"id":"node:8446227841","kind":"peak","name":"Pakalj","lat":44.8681366,"lon":15.2160945,"elevationM":490},{"id":"node:8454348490","kind":"peak","name":"Luberdenik","lat":44.8597113,"lon":15.1407386,"elevationM":631},{"id":"node:8454348491","kind":"peak","name":"Derikrava","lat":44.8703065,"lon":15.1209202,"elevationM":585},{"id":"node:8454348492","kind":"peak","name":"Vrščić","lat":44.8704826,"lon":15.1441342,"elevationM":538},{"id":"node:8454357628","kind":"peak","name":"Zabrdo","lat":44.8570204,"lon":15.1726286,"elevationM":676},{"id":"node:8454357629","kind":"peak","name":"Vijenac","lat":44.8672875,"lon":15.1805943,"elevationM":523},{"id":"node:8454921196","kind":"peak","name":"Rudine","lat":44.7061507,"lon":15.3015947,"elevationM":614},{"id":"node:8454921206","kind":"peak","name":"Rovički vrh","lat":44.6886558,"lon":15.2959728,"elevationM":729},{"id":"node:8454921207","kind":"peak","name":"Bijeli vrh","lat":44.6743905,"lon":15.2559972,"elevationM":760},{"id":"node:8454921208","kind":"peak","name":"Kruščica","lat":44.6911575,"lon":15.2650523,"elevationM":723},{"id":"node:8454921209","kind":"peak","name":"Kosa","lat":44.6873133,"lon":15.2747082,"elevationM":628},{"id":"node:8454921210","kind":"peak","name":"Prisoj","lat":44.690944,"lon":15.2828622,"elevationM":672},{"id":"node:8454921211","kind":"peak","name":"Gorica","lat":44.7016898,"lon":15.2620697,"elevationM":739},{"id":"node:8454921212","kind":"peak","name":"Veliki Vršeljak","lat":44.7049078,"lon":15.2707493,"elevationM":666},{"id":"node:8458105879","kind":"peak","name":"Čaura","lat":44.9849325,"lon":15.4286588,"elevationM":576},{"id":"node:8458105880","kind":"peak","name":"Korać","lat":44.9879324,"lon":15.4079434,"elevationM":907},{"id":"node:8458105881","kind":"peak","name":"Jasenak","lat":44.9966163,"lon":15.3923366,"elevationM":1031},{"id":"node:8458105882","kind":"peak","name":"Božin vrh","lat":44.9973454,"lon":15.3742926,"elevationM":1070},{"id":"node:8458105883","kind":"peak","name":"Samar","lat":44.9907499,"lon":15.3651066,"elevationM":810},{"id":"node:8458105889","kind":"peak","name":"Šašina vrh","lat":44.9953403,"lon":15.2073509,"elevationM":801},{"id":"node:8458105891","kind":"peak","name":"Njivički vrh","lat":44.9906173,"lon":15.2458993,"elevationM":974},{"id":"node:8458105920","kind":"peak","name":"Đuminovac","lat":44.9422539,"lon":15.2079133,"elevationM":765},{"id":"node:8458105921","kind":"peak","name":"Kruškovača","lat":44.9530675,"lon":15.2015862,"elevationM":831},{"id":"node:8458105922","kind":"peak","name":"Velika greda","lat":44.9515252,"lon":15.190713,"elevationM":840},{"id":"node:8458105923","kind":"peak","name":"Javornik","lat":44.951691,"lon":15.2246215,"elevationM":831},{"id":"node:8458105924","kind":"peak","name":"Bunarine","lat":44.980855,"lon":15.2032852,"elevationM":833},{"id":"node:8458105925","kind":"peak","name":"Kalanje vrh","lat":44.9816672,"lon":15.183015,"elevationM":791},{"id":"node:8458105926","kind":"peak","name":"Žegarski vrh","lat":44.9713895,"lon":15.1715676,"elevationM":738},{"id":"node:8458105927","kind":"peak","name":"Ravni vrh","lat":44.9599078,"lon":15.1780353,"elevationM":753},{"id":"node:8458105928","kind":"peak","name":"Gradina","lat":44.9550906,"lon":15.1587611,"elevationM":662},{"id":"node:8458105929","kind":"peak","name":"Zidine","lat":44.9805401,"lon":15.1531253,"elevationM":578},{"id":"node:8458105930","kind":"peak","name":"Umac","lat":44.9908161,"lon":15.1416896,"elevationM":562},{"id":"node:8458105931","kind":"peak","name":"Vijenac","lat":44.9815761,"lon":15.1189004,"elevationM":644},{"id":"node:8458105932","kind":"peak","name":"Vukov vrh","lat":44.9745145,"lon":15.1002823,"elevationM":751},{"id":"node:8458105933","kind":"peak","name":"Zarin","lat":44.9733292,"lon":15.1241144,"elevationM":828},{"id":"node:8458105934","kind":"peak","name":"Pepin vrh","lat":44.9716051,"lon":15.1380809,"elevationM":800},{"id":"node:8546004673","kind":"peak","name":"Plišivac","lat":44.0785774,"lon":15.150329,"elevationM":229},{"id":"node:8546004676","kind":"peak","name":"Žalivan","lat":44.0807574,"lon":15.1452304,"elevationM":201},{"id":"node:8546004678","kind":"peak","name":"Losobrić","lat":44.0797586,"lon":15.1598129,"elevationM":163},{"id":"node:8546004679","kind":"peak","name":"Livonjin","lat":44.0844156,"lon":15.1540976,"elevationM":156},{"id":"node:8546004680","kind":"peak","name":"Bratomir","lat":44.0879155,"lon":15.1464142,"elevationM":194},{"id":"node:8546004681","kind":"peak","name":"Zvonigrad","lat":44.0915376,"lon":15.1374284,"elevationM":196},{"id":"node:8546004682","kind":"peak","name":"Gorelac","lat":44.0909927,"lon":15.1339317,"elevationM":207},{"id":"node:8546004683","kind":"peak","name":"Orljak","lat":44.0867105,"lon":15.1389723,"elevationM":206},{"id":"node:8546004684","kind":"peak","name":"Straža","lat":44.0952107,"lon":15.1313275,"elevationM":178},{"id":"node:8546004685","kind":"peak","name":"Babenjak","lat":44.1031418,"lon":15.1469728,"elevationM":87},{"id":"node:8546004686","kind":"peak","name":"Ruševac","lat":44.0928098,"lon":15.159023,"elevationM":87},{"id":"node:8546004687","kind":"peak","name":"Bučolić","lat":44.0864699,"lon":15.1702186,"elevationM":139},{"id":"node:8546004688","kind":"peak","name":"Vrh","lat":44.0771737,"lon":15.1818632,"elevationM":137},{"id":"node:8561015732","kind":"peak","name":"Gradić","lat":44.3253965,"lon":15.4442918,"elevationM":764},{"id":"node:8571819501","kind":"peak","name":"Gornja Sjenica","lat":44.1837817,"lon":15.8245219,"elevationM":234},{"id":"node:8571819505","kind":"peak","name":"Gradina","lat":44.1729082,"lon":15.8550732,"elevationM":238},{"id":"node:8571819523","kind":"peak","name":"Babića glavica","lat":44.18475,"lon":15.8443063,"elevationM":244},{"id":"node:8571819524","kind":"peak","name":"Kordin kuk","lat":44.1861502,"lon":15.8549064,"elevationM":270},{"id":"node:8575833274","kind":"peak","name":"Kruščić","lat":44.0272746,"lon":15.4008839,"elevationM":93},{"id":"node:8622095333","kind":"peak","name":"Alan","lat":44.1909035,"lon":15.892077,"elevationM":156},{"id":"node:8653357922","kind":"peak","name":"Kamenta","lat":44.038449,"lon":15.5026598,"elevationM":86},{"id":"node:8685177211","kind":"peak","name":"Stipanov grič","lat":44.7757668,"lon":15.4438851,"elevationM":1232},{"id":"node:8707241979","kind":"peak","name":"Bregovi","lat":44.0398152,"lon":15.4850398,"elevationM":89},{"id":"node:8711846240","kind":"peak","name":"Velika Lisina","lat":44.9338852,"lon":15.6136589,"elevationM":794},{"id":"node:8718535160","kind":"peak","name":"Sklopina","lat":44.5280065,"lon":15.2297296,"elevationM":1272},{"id":"node:8739938425","kind":"peak","name":"Kota 837","lat":44.3642298,"lon":15.3719285,"elevationM":null},{"id":"node:8739938426","kind":"peak","name":"Perina glavica","lat":44.3694931,"lon":15.3812506,"elevationM":819},{"id":"node:8739938427","kind":"peak","name":"Sedlo","lat":44.3801031,"lon":15.3770313,"elevationM":834},{"id":"node:8739938428","kind":"peak","name":"Vodena glavica","lat":44.355197,"lon":15.3737876,"elevationM":751},{"id":"node:8739938429","kind":"peak","name":"Strmoglavica","lat":44.3528243,"lon":15.3676949,"elevationM":670},{"id":"node:8740149285","kind":"peak","name":"Zvirjak","lat":44.3602246,"lon":15.3851903,"elevationM":907},{"id":"node:8740245152","kind":"peak","name":"Kuk Podgrizen","lat":44.3647313,"lon":15.3742293,"elevationM":770},{"id":"node:8740290537","kind":"peak","name":"Aptovačka kosa","lat":44.3571993,"lon":15.3937323,"elevationM":794},{"id":"node:8740290538","kind":"peak","name":"Kadinovac","lat":44.3492491,"lon":15.3829952,"elevationM":562},{"id":"node:8811933281","kind":"peak","name":"Stražbenica","lat":44.3609261,"lon":15.4507248,"elevationM":1159},{"id":"node:8838117918","kind":"peak","name":"Veli Brig","lat":44.4480402,"lon":15.0733052,"elevationM":263},{"id":"node:8862595015","kind":"peak","name":"Cvituša","lat":44.3834077,"lon":15.6732044,"elevationM":660},{"id":"node:8883974127","kind":"peak","name":"Švički vrh","lat":44.8821102,"lon":15.1721548,"elevationM":629},{"id":"node:8883974128","kind":"peak","name":"Araličin vrh","lat":44.8846433,"lon":15.1504515,"elevationM":819},{"id":"node:8883974129","kind":"peak","name":"Banjski vrh","lat":44.8833921,"lon":15.1265166,"elevationM":630},{"id":"node:8883974130","kind":"peak","name":"Kuruzeb","lat":44.8919682,"lon":15.1077216,"elevationM":583},{"id":"node:8883974131","kind":"peak","name":"Vodenjak","lat":44.9020206,"lon":15.1022076,"elevationM":552},{"id":"node:8904749064","kind":"peak","name":"Vrkino brdo","lat":44.2673036,"lon":15.738843,"elevationM":886},{"id":"node:8904749065","kind":"peak","name":"Razvršje","lat":44.2722642,"lon":15.7359809,"elevationM":938},{"id":"node:8904749066","kind":"peak","name":"Stražište","lat":44.2727994,"lon":15.7524785,"elevationM":1008},{"id":"node:8904749067","kind":"peak","name":"Četinarica","lat":44.2716,"lon":15.769212,"elevationM":1179},{"id":"node:8904749068","kind":"peak","name":"Jelinov vršak","lat":44.2738505,"lon":15.7849201,"elevationM":1050},{"id":"node:8904749069","kind":"peak","name":"Vrbnički vrh","lat":44.2718826,"lon":15.7940593,"elevationM":1000},{"id":"node:8910014804","kind":"peak","name":"Medvjeđak","lat":44.9143512,"lon":15.0040485,"elevationM":1359},{"id":"node:8910042062","kind":"peak","name":"Crimušljavo bilo","lat":44.8928455,"lon":15.0142088,"elevationM":1352},{"id":"node:8910042063","kind":"peak","name":"Vrh Ropinog krča","lat":44.8866659,"lon":15.0067951,"elevationM":1287},{"id":"node:8910057100","kind":"peak","name":"Baćonovo bilo","lat":44.894187,"lon":15.001259,"elevationM":1317},{"id":"node:8986952327","kind":"peak","name":"Kruglaš","lat":44.0119342,"lon":15.5256999,"elevationM":139},{"id":"node:8986952328","kind":"peak","name":"Oštruljica","lat":44.009681,"lon":15.5287898,"elevationM":116},{"id":"node:8986952329","kind":"peak","name":"Peljeguša","lat":44.0073969,"lon":15.5272449,"elevationM":103},{"id":"node:8988356239","kind":"peak","name":"Pejića Mocira","lat":44.0419963,"lon":15.3414697,"elevationM":118},{"id":"node:8988365701","kind":"peak","name":"Goleš","lat":44.0487133,"lon":15.3380901,"elevationM":66},{"id":"node:8988447549","kind":"peak","name":"Franića vrh","lat":44.0362273,"lon":15.3523702,"elevationM":135},{"id":"node:8988495576","kind":"peak","name":"Ilića brig","lat":44.0829456,"lon":15.3278173,"elevationM":108},{"id":"node:8989352793","kind":"peak","name":"Mutvica","lat":44.0247377,"lon":15.5137373,"elevationM":132},{"id":"node:8989352794","kind":"peak","name":"Gradina","lat":44.0192756,"lon":15.5195523,"elevationM":136},{"id":"node:8989352795","kind":"peak","name":"Doganja","lat":44.021432,"lon":15.5159582,"elevationM":137},{"id":"node:8989401751","kind":"peak","name":"Mala Debeljača","lat":44.0058729,"lon":15.550328,"elevationM":185},{"id":"node:8990102960","kind":"peak","name":"Sladakovac","lat":44.4808569,"lon":15.987374,"elevationM":1069},{"id":"node:8991537302","kind":"peak","name":"Perušićka kosa","lat":44.0157161,"lon":15.630767,"elevationM":220},{"id":"node:8991553539","kind":"peak","name":"Grubića glavica","lat":44.0277783,"lon":15.6012252,"elevationM":211},{"id":"node:8991614278","kind":"peak","name":"Londža","lat":44.0461889,"lon":15.7304406,"elevationM":370},{"id":"node:8991962725","kind":"peak","name":"Gospina glavica","lat":44.0762567,"lon":15.5406851,"elevationM":201},{"id":"node:9031787755","kind":"peak","name":"Mali Sivnik","lat":44.9951192,"lon":15.4843192,"elevationM":771},{"id":"node:9054501404","kind":"peak","name":"Bat","lat":44.3108179,"lon":15.4954486,"elevationM":774},{"id":"node:9054587590","kind":"peak","name":"Gornje razvršje","lat":44.2852666,"lon":15.5824863,"elevationM":1013},{"id":"node:9054603238","kind":"peak","name":"Ljuti vrh","lat":44.5778784,"lon":15.2845573,"elevationM":726},{"id":"node:9054606419","kind":"peak","name":"Ljutača","lat":44.5613079,"lon":15.2853297,"elevationM":686},{"id":"node:9063261203","kind":"peak","name":"Lipovac","lat":44.5744321,"lon":15.2654961,"elevationM":753},{"id":"node:9063292452","kind":"peak","name":"Velika Karauševica","lat":44.5869458,"lon":15.2694098,"elevationM":877},{"id":"node:9063292453","kind":"peak","name":"Mala Karauševica","lat":44.5842752,"lon":15.2745596,"elevationM":788},{"id":"node:9063309984","kind":"peak","name":"Korito","lat":44.5927908,"lon":15.2589492,"elevationM":807},{"id":"node:9063317917","kind":"peak","name":"Veliki Vršeljak","lat":44.5856197,"lon":15.2521923,"elevationM":712},{"id":"node:9063322244","kind":"peak","name":"Mijanuša","lat":44.5657642,"lon":15.2729161,"elevationM":605},{"id":"node:9063515935","kind":"peak","name":"Plišljivica","lat":44.5258737,"lon":15.3178349,"elevationM":670},{"id":"node:9063520002","kind":"peak","name":"Kamenjuša","lat":44.492817,"lon":15.3432944,"elevationM":601},{"id":"node:9063522509","kind":"peak","name":"Popova kosa","lat":44.4860511,"lon":15.3225019,"elevationM":635},{"id":"node:9063523862","kind":"peak","name":"Risova kosa","lat":44.4718279,"lon":15.3284457,"elevationM":646},{"id":"node:9063523863","kind":"peak","name":"Vrljajac","lat":44.466545,"lon":15.3371146,"elevationM":673},{"id":"node:9063530155","kind":"peak","name":"Rošin vrh","lat":44.5579484,"lon":15.247046,"elevationM":1045},{"id":"node:9063531750","kind":"peak","name":"Rašlje","lat":44.4649217,"lon":15.3128245,"elevationM":1073},{"id":"node:9063538795","kind":"peak","name":"Plasine","lat":44.56015,"lon":15.2374329,"elevationM":1099},