{"tileKey":"la_p43_lo_m9","version":"v1-1775891056926","entries":[{"id":"node:1241610466","kind":"peak","name":"Monte do Rei","lat":43.5178869,"lon":-8.1399562,"elevationM":264},{"id":"node:1241612966","kind":"peak","name":"A Cocheira","lat":43.5346567,"lon":-8.2638159,"elevationM":134},{"id":"node:1241614318","kind":"peak","name":"A Coviña","lat":43.0861343,"lon":-8.3612314,"elevationM":381},{"id":"node:1241615608","kind":"peak","name":"Monte de Meirás","lat":43.6118188,"lon":-8.1867259,"elevationM":41},{"id":"node:1241615978","kind":"peak","name":"Alto de Campelo","lat":43.5904707,"lon":-8.2110642,"elevationM":250},{"id":"node:1241616598","kind":"peak","name":"Pena do Acivro","lat":43.4380107,"lon":-8.1244137,"elevationM":359},{"id":"node:1241617518","kind":"peak","name":"Pena Sarnoso","lat":43.4745873,"lon":-8.060543,"elevationM":443},{"id":"node:1241617843","kind":"peak","name":"Monte da Cova","lat":43.5545365,"lon":-8.3116652,"elevationM":null},{"id":"node:1241617919","kind":"peak","name":"O Pico","lat":43.4980696,"lon":-8.2583086,"elevationM":149},{"id":"node:1241618573","kind":"peak","name":"Monte Sabugueiro","lat":43.5451416,"lon":-8.2454292,"elevationM":275},{"id":"node:1241618720","kind":"peak","name":"Monte Pedroso","lat":43.5088561,"lon":-8.2626139,"elevationM":273},{"id":"node:1241618831","kind":"peak","name":"Piñeiro Alto","lat":43.5080168,"lon":-8.1163513,"elevationM":184},{"id":"node:1241619445","kind":"peak","name":"Alto da Vesura","lat":43.4842965,"lon":-8.0414511,"elevationM":508},{"id":"node:1241622085","kind":"peak","name":"Montes da Lagoa","lat":43.5650187,"lon":-8.2336209,"elevationM":267},{"id":"node:1241622347","kind":"peak","name":"A Croa","lat":43.4851564,"lon":-8.1193985,"elevationM":null},{"id":"node:1241624924","kind":"peak","name":"Monte do Rego","lat":43.4653496,"lon":-8.1040808,"elevationM":null},{"id":"node:1241625046","kind":"peak","name":"Monte de Cos","lat":43.2459205,"lon":-8.264988,"elevationM":149},{"id":"node:1241625843","kind":"peak","name":"Monte do Castro","lat":43.5217358,"lon":-8.140415,"elevationM":231},{"id":"node:1241626409","kind":"peak","name":"A Pena da Lata","lat":43.4731157,"lon":-8.080702,"elevationM":481},{"id":"node:1241626813","kind":"peak","name":"Pena Loureiro","lat":43.4796231,"lon":-8.3043175,"elevationM":259},{"id":"node:1241628198","kind":"peak","name":"Os Rocís","lat":43.4630544,"lon":-8.1303291,"elevationM":305},{"id":"node:1241628822","kind":"peak","name":"Montes dos Marcos","lat":43.4490296,"lon":-8.1295657,"elevationM":392},{"id":"node:1241631756","kind":"peak","name":"Monte do Muíño","lat":43.2164608,"lon":-8.9195727,"elevationM":157},{"id":"node:1241633022","kind":"peak","name":"Pico do Castro","lat":43.4331885,"lon":-8.144426,"elevationM":348},{"id":"node:1241633371","kind":"peak","name":"A Lagoa","lat":43.5211693,"lon":-8.2882903,"elevationM":231},{"id":"node:1241634420","kind":"peak","name":"Pena Leboreira","lat":43.5095976,"lon":-8.3203196,"elevationM":69},{"id":"node:1241634679","kind":"peak","name":"Cotón de Xenarde","lat":43.1299196,"lon":-8.3602058,"elevationM":451},{"id":"node:1241635288","kind":"peak","name":"A Espiñeira","lat":43.4549459,"lon":-8.1346072,"elevationM":351},{"id":"node:1241635449","kind":"peak","name":"O Lodeiro","lat":43.4607677,"lon":-8.1506189,"elevationM":255},{"id":"node:1241635692","kind":"peak","name":"Coto da Pena Longa","lat":43.6164432,"lon":-8.184818,"elevationM":45},{"id":"node:1241636604","kind":"peak","name":"Montes da Costa","lat":43.4477385,"lon":-8.1198476,"elevationM":null},{"id":"node:1241636807","kind":"peak","name":"Monte Painceira","lat":43.5499535,"lon":-8.233845,"elevationM":247},{"id":"node:1241638358","kind":"peak","name":"Monte de Vilela","lat":43.5213161,"lon":-8.2449501,"elevationM":216},{"id":"node:1241639601","kind":"peak","name":"Pena da Cruz","lat":43.4728427,"lon":-8.0638459,"elevationM":413},{"id":"node:1241702564","kind":"peak","name":"O Cal Grande","lat":43.4132726,"lon":-8.1087686,"elevationM":335},{"id":"node:1241706295","kind":"peak","name":"O Couce","lat":43.4764844,"lon":-8.1183119,"elevationM":283},{"id":"node:1241706366","kind":"peak","name":"Monte do Croio","lat":43.2489544,"lon":-8.2230693,"elevationM":208},{"id":"node:1241706487","kind":"peak","name":"Monte de Pedras Boas","lat":43.4784309,"lon":-8.3310362,"elevationM":104},{"id":"node:1241706890","kind":"peak","name":"Monte Vello","lat":43.5183889,"lon":-8.2743432,"elevationM":186},{"id":"node:1241707120","kind":"peak","name":"Pena de Sueiro","lat":43.4757291,"lon":-8.0533498,"elevationM":488},{"id":"node:1241707582","kind":"peak","name":"Coto de Xanrozo","lat":43.2633516,"lon":-8.2199175,"elevationM":151},{"id":"node:1241707872","kind":"peak","name":"Monte de Ancos","lat":43.5152217,"lon":-8.138139,"elevationM":268},{"id":"node:1241707948","kind":"peak","name":"Monte da Capela","lat":43.2121588,"lon":-8.9671371,"elevationM":225},{"id":"node:1241708140","kind":"peak","name":"A Painceira","lat":43.4341898,"lon":-8.1268555,"elevationM":312},{"id":"node:1241708871","kind":"peak","name":"Pena da Rama","lat":43.4860451,"lon":-8.0472373,"elevationM":471},{"id":"node:1241708949","kind":"peak","name":"O Pichón","lat":43.1852978,"lon":-8.3015279,"elevationM":327},{"id":"node:1241710155","kind":"peak","name":"Coto das Modias","lat":43.4590547,"lon":-8.1339819,"elevationM":348},{"id":"node:1241710665","kind":"peak","name":"Monte da Croa","lat":43.2855529,"lon":-8.1949752,"elevationM":135},{"id":"node:1241711448","kind":"peak","name":"Coto de Vilasuso","lat":43.5681824,"lon":-8.2240811,"elevationM":209},{"id":"node:1241711533","kind":"peak","name":"Alto da Revolta","lat":43.1103584,"lon":-8.3282796,"elevationM":406},{"id":"node:1241712415","kind":"peak","name":"Coto Salgueiros","lat":43.5081224,"lon":-8.3171273,"elevationM":56},{"id":"node:1241713949","kind":"peak","name":"Monte Reizás","lat":43.5098889,"lon":-8.2523619,"elevationM":222},{"id":"node:1241714524","kind":"peak","name":"O Pico","lat":43.4032604,"lon":-8.1231063,"elevationM":398},{"id":"node:1241715777","kind":"peak","name":"Montes da Correa","lat":43.4508114,"lon":-8.1272745,"elevationM":null},{"id":"node:1241715864","kind":"peak","name":"Coto da Modia","lat":43.5719068,"lon":-8.2203894,"elevationM":191},{"id":"node:1241717922","kind":"peak","name":"Bico da Gurita","lat":43.4644667,"lon":-8.291807,"elevationM":144},{"id":"node:1241719523","kind":"peak","name":"O Peñón","lat":43.5477185,"lon":-8.2565688,"elevationM":278},{"id":"node:1241720367","kind":"peak","name":"Coto da Vela","lat":43.5600836,"lon":-8.316245,"elevationM":null},{"id":"node:1241721291","kind":"peak","name":"Pena do Convento","lat":43.4739144,"lon":-8.0444721,"elevationM":505},{"id":"node:1241721648","kind":"peak","name":"Coto da Torre","lat":43.1858027,"lon":-8.3334968,"elevationM":431},{"id":"node:1241723699","kind":"peak","name":"Coto do Gato","lat":43.4740588,"lon":-8.2989813,"elevationM":241},{"id":"node:1241724147","kind":"peak","name":"Monte da Pena","lat":43.2071992,"lon":-8.255602,"elevationM":196},{"id":"node:1241725533","kind":"peak","name":"O Lugarexo","lat":43.4581527,"lon":-8.1419868,"elevationM":307},{"id":"node:1241727319","kind":"peak","name":"Monte de Covelo","lat":43.2230846,"lon":-8.2609036,"elevationM":185},{"id":"node:1241727656","kind":"peak","name":"Coto de San Xurxo","lat":43.5130095,"lon":-8.2885472,"elevationM":254},{"id":"node:1241728181","kind":"peak","name":"Monte da Facha","lat":43.2492605,"lon":-8.9440032,"elevationM":143},{"id":"node:1241787169","kind":"peak","name":"O Coto da Pena","lat":43.0015892,"lon":-8.4501051,"elevationM":284},{"id":"node:1249943403","kind":"peak","name":"Pena Faladoira","lat":43.3454109,"lon":-8.0225642,"elevationM":null},{"id":"node:1249943553","kind":"peak","name":"A Pena da Moa","lat":43.4754606,"lon":-8.0741839,"elevationM":null},{"id":"node:1249943718","kind":"peak","name":"Penedo Gordo","lat":43.3852255,"lon":-8.0221351,"elevationM":null},{"id":"node:1249944002","kind":"peak","name":"Pena das Pombas","lat":43.3821715,"lon":-8.0581074,"elevationM":null},{"id":"node:1249944215","kind":"peak","name":"Penedo Empardado","lat":43.4055982,"lon":-8.0173862,"elevationM":null},{"id":"node:1249944482","kind":"peak","name":"O Penedo","lat":43.3795327,"lon":-8.1160121,"elevationM":null},{"id":"node:1249945235","kind":"peak","name":"Penedos Pequenos","lat":43.3629669,"lon":-8.0511005,"elevationM":null},{"id":"node:1249945625","kind":"peak","name":"Pena da Aiga","lat":43.3504849,"lon":-8.0032462,"elevationM":null},{"id":"node:1249946436","kind":"peak","name":"Penas do Mel","lat":43.4106087,"lon":-8.0188985,"elevationM":null},{"id":"node:1249948561","kind":"peak","name":"Pena do Coto","lat":43.4157782,"lon":-8.0553908,"elevationM":null},{"id":"node:1249949359","kind":"peak","name":"Pedra de Lista","lat":43.2703898,"lon":-8.6344719,"elevationM":null},{"id":"node:1249949686","kind":"peak","name":"Pena do Corvo","lat":43.3474367,"lon":-8.0310083,"elevationM":null},{"id":"node:1249950212","kind":"peak","name":"Pena Moura","lat":43.4338288,"lon":-8.0249118,"elevationM":null},{"id":"node:1249950605","kind":"peak","name":"Pena da Ferradura","lat":43.3882277,"lon":-8.0601892,"elevationM":null},{"id":"node:1249952247","kind":"peak","name":"Pena do Cuco","lat":43.3567292,"lon":-8.0395235,"elevationM":null},{"id":"node:1249952568","kind":"peak","name":"Pena do Serrón","lat":43.3982349,"lon":-8.0187153,"elevationM":null},{"id":"node:1249953182","kind":"peak","name":"Pena do Raposo","lat":43.4252605,"lon":-8.1547098,"elevationM":null},{"id":"node:1249953570","kind":"peak","name":"Pena do Teixo","lat":43.3919886,"lon":-8.0222116,"elevationM":null},{"id":"node:1249954431","kind":"peak","name":"Pena da Retorta","lat":43.342395,"lon":-8.0482869,"elevationM":null},{"id":"node:1249954896","kind":"peak","name":"Pena Cavada","lat":43.3682557,"lon":-8.0048192,"elevationM":null},{"id":"node:1249956347","kind":"peak","name":"Pena Má","lat":43.4088977,"lon":-8.0739995,"elevationM":null},{"id":"node:1249957874","kind":"peak","name":"Petón do Caldeiro","lat":43.2746579,"lon":-8.6782999,"elevationM":null},{"id":"node:1249958744","kind":"peak","name":"Pena dos Mouros","lat":43.4002907,"lon":-8.0222017,"elevationM":null},{"id":"node:1249959837","kind":"peak","name":"A Pedra Queimada","lat":43.3064675,"lon":-8.6035544,"elevationM":null},{"id":"node:1249961142","kind":"peak","name":"Penas Louseiras","lat":43.4769832,"lon":-8.093413,"elevationM":465},{"id":"node:1249961295","kind":"peak","name":"Pena do Gato","lat":43.3545123,"lon":-8.1258273,"elevationM":null},{"id":"node:1733222175","kind":"peak","name":"Monte Xalo","lat":43.232455,"lon":-8.4084506,"elevationM":514},{"id":"node:1870715281","kind":"peak","name":"Monte Neme","lat":43.2704082,"lon":-8.739675,"elevationM":385},{"id":"node:2295263519","kind":"peak","name":"Monte Piñeiro","lat":43.3527859,"lon":-8.2088892,"elevationM":41},{"id":"node:3507683242","kind":"peak","name":"Monte da Piolla","lat":43.1602058,"lon":-8.3683778,"elevationM":null},{"id":"node:3705256106","kind":"peak","name":"Monte dos Crolos","lat":43.1710711,"lon":-8.3369582,"elevationM":null},{"id":"node:3705256113","kind":"peak","name":"Monte do Castro","lat":43.1642165,"lon":-8.3462353,"elevationM":null},{"id":"node:3705398050","kind":"peak","name":"Coto da Fouza","lat":43.1800317,"lon":-8.3007685,"elevationM":358},{"id":"node:3720557245","kind":"peak","name":"Cacheira","lat":43.1938578,"lon":-8.2324962,"elevationM":null},{"id":"node:3729403966","kind":"peak","name":"Punta do Cabaio","lat":43.2270919,"lon":-8.9802755,"elevationM":52},{"id":"node:3779319488","kind":"peak","name":"Pena Fesa","lat":43.3330397,"lon":-8.0011185,"elevationM":716},{"id":"node:3796989502","kind":"peak","name":"Pena Bailadora","lat":43.4515074,"lon":-8.2848216,"elevationM":266},{"id":"node:3796990593","kind":"peak","name":"O Monte Ventoso","lat":43.4804453,"lon":-8.3177192,"elevationM":245},{"id":"node:3796998537","kind":"peak","name":"Alto de Marraxón","lat":43.4887987,"lon":-8.136078,"elevationM":335},{"id":"node:3796998538","kind":"peak","name":"Coto do Rei","lat":43.4784617,"lon":-8.1320685,"elevationM":355},{"id":"node:4566893343","kind":"peak","name":"Monte da Cha","lat":43.484974,"lon":-8.2888238,"elevationM":264},{"id":"node:4680277104","kind":"peak","name":"A Aguia de Terra","lat":43.360472,"lon":-8.8341374,"elevationM":52},{"id":"node:4680303731","kind":"peak","name":"O Talieiro","lat":43.3580043,"lon":-8.833417,"elevationM":41},{"id":"node:4680479438","kind":"peak","name":"A Aguia de Fóra","lat":43.3612125,"lon":-8.8338299,"elevationM":null},{"id":"node:4682179294","kind":"peak","name":"O Picote da Atalaia","lat":43.3253324,"lon":-8.8080417,"elevationM":62},{"id":"node:4682365136","kind":"peak","name":"O Castro","lat":43.3346045,"lon":-8.8433639,"elevationM":158},{"id":"node:4823148591","kind":"peak","name":"O Casal","lat":43.5567007,"lon":-8.1201111,"elevationM":364},{"id":"node:4829238089","kind":"peak","name":"As Campaíñas","lat":43.5088169,"lon":-8.2839333,"elevationM":294},{"id":"node:4888393331","kind":"peak","name":"Pena Grande do Castro","lat":43.5534344,"lon":-8.2382608,"elevationM":304},{"id":"node:4888423165","kind":"peak","name":"Coto das Penas","lat":43.5738994,"lon":-8.2180263,"elevationM":204},{"id":"node:4971955100","kind":"peak","name":"Alto de Penedos","lat":43.008397,"lon":-8.2981193,"elevationM":360},{"id":"node:5045168550","kind":"peak","name":"Marco de Cubela","lat":43.2086972,"lon":-8.2277195,"elevationM":null},{"id":"node:5264045738","kind":"peak","name":"O Monte Moruxo","lat":43.3403369,"lon":-8.231989,"elevationM":null},{"id":"node:5401079440","kind":"peak","name":"Queo","lat":43.240193,"lon":-8.6662295,"elevationM":186},{"id":"node:5401079446","kind":"peak","name":"Monte de Santa Lucía","lat":43.2008858,"lon":-8.6699119,"elevationM":203},{"id":"node:5401079448","kind":"peak","name":"Petón de Carracedo","lat":43.1890417,"lon":-8.6813098,"elevationM":184},{"id":"node:5401079450","kind":"peak","name":"Petón de San Mamede","lat":43.1867723,"lon":-8.6678953,"elevationM":221},{"id":"node:5401079452","kind":"peak","name":"O Petón","lat":43.1570645,"lon":-8.6507984,"elevationM":366},{"id":"node:5401079454","kind":"peak","name":"Petón do Sestelo","lat":43.1600129,"lon":-8.6546825,"elevationM":339},{"id":"node:5401079456","kind":"peak","name":"Montes de Rus","lat":43.1523889,"lon":-8.6606006,"elevationM":331},{"id":"node:5401079462","kind":"peak","name":"Somido","lat":43.1472525,"lon":-8.6723493,"elevationM":292},{"id":"node:5401079476","kind":"peak","name":"O Calvario","lat":43.2193793,"lon":-8.6681847,"elevationM":159},{"id":"node:5401079481","kind":"peak","name":"O Bico do Castro","lat":43.2423542,"lon":-8.7349503,"elevationM":155},{"id":"node:5401079482","kind":"peak","name":"Os Peóns","lat":43.2380971,"lon":-8.72983,"elevationM":197},{"id":"node:5401079487","kind":"peak","name":"Monte do Couto","lat":43.2281512,"lon":-8.7237716,"elevationM":211},{"id":"node:5401079491","kind":"peak","name":"As Costoias","lat":43.2224525,"lon":-8.7205539,"elevationM":209},{"id":"node:5401079498","kind":"peak","name":"Alto da Pena","lat":43.2319267,"lon":-8.7554316,"elevationM":136},{"id":"node:5401079499","kind":"peak","name":"Monte Ceán","lat":43.2467578,"lon":-8.7631822,"elevationM":254},{"id":"node:5401079501","kind":"peak","name":"Monte Seixa","lat":43.2442287,"lon":-8.7659878,"elevationM":249},{"id":"node:5401079502","kind":"peak","name":"San Amaro","lat":43.2477157,"lon":-8.7747555,"elevationM":222},{"id":"node:5401079510","kind":"peak","name":"Cedreiro","lat":43.2322668,"lon":-8.7843002,"elevationM":221},{"id":"node:5401079512","kind":"peak","name":"Alto do Fruxil","lat":43.2358679,"lon":-8.7708802,"elevationM":216},{"id":"node:5401079514","kind":"peak","name":"Monte do Vilar","lat":43.2280937,"lon":-8.7730721,"elevationM":184},{"id":"node:5401079516","kind":"peak","name":"Monte do Reigoso","lat":43.2182995,"lon":-8.7510127,"elevationM":145},{"id":"node:5401080822","kind":"peak","name":"Penelas","lat":43.2168555,"lon":-8.7754525,"elevationM":122},{"id":"node:5401080835","kind":"peak","name":"O Outeiro","lat":43.2018349,"lon":-8.6942465,"elevationM":163},{"id":"node:5401080840","kind":"peak","name":"Petón da Varela","lat":43.1824059,"lon":-8.7134608,"elevationM":161},{"id":"node:5401080849","kind":"peak","name":"Cotón","lat":43.1714266,"lon":-8.7497337,"elevationM":285},{"id":"node:5401080852","kind":"peak","name":"As Pedras do Castro","lat":43.1749191,"lon":-8.7866357,"elevationM":288},{"id":"node:5401080854","kind":"peak","name":"Monte da Rebola","lat":43.1697781,"lon":-8.7874686,"elevationM":295},{"id":"node:5401080856","kind":"peak","name":"A Costa","lat":43.1651035,"lon":-8.788398,"elevationM":308},{"id":"node:5401080864","kind":"peak","name":"Montes da Caamaña","lat":43.1474188,"lon":-8.7956839,"elevationM":388},{"id":"node:5401080874","kind":"peak","name":"Monte da Rabadeira","lat":43.1600449,"lon":-8.7556946,"elevationM":314},{"id":"node:5401080876","kind":"peak","name":"Os Altiños","lat":43.1519988,"lon":-8.7428149,"elevationM":303},{"id":"node:5401080878","kind":"peak","name":"Penavia","lat":43.1532908,"lon":-8.7370984,"elevationM":288},{"id":"node:5401080891","kind":"peak","name":"A Peniqueira","lat":43.1709854,"lon":-8.6660022,"elevationM":353},{"id":"node:5430234872","kind":"peak","name":"Illa do Pé","lat":43.3842842,"lon":-8.412928,"elevationM":8},{"id":"node:5430234875","kind":"peak","name":"Torre de Hércules","lat":43.3859201,"lon":-8.4065187,"elevationM":60},{"id":"node:5430234876","kind":"peak","name":"Monte Alto","lat":43.380346,"lon":-8.4045234,"elevationM":67},{"id":"node:5430234879","kind":"peak","name":"A Zambela","lat":43.382826,"lon":-8.4366037,"elevationM":5},{"id":"node:5430234881","kind":"peak","name":"Illa do Aguillón","lat":43.3824966,"lon":-8.4463611,"elevationM":6},{"id":"node:5430234883","kind":"peak","name":"As Tres Illas","lat":43.3806611,"lon":-8.4474764,"elevationM":13},{"id":"node:5430234885","kind":"peak","name":"Monte das Cruces","lat":43.3732583,"lon":-8.4398619,"elevationM":105},{"id":"node:5430234887","kind":"peak","name":"Monte de San Pedro","lat":43.3771584,"lon":-8.4362864,"elevationM":139},{"id":"node:5430234889","kind":"peak","name":"Illa do Pé","lat":43.3789712,"lon":-8.4491743,"elevationM":14},{"id":"node:5430234890","kind":"peak","name":"Illa de Vendaval","lat":43.3769859,"lon":-8.4514487,"elevationM":13},{"id":"node:5430234891","kind":"peak","name":"Illa Redonda","lat":43.3704559,"lon":-8.4584583,"elevationM":9},{"id":"node:5430234892","kind":"peak","name":"A Galera","lat":43.3663424,"lon":-8.4528797,"elevationM":164},{"id":"node:5430234893","kind":"peak","name":"Monte Cortigueiro","lat":43.3670465,"lon":-8.4517479,"elevationM":164},{"id":"node:5430234895","kind":"peak","name":"O Picoto","lat":43.3669714,"lon":-8.4487934,"elevationM":164},{"id":"node:5430234896","kind":"peak","name":"Outeiro","lat":43.3590508,"lon":-8.4199803,"elevationM":72},{"id":"node:5430234899","kind":"peak","name":"Os Montalbos","lat":43.3657319,"lon":-8.43586,"elevationM":144},{"id":"node:5430234904","kind":"peak","name":"O Castelo","lat":43.3598728,"lon":-8.4385446,"elevationM":137},{"id":"node:5430234905","kind":"peak","name":"Penamoa","lat":43.3615865,"lon":-8.4383768,"elevationM":159},{"id":"node:5430234906","kind":"peak","name":"Pedroso","lat":43.3524175,"lon":-8.4156729,"elevationM":57},{"id":"node:5430234908","kind":"peak","name":"Outeiro de Santa Margarida","lat":43.3618314,"lon":-8.4127411,"elevationM":61},{"id":"node:5430273744","kind":"peak","name":"Castelo","lat":43.2956645,"lon":-8.5338922,"elevationM":215},{"id":"node:5430273746","kind":"peak","name":"Barbeito","lat":43.3058499,"lon":-8.5358331,"elevationM":239},{"id":"node:5430273748","kind":"peak","name":"A Cabreira","lat":43.3158179,"lon":-8.5219932,"elevationM":133},{"id":"node:5430273750","kind":"peak","name":"O Monte de San Tirso","lat":43.3243756,"lon":-8.5056483,"elevationM":75},{"id":"node:5430273751","kind":"peak","name":"O Petón","lat":43.3183303,"lon":-8.5168506,"elevationM":69},{"id":"node:5430273753","kind":"peak","name":"Laxobre","lat":43.3131561,"lon":-8.4918427,"elevationM":99},{"id":"node:5430273760","kind":"peak","name":"O Froxel","lat":43.3223245,"lon":-8.4788264,"elevationM":152},{"id":"node:5430273764","kind":"peak","name":"Monte do Espinle","lat":43.3190061,"lon":-8.4546145,"elevationM":207},{"id":"node:5430273766","kind":"peak","name":"Pedra Loureira","lat":43.3312786,"lon":-8.4534061,"elevationM":192},{"id":"node:5430273773","kind":"peak","name":"Monte das Regas","lat":43.3293943,"lon":-8.4758982,"elevationM":193},{"id":"node:5430273782","kind":"peak","name":"A Seixeira","lat":43.34173,"lon":-8.4895149,"elevationM":121},{"id":"node:5430273793","kind":"peak","name":"A Pedrada","lat":43.349901,"lon":-8.4647952,"elevationM":177},{"id":"node:5430273795","kind":"peak","name":"Monticaño","lat":43.3443636,"lon":-8.470002,"elevationM":239},{"id":"node:5430273799","kind":"peak","name":"O Manxoeiro","lat":43.3352871,"lon":-8.4795052,"elevationM":197},{"id":"node:5430273801","kind":"peak","name":"Monticaño","lat":43.3389119,"lon":-8.4721613,"elevationM":244},{"id":"node:5432459456","kind":"peak","name":"Monte Pichoutos","lat":43.3439856,"lon":-8.422781,"elevationM":89},{"id":"node:5432460650","kind":"peak","name":"Monte Runs","lat":43.3055192,"lon":-8.3933989,"elevationM":188},{"id":"node:5432460652","kind":"peak","name":"Monte Alfeirán","lat":43.3224048,"lon":-8.3898374,"elevationM":157},{"id":"node:5432460655","kind":"peak","name":"Baralla","lat":43.3131351,"lon":-8.4017274,"elevationM":144},{"id":"node:5432460656","kind":"peak","name":"Monte da Zapateira","lat":43.3071738,"lon":-8.4105428,"elevationM":236},{"id":"node:5432460657","kind":"peak","name":"Arteaga","lat":43.2952887,"lon":-8.415083,"elevationM":247},{"id":"node:5432460658","kind":"peak","name":"Coto de Ulleiro","lat":43.2984647,"lon":-8.4124625,"elevationM":236},{"id":"node:5432460660","kind":"peak","name":"O Outeiro","lat":43.2946747,"lon":-8.4074801,"elevationM":207},{"id":"node:5432460661","kind":"peak","name":"Monte de San Miguel","lat":43.2928738,"lon":-8.3949849,"elevationM":195},{"id":"node:5432460664","kind":"peak","name":"Coto de Fontemaior","lat":43.299185,"lon":-8.3885686,"elevationM":186},{"id":"node:5432460665","kind":"peak","name":"Monte Río Chan","lat":43.3010102,"lon":-8.3979597,"elevationM":205},{"id":"node:5432460666","kind":"peak","name":"Monte das Arcas","lat":43.3056583,"lon":-8.4272792,"elevationM":291},{"id":"node:5432460667","kind":"peak","name":"Monte Aberto","lat":43.308676,"lon":-8.4254779,"elevationM":273},{"id":"node:5432460672","kind":"peak","name":"O Castelo","lat":43.316887,"lon":-8.4328704,"elevationM":159},{"id":"node:5432460677","kind":"peak","name":"O Coto","lat":43.3229889,"lon":-8.4151327,"elevationM":169},{"id":"node:5432460678","kind":"peak","name":"O Penasquedo","lat":43.3208843,"lon":-8.4143104,"elevationM":198},{"id":"node:5432460679","kind":"peak","name":"Monte do Castro","lat":43.3296572,"lon":-8.4161696,"elevationM":118},{"id":"node:5532084052","kind":"peak","name":"Monte Patelo","lat":43.3412797,"lon":-8.4343619,"elevationM":null},{"id":"node:5571280877","kind":"peak","name":"A Pena","lat":43.4017693,"lon":-8.3228206,"elevationM":58},{"id":"node:5571280881","kind":"peak","name":"Lorbé","lat":43.3960614,"lon":-8.3071941,"elevationM":121},{"id":"node:5571280889","kind":"peak","name":"Monte das Monxas","lat":43.364559,"lon":-8.3065934,"elevationM":135},{"id":"node:5571280893","kind":"peak","name":"Meirás","lat":43.3627314,"lon":-8.2980358,"elevationM":156},{"id":"node:5571280896","kind":"peak","name":"O Castro","lat":43.3651831,"lon":-8.3328859,"elevationM":109},{"id":"node:5571281479","kind":"peak","name":"A Marola","lat":43.4064556,"lon":-8.3359732,"elevationM":22},{"id":"node:5571282153","kind":"peak","name":"Monte Grande","lat":43.3943981,"lon":-8.3456206,"elevationM":49},{"id":"node:5571282155","kind":"peak","name":"Vixía de Suviña","lat":43.3927729,"lon":-8.3351353,"elevationM":97},{"id":"node:5571282156","kind":"peak","name":"O Seixo Branco","lat":43.3959537,"lon":-8.3497382,"elevationM":39},{"id":"node:5571282162","kind":"peak","name":"Illa do Portelo","lat":43.3756067,"lon":-8.3413527,"elevationM":9},{"id":"node:5571282165","kind":"peak","name":"O Coruto","lat":43.3826738,"lon":-8.3512775,"elevationM":81},{"id":"node:5571282168","kind":"peak","name":"Monte Meán","lat":43.3875216,"lon":-8.3451285,"elevationM":62},{"id":"node:5589319153","kind":"peak","name":"Coto dos Cregos","lat":43.0193836,"lon":-8.2731912,"elevationM":351},{"id":"node:5589319155","kind":"peak","name":"San Nicolao","lat":43.0574973,"lon":-8.2996496,"elevationM":420},{"id":"node:5764455427","kind":"peak","name":"A Parameira","lat":43.2796561,"lon":-8.497835,"elevationM":297},{"id":"node:5764455428","kind":"peak","name":"As Pontellas","lat":43.2897156,"lon":-8.5044723,"elevationM":128},{"id":"node:5764455429","kind":"peak","name":"Coto Redondo","lat":43.2845594,"lon":-8.5005381,"elevationM":218},{"id":"node:5764455430","kind":"peak","name":"As Lagoas","lat":43.2706212,"lon":-8.5185945,"elevationM":315},{"id":"node:5764455433","kind":"peak","name":"A Carrancova","lat":43.277305,"lon":-8.4973176,"elevationM":316},{"id":"node:5764455435","kind":"peak","name":"Coto dos Corvos","lat":43.2690655,"lon":-8.4613475,"elevationM":275},{"id":"node:5764455437","kind":"peak","name":"A Pedra da Abella","lat":43.2712676,"lon":-8.4636224,"elevationM":254},{"id":"node:5764455440","kind":"peak","name":"Coto de Fortesende","lat":43.2748173,"lon":-8.4671552,"elevationM":228},{"id":"node:5764455443","kind":"peak","name":"As Lamelas","lat":43.280994,"lon":-8.4749523,"elevationM":177},{"id":"node:5764455446","kind":"peak","name":"Coto do Tesouro","lat":43.2744276,"lon":-8.4722402,"elevationM":221},{"id":"node:5764455451","kind":"peak","name":"Martulo","lat":43.2940581,"lon":-8.4804499,"elevationM":119},{"id":"node:5764455452","kind":"peak","name":"As Tocas","lat":43.2878389,"lon":-8.4829456,"elevationM":104},{"id":"node:5764457158","kind":"peak","name":"Pena Loureiro","lat":43.300611,"lon":-8.4794218,"elevationM":116},{"id":"node:5764457159","kind":"peak","name":"Monte do Cura","lat":43.3042207,"lon":-8.4862777,"elevationM":128},{"id":"node:5764457161","kind":"peak","name":"Os Agüeiros","lat":43.3013252,"lon":-8.4864427,"elevationM":133},{"id":"node:5764457167","kind":"peak","name":"Penouqueira","lat":43.3027989,"lon":-8.4978707,"elevationM":116},{"id":"node:5764457171","kind":"peak","name":"A Torreira","lat":43.2822637,"lon":-8.5300894,"elevationM":265},{"id":"node:5764457173","kind":"peak","name":"Bons","lat":43.2754084,"lon":-8.5349113,"elevationM":252},{"id":"node:5764457175","kind":"peak","name":"Vilarchán","lat":43.2754896,"lon":-8.5055875,"elevationM":307},{"id":"node:5764457180","kind":"peak","name":"Coto de Santa Locaia","lat":43.2718554,"lon":-8.4926429,"elevationM":369},{"id":"node:5764457182","kind":"peak","name":"A Pena Murcia","lat":43.2690623,"lon":-8.5032947,"elevationM":333},{"id":"node:5764457183","kind":"peak","name":"Montes de Santa Locaia","lat":43.2675097,"lon":-8.5087991,"elevationM":346},{"id":"node:5764457185","kind":"peak","name":"Monte do Conde","lat":43.2745461,"lon":-8.5154453,"elevationM":321},{"id":"node:5764457186","kind":"peak","name":"O Bernal","lat":43.2779869,"lon":-8.5189068,"elevationM":309},{"id":"node:5764457187","kind":"peak","name":"Subico","lat":43.2856829,"lon":-8.5199148,"elevationM":233},{"id":"node:5764457189","kind":"peak","name":"Coto Subico","lat":43.2921312,"lon":-8.5158646,"elevationM":194},{"id":"node:5764579392","kind":"peak","name":"Monte do Souto","lat":43.283095,"lon":-8.4792746,"elevationM":128},{"id":"node:5764579395","kind":"peak","name":"As Coteiras","lat":43.284423,"lon":-8.4699074,"elevationM":129},{"id":"node:5764579397","kind":"peak","name":"Coto do Corvo","lat":43.2898146,"lon":-8.4696219,"elevationM":103},{"id":"node:5764579398","kind":"peak","name":"Couceiro","lat":43.2971601,"lon":-8.4672801,"elevationM":103},{"id":"node:5764579400","kind":"peak","name":"A Cantiña","lat":43.2940078,"lon":-8.4652104,"elevationM":105},{"id":"node:5764579402","kind":"peak","name":"As Raposas","lat":43.2931572,"lon":-8.4604554,"elevationM":144},{"id":"node:5764579405","kind":"peak","name":"Os Guizos","lat":43.287209,"lon":-8.46265,"elevationM":145},{"id":"node:5764579407","kind":"peak","name":"O Cubelo","lat":43.2837866,"lon":-8.4596614,"elevationM":145},{"id":"node:5764579409","kind":"peak","name":"Pardiñas","lat":43.281033,"lon":-8.4637384,"elevationM":175},{"id":"node:5764579410","kind":"peak","name":"Pedra do Ouro","lat":43.2797795,"lon":-8.4588496,"elevationM":161},{"id":"node:5768824855","kind":"peak","name":"Coto de Campeáns","lat":43.1711863,"lon":-8.5538339,"elevationM":525},{"id":"node:5768824856","kind":"peak","name":"O Candieiro","lat":43.1750189,"lon":-8.5538275,"elevationM":525},{"id":"node:5768824858","kind":"peak","name":"Monte de Teixedo","lat":43.1824142,"lon":-8.5468292,"elevationM":544},{"id":"node:5768824859","kind":"peak","name":"Pedra da Agulla","lat":43.178879,"lon":-8.5471838,"elevationM":554},{"id":"node:5768824860","kind":"peak","name":"Coto de Adrán","lat":43.1830776,"lon":-8.543489,"elevationM":542},{"id":"node:5768824862","kind":"peak","name":"O Coto","lat":43.1828734,"lon":-8.5342066,"elevationM":546},{"id":"node:5768824864","kind":"peak","name":"Os Teixos","lat":43.1805353,"lon":-8.5225765,"elevationM":571},{"id":"node:5768824866","kind":"peak","name":"Monte das Balsas","lat":43.1846317,"lon":-8.4963707,"elevationM":475},{"id":"node:5768824868","kind":"peak","name":"O Outeiro","lat":43.181825,"lon":-8.4919999,"elevationM":406},{"id":"node:5768824871","kind":"peak","name":"Coto dos Teixos","lat":43.1825255,"lon":-8.5093686,"elevationM":536},{"id":"node:5768824875","kind":"peak","name":"Pedra Longa","lat":43.1761231,"lon":-8.5055259,"elevationM":477},{"id":"node:5768824885","kind":"peak","name":"O Tarrulo","lat":43.1524378,"lon":-8.4913636,"elevationM":321},{"id":"node:5768824890","kind":"peak","name":"O Sabugueiro","lat":43.1646343,"lon":-8.4936986,"elevationM":402},{"id":"node:5768824892","kind":"peak","name":"O Penadón","lat":43.1633999,"lon":-8.505704,"elevationM":443},{"id":"node:5768824893","kind":"peak","name":"A Chan","lat":43.1627502,"lon":-8.5098776,"elevationM":448},{"id":"node:5768824898","kind":"peak","name":"As Figueiras","lat":43.1578448,"lon":-8.5092732,"elevationM":464},{"id":"node:5768824906","kind":"peak","name":"Coto de Rodís","lat":43.1528694,"lon":-8.5501248,"elevationM":453},{"id":"node:5768824907","kind":"peak","name":"Petón do Outeiro","lat":43.1579377,"lon":-8.549145,"elevationM":459},{"id":"node:5768824908","kind":"peak","name":"As Canceliñas","lat":43.1568702,"lon":-8.5428782,"elevationM":441},{"id":"node:5768824910","kind":"peak","name":"Pedra Curva","lat":43.153626,"lon":-8.533354,"elevationM":473},{"id":"node:5768824911","kind":"peak","name":"Pedra Chan","lat":43.1583832,"lon":-8.5281052,"elevationM":499},{"id":"node:5768824912","kind":"peak","name":"As Cernadas","lat":43.1584714,"lon":-8.5319416,"elevationM":483},{"id":"node:5768824914","kind":"peak","name":"As Seixas","lat":43.1623233,"lon":-8.5341748,"elevationM":502},{"id":"node:5768824918","kind":"peak","name":"Casa dos Mouros","lat":43.1600864,"lon":-8.5267072,"elevationM":503},{"id":"node:5768824923","kind":"peak","name":"Coto do Castelo","lat":43.1732418,"lon":-8.5316872,"elevationM":507},{"id":"node:5768824926","kind":"peak","name":"Pedra Cedeira","lat":43.1767472,"lon":-8.528541,"elevationM":564},{"id":"node:5768824929","kind":"peak","name":"O Pedregal","lat":43.1737058,"lon":-8.5220739,"elevationM":562},{"id":"node:5768824930","kind":"peak","name":"Cedeira","lat":43.1695852,"lon":-8.525991,"elevationM":595},{"id":"node:5768824937","kind":"peak","name":"As Cerdeiras","lat":43.1659429,"lon":-8.5241193,"elevationM":555},{"id":"node:5993583806","kind":"peak","name":"O Gordo","lat":43.3541245,"lon":-8.8335716,"elevationM":28},{"id":"node:6023669864","kind":"peak","name":"Castrillón","lat":43.3516659,"lon":-8.3942633,"elevationM":62},{"id":"node:6023669866","kind":"peak","name":"A Madosa","lat":43.3427522,"lon":-8.3949783,"elevationM":139},{"id":"node:6023669870","kind":"peak","name":"Monte Mero","lat":43.3371183,"lon":-8.3944204,"elevationM":109},{"id":"node:6077636566","kind":"peak","name":"O Coroto","lat":43.3189796,"lon":-8.3345121,"elevationM":108},{"id":"node:6077636567","kind":"peak","name":"Monte do Castro","lat":43.3151717,"lon":-8.3283734,"elevationM":139},{"id":"node:6378087438","kind":"peak","name":"Pedra do Ferro","lat":43.3211236,"lon":-8.9014942,"elevationM":25},{"id":"node:6380366649","kind":"peak","name":"Beo","lat":43.3331718,"lon":-8.8371822,"elevationM":181},{"id":"node:6504346530","kind":"peak","name":"O Cerro","lat":43.258177,"lon":-8.0736865,"elevationM":313},{"id":"node:6504347056","kind":"peak","name":"Monte de Mántaras","lat":43.2708931,"lon":-8.0885096,"elevationM":312},{"id":"node:6504347057","kind":"peak","name":"O Outeiro de Cela","lat":43.2705178,"lon":-8.1168216,"elevationM":249},{"id":"node:6504347064","kind":"peak","name":"O Outeiro","lat":43.2702899,"lon":-8.1206522,"elevationM":235},{"id":"node:6504347069","kind":"peak","name":"Monte da Espenuca","lat":43.246344,"lon":-8.1345884,"elevationM":291},{"id":"node:6504347071","kind":"peak","name":"A Areosa","lat":43.2505021,"lon":-8.1351846,"elevationM":268},{"id":"node:6504347072","kind":"peak","name":"A Penarredonda","lat":43.2710713,"lon":-8.1322483,"elevationM":242},{"id":"node:6504347075","kind":"peak","name":"O Castelo","lat":43.2680406,"lon":-8.1273371,"elevationM":227},{"id":"node:6504347078","kind":"peak","name":"Monte de Coruxou","lat":43.2649339,"lon":-8.1047336,"elevationM":318},{"id":"node:6504347083","kind":"peak","name":"O Picoto","lat":43.2647439,"lon":-8.088353,"elevationM":301},{"id":"node:6504347085","kind":"peak","name":"As Lamas","lat":43.2618133,"lon":-8.0869519,"elevationM":334},{"id":"node:6504347093","kind":"peak","name":"A Fraga","lat":43.2563127,"lon":-8.1075171,"elevationM":283},{"id":"node:6504347094","kind":"peak","name":"O Penedo","lat":43.2601418,"lon":-8.0964166,"elevationM":369},{"id":"node:6504347095","kind":"peak","name":"O Ciao","lat":43.2611729,"lon":-8.105531,"elevationM":354},{"id":"node:6504347097","kind":"peak","name":"Coto da Gándara","lat":43.2621987,"lon":-8.1102932,"elevationM":356},{"id":"node:6504347105","kind":"peak","name":"As Xielas","lat":43.2535961,"lon":-8.0936294,"elevationM":303},{"id":"node:6504347108","kind":"peak","name":"O Coto","lat":43.2471149,"lon":-8.0997777,"elevationM":285},{"id":"node:6504347110","kind":"peak","name":"A Filgueira","lat":43.2440803,"lon":-8.1087431,"elevationM":231},{"id":"node:6504347115","kind":"peak","name":"Monte do Casal","lat":43.2474134,"lon":-8.1167545,"elevationM":283},{"id":"node:6504347116","kind":"peak","name":"As Balsas","lat":43.2534333,"lon":-8.119348,"elevationM":203},{"id":"node:6504347123","kind":"peak","name":"As Fervenzas","lat":43.259116,"lon":-8.1312794,"elevationM":173},{"id":"node:6548647106","kind":"peak","name":"San Mamede","lat":43.3861482,"lon":-8.2723042,"elevationM":18},{"id":"node:6548647108","kind":"peak","name":"O Coto","lat":43.3774631,"lon":-8.2865566,"elevationM":96},{"id":"node:6548647109","kind":"peak","name":"Monte de Lácere","lat":43.3715705,"lon":-8.2909461,"elevationM":114},{"id":"node:6548647114","kind":"peak","name":"O Corno de Lourido","lat":43.3805862,"lon":-8.2640832,"elevationM":8},{"id":"node:6548647115","kind":"peak","name":"O Calzudo","lat":43.3812377,"lon":-8.2698098,"elevationM":95},{"id":"node:6548647117","kind":"peak","name":"Castro de Taibó","lat":43.3742383,"lon":-8.2813512,"elevationM":138},{"id":"node:6548647119","kind":"peak","name":"Monte de Taibó","lat":43.3797942,"lon":-8.2770974,"elevationM":132},{"id":"node:6548647120","kind":"peak","name":"As Gabeiras","lat":43.3823105,"lon":-8.2792071,"elevationM":123},{"id":"node:6604856923","kind":"peak","name":"Petón do Castelo","lat":43.1864045,"lon":-8.9950736,"elevationM":285},{"id":"node:6604856926","kind":"peak","name":"Castelo de Lourido","lat":43.20705,"lon":-8.9721978,"elevationM":312},{"id":"node:6645099359","kind":"peak","name":"Rubieiro","lat":43.1530936,"lon":-8.3837137,"elevationM":464},{"id":"node:6645099360","kind":"peak","name":"Castro Maior","lat":43.173877,"lon":-8.3298184,"elevationM":478},{"id":"node:6659854183","kind":"peak","name":"Pedra do Lagartón","lat":43.2271218,"lon":-8.9804499,"elevationM":52},{"id":"node:6660100793","kind":"peak","name":"Monte de Toboído","lat":43.2260231,"lon":-8.9490292,"elevationM":56},{"id":"node:6667798962","kind":"peak","name":"Monte de Beo","lat":43.3308258,"lon":-8.8420191,"elevationM":152},{"id":"node:6674352566","kind":"peak","name":"O Cribo","lat":43.3553825,"lon":-8.8343841,"elevationM":16},{"id":"node:6716111449","kind":"peak","name":"Monte das Croas","lat":43.2933368,"lon":-8.8982423,"elevationM":99},{"id":"node:6716111451","kind":"peak","name":"Pedra Longa","lat":43.2926028,"lon":-8.8888653,"elevationM":195},{"id":"node:6716111453","kind":"peak","name":"Monte Asalo","lat":43.2949365,"lon":-8.8894505,"elevationM":223},{"id":"node:6716111457","kind":"peak","name":"Monte Nariga","lat":43.3011687,"lon":-8.8843667,"elevationM":195},{"id":"node:6716111474","kind":"peak","name":"Pedra da Vela","lat":43.3106987,"lon":-8.8923155,"elevationM":209},{"id":"node:6741798614","kind":"peak","name":"Alto das Travesas","lat":43.2399558,"lon":-8.9320847,"elevationM":182},{"id":"node:6741798618","kind":"peak","name":"Petón dos Loureiros","lat":43.2489177,"lon":-8.9290764,"elevationM":233},{"id":"node:6743618466","kind":"peak","name":"Alto de Monte Meán","lat":43.2904954,"lon":-8.9244443,"elevationM":107},{"id":"node:6743637759","kind":"peak","name":"Canto Branco","lat":43.2553465,"lon":-8.9288079,"elevationM":null},{"id":"node:6743637767","kind":"peak","name":"Monte Calvelo","lat":43.2626888,"lon":-8.9234526,"elevationM":233},{"id":"node:6743679297","kind":"peak","name":"Monte da Serra","lat":43.2692925,"lon":-8.9144548,"elevationM":202},{"id":"node:6743679300","kind":"peak","name":"Alto da Costa de Carballido","lat":43.2708237,"lon":-8.9053996,"elevationM":196},{"id":"node:6743679313","kind":"peak","name":"Monte do Faro","lat":43.2788304,"lon":-8.9148902,"elevationM":229},{"id":"node:6743679317","kind":"peak","name":"Monte da Barda","lat":43.2827698,"lon":-8.9132403,"elevationM":213},{"id":"node:6745301816","kind":"peak","name":"Alve","lat":43.2867004,"lon":-8.9548325,"elevationM":142},{"id":"node:6745301828","kind":"peak","name":"Eiras","lat":43.2926944,"lon":-8.9514335,"elevationM":26},{"id":"node:6776873498","kind":"peak","name":"Monte da Lagoa","lat":43.302354,"lon":-8.9031322,"elevationM":136},{"id":"node:7040974327","kind":"peak","name":"Coto da Medorra","lat":43.0021929,"lon":-8.1623936,"elevationM":499},{"id":"node:7040974331","kind":"peak","name":"O Carballal","lat":43.0046052,"lon":-8.1530351,"elevationM":486},{"id":"node:7040974334","kind":"peak","name":"Monte da Abeleira","lat":43.0022266,"lon":-8.1455483,"elevationM":471},{"id":"node:7040974351","kind":"peak","name":"O Outeiro","lat":43.0447466,"lon":-8.1683923,"elevationM":395},{"id":"node:7040974367","kind":"peak","name":"O Toxeiro","lat":43.0443093,"lon":-8.1445357,"elevationM":461},{"id":"node:7040974383","kind":"peak","name":"O Seixo","lat":43.0220041,"lon":-8.1183318,"elevationM":509},{"id":"node:7040974385","kind":"peak","name":"Monte de Boimil","lat":43.0210396,"lon":-8.1147265,"elevationM":505},{"id":"node:7040974395","kind":"peak","name":"Coto da Igrexa","lat":43.0128622,"lon":-8.0972214,"elevationM":489},{"id":"node:7040974398","kind":"peak","name":"Coto da Pedreira","lat":43.0088011,"lon":-8.0904096,"elevationM":524},{"id":"node:7040974404","kind":"peak","name":"Coto da Roda","lat":43.0022715,"lon":-8.0802993,"elevationM":565},{"id":"node:7152620001","kind":"peak","name":"Candelario","lat":43.1886805,"lon":-8.1861758,"elevationM":396},{"id":"node:7152620002","kind":"peak","name":"A Peteira","lat":43.1660246,"lon":-8.17507,"elevationM":411},{"id":"node:7152620003","kind":"peak","name":"A Hedreira","lat":43.1618183,"lon":-8.2041011,"elevationM":473},{"id":"node:7152620004","kind":"peak","name":"Montes de Brufe","lat":43.1564896,"lon":-8.1990649,"elevationM":467},{"id":"node:7152620006","kind":"peak","name":"Coto de San Gregorio","lat":43.1502262,"lon":-8.1820527,"elevationM":497},{"id":"node:7152620007","kind":"peak","name":"Monte Cadaval","lat":43.1481697,"lon":-8.1896285,"elevationM":486},{"id":"node:7152620008","kind":"peak","name":"O Espiño","lat":43.1491854,"lon":-8.192413,"elevationM":483},{"id":"node:7152620009","kind":"peak","name":"Monte da Forcada","lat":43.1628887,"lon":-8.1745683,"elevationM":432},{"id":"node:7152620010","kind":"peak","name":"Outeiro da Zanca","lat":43.1858419,"lon":-8.1547706,"elevationM":443},{"id":"node:7152620011","kind":"peak","name":"Monte de Riocovo","lat":43.1826585,"lon":-8.1597982,"elevationM":421},{"id":"node:7152620012","kind":"peak","name":"Monte da Pena Branca","lat":43.1785036,"lon":-8.1657453,"elevationM":311},{"id":"node:7152620013","kind":"peak","name":"Coto dos Seixos","lat":43.1776951,"lon":-8.1846095,"elevationM":415},{"id":"node:7152620014","kind":"peak","name":"Monte da Vacariza","lat":43.1795126,"lon":-8.1876604,"elevationM":435},{"id":"node:7227301136","kind":"peak","name":"Monte da Fieiteira","lat":43.3348072,"lon":-8.4395692,"elevationM":null},{"id":"node:7227301137","kind":"peak","name":"Monte dos Chans","lat":43.3384404,"lon":-8.4353091,"elevationM":null},{"id":"node:7234338065","kind":"peak","name":"Penedo de Muros","lat":43.1996393,"lon":-8.1110332,"elevationM":526},{"id":"node:7234338073","kind":"peak","name":"A Pena da Cruz","lat":43.1945525,"lon":-8.1038196,"elevationM":543},{"id":"node:7234338079","kind":"peak","name":"O Petón","lat":43.1909032,"lon":-8.089832,"elevationM":558},{"id":"node:7234338082","kind":"peak","name":"Avea","lat":43.192341,"lon":-8.0964775,"elevationM":556},{"id":"node:7234338086","kind":"peak","name":"Pena Moura","lat":43.1911454,"lon":-8.1025977,"elevationM":554},{"id":"node:7234338090","kind":"peak","name":"Penedo Samil","lat":43.1891449,"lon":-8.1029836,"elevationM":555},{"id":"node:7234338106","kind":"peak","name":"Os Pereiros","lat":43.1666574,"lon":-8.125664,"elevationM":531},{"id":"node:7234338111","kind":"peak","name":"Monte da Cruz","lat":43.1560009,"lon":-8.1341852,"elevationM":522},{"id":"node:7234338112","kind":"peak","name":"Coto de Picoi","lat":43.1304936,"lon":-8.1772361,"elevationM":541},{"id":"node:7234338176","kind":"peak","name":"Pena do Corvo","lat":43.1556099,"lon":-8.1552471,"elevationM":521},{"id":"node:7234338187","kind":"peak","name":"Monte do Pardiñeiro","lat":43.1533501,"lon":-8.1341798,"elevationM":525},{"id":"node:7234338198","kind":"peak","name":"A Carriceira","lat":43.1422065,"lon":-8.1304016,"elevationM":546},{"id":"node:7234338205","kind":"peak","name":"Monte do Codeso","lat":43.1392305,"lon":-8.1162585,"elevationM":551},{"id":"node:7234338208","kind":"peak","name":"Monte da Graña","lat":43.1377171,"lon":-8.1071638,"elevationM":569},{"id":"node:7234338218","kind":"peak","name":"Croios Brancos","lat":43.1302941,"lon":-8.0956415,"elevationM":561},{"id":"node:7234338227","kind":"peak","name":"Monte da Nabeira","lat":43.1220722,"lon":-8.0849979,"elevationM":563},{"id":"node:7234338234","kind":"peak","name":"Pena Grande da Revolta","lat":43.1169868,"lon":-8.0730146,"elevationM":591},{"id":"node:7234338249","kind":"peak","name":"Santaia","lat":43.1150543,"lon":-8.041931,"elevationM":536},{"id":"node:7234338258","kind":"peak","name":"As Zancas","lat":43.1069712,"lon":-8.0324772,"elevationM":553},{"id":"node:7234338264","kind":"peak","name":"Pena Parda","lat":43.0968404,"lon":-8.024299,"elevationM":584},{"id":"node:7234338270","kind":"peak","name":"Penas Xoanas","lat":43.091702,"lon":-8.0198186,"elevationM":572},{"id":"node:7234338274","kind":"peak","name":"Adamonde","lat":43.0860895,"lon":-8.0170855,"elevationM":598},{"id":"node:7234338277","kind":"peak","name":"Monte da Corda","lat":43.0810481,"lon":-8.0176428,"elevationM":601},{"id":"node:7234338279","kind":"peak","name":"Monte do Couso","lat":43.0789499,"lon":-8.0162815,"elevationM":601},{"id":"node:7234338282","kind":"peak","name":"Monte Vello","lat":43.0779635,"lon":-8.0097111,"elevationM":594},{"id":"node:7234338294","kind":"peak","name":"O Penedo","lat":43.0677849,"lon":-8.002669,"elevationM":565},{"id":"node:7234363832","kind":"peak","name":"Pena do Sal","lat":43.2233799,"lon":-8.0817395,"elevationM":537},{"id":"node:7234905253","kind":"peak","name":"Monte de Vilares","lat":43.1277361,"lon":-8.1182468,"elevationM":541},{"id":"node:7234905259","kind":"peak","name":"Coto Grande","lat":43.163022,"lon":-8.1084286,"elevationM":511},{"id":"node:7234905267","kind":"peak","name":"O Golpe","lat":43.1545622,"lon":-8.1096505,"elevationM":526},{"id":"node:7234905271","kind":"peak","name":"Monte da Souteira","lat":43.1461011,"lon":-8.1084715,"elevationM":555},{"id":"node:7234905276","kind":"peak","name":"A Ratona","lat":43.1383272,"lon":-8.102169,"elevationM":571},{"id":"node:7234905280","kind":"peak","name":"O Enxameado","lat":43.11831,"lon":-8.0685812,"elevationM":601},{"id":"node:7250133364","kind":"peak","name":"Monte da Louseira","lat":43.4482344,"lon":-8.2776168,"elevationM":209},{"id":"node:7286514281","kind":"peak","name":"Coto de Bregua","lat":43.270295,"lon":-8.4363616,"elevationM":305},{"id":"node:7286514349","kind":"peak","name":"Carboeiro","lat":43.2526778,"lon":-8.4739943,"elevationM":409},{"id":"node:7286514363","kind":"peak","name":"Castro de Santa Baia","lat":43.236219,"lon":-8.4727081,"elevationM":323},{"id":"node:7286514409","kind":"peak","name":"Montes do Castro","lat":43.2457138,"lon":-8.4408741,"elevationM":416},{"id":"node:7286514420","kind":"peak","name":"Pena Sombreira","lat":43.2429341,"lon":-8.4368546,"elevationM":434},{"id":"node:7286514430","kind":"peak","name":"Chan de Paraños","lat":43.2368905,"lon":-8.436308,"elevationM":419},{"id":"node:7286514451","kind":"peak","name":"Alto de Anxelio","lat":43.224817,"lon":-8.4162001,"elevationM":520},{"id":"node:7286514454","kind":"peak","name":"Coto das Bestas","lat":43.2265665,"lon":-8.4212163,"elevationM":515},{"id":"node:7286514460","kind":"peak","name":"Pena Negra","lat":43.2233103,"lon":-8.427981,"elevationM":514},{"id":"node:7286514468","kind":"peak","name":"Quenlla da Grela","lat":43.2232355,"lon":-8.4435,"elevationM":490},{"id":"node:7286514500","kind":"peak","name":"Medorra","lat":43.1988032,"lon":-8.4623111,"elevationM":364},{"id":"node:7286514514","kind":"peak","name":"Trixezo","lat":43.2093115,"lon":-8.5227355,"elevationM":526},{"id":"node:7286514523","kind":"peak","name":"Coto de Altamira","lat":43.2113405,"lon":-8.5044637,"elevationM":503},{"id":"node:7286514534","kind":"peak","name":"Pedrouzos","lat":43.2164511,"lon":-8.4886803,"elevationM":521},{"id":"node:7286514550","kind":"peak","name":"Coto do Vasco","lat":43.202345,"lon":-8.4865382,"elevationM":452},{"id":"node:7286514593","kind":"peak","name":"Monte de Pantín","lat":43.1628188,"lon":-8.4316991,"elevationM":431},{"id":"node:7286514774","kind":"peak","name":"Monte de Cotá","lat":43.1328989,"lon":-8.1861271,"elevationM":525},{"id":"node:7328986263","kind":"peak","name":"Coto de Loureiro","lat":43.2051346,"lon":-8.5283935,"elevationM":547},{"id":"node:7328986271","kind":"peak","name":"Pedra da Cabra","lat":43.1965111,"lon":-8.5285847,"elevationM":552},{"id":"node:7328986276","kind":"peak","name":"Coto Vello","lat":43.1930831,"lon":-8.5245247,"elevationM":561},{"id":"node:7328986281","kind":"peak","name":"Coto de Silvaescura","lat":43.1953916,"lon":-8.510137,"elevationM":503},{"id":"node:7329080410","kind":"peak","name":"Cotovil","lat":43.1903396,"lon":-8.5181952,"elevationM":552},{"id":"node:7329080421","kind":"peak","name":"Coto de Abelleira","lat":43.1854919,"lon":-8.5250566,"elevationM":543},{"id":"node:7329080595","kind":"peak","name":"Monte Gandón","lat":43.0950132,"lon":-8.6908608,"elevationM":541},{"id":"node:7329080602","kind":"peak","name":"O Castelo","lat":43.0857686,"lon":-8.6881881,"elevationM":563},{"id":"node:7329080613","kind":"peak","name":"A Insua","lat":43.0765226,"lon":-8.6805953,"elevationM":479},{"id":"node:7329080624","kind":"peak","name":"Os Pedrouzos","lat":43.0586677,"lon":-8.6843984,"elevationM":482},{"id":"node:7329080629","kind":"peak","name":"Monte de Cambón","lat":43.0540316,"lon":-8.6874732,"elevationM":521},{"id":"node:7329080631","kind":"peak","name":"O Picoto de Arnexo","lat":43.0511861,"lon":-8.6850366,"elevationM":525},{"id":"node:7329080635","kind":"peak","name":"A Pedra Grande","lat":43.0472632,"lon":-8.6919576,"elevationM":492},{"id":"node:7329080654","kind":"peak","name":"Pedra Hermida","lat":43.0306019,"lon":-8.7124638,"elevationM":482},{"id":"node:7329080661","kind":"peak","name":"Pedra Pasadoira","lat":43.0200974,"lon":-8.706639,"elevationM":477},{"id":"node:7329080672","kind":"peak","name":"Pedra Escachada","lat":43.0119754,"lon":-8.7192639,"elevationM":475},{"id":"node:7329080676","kind":"peak","name":"Pedra do Crego","lat":43.0155116,"lon":-8.7256757,"elevationM":476},{"id":"node:7329080687","kind":"peak","name":"Alto da Peralba","lat":43.0179534,"lon":-8.7394982,"elevationM":476},{"id":"node:7329080697","kind":"peak","name":"Alto de Costoia","lat":43.0096487,"lon":-8.7495449,"elevationM":454},{"id":"node:7329080704","kind":"peak","name":"Pedra Simón","lat":43.0036352,"lon":-8.7592898,"elevationM":413},{"id":"node:7329090345","kind":"peak","name":"Pedra Cabaleira","lat":43.0985864,"lon":-8.7031476,"elevationM":515},{"id":"node:7329090348","kind":"peak","name":"Costa Milleira","lat":43.0949757,"lon":-8.6983119,"elevationM":521},{"id":"node:7560987637","kind":"peak","name":"Pedra do Allo","lat":43.0093341,"lon":-8.7186917,"elevationM":486},{"id":"node:7560987641","kind":"peak","name":"Pedra Señora","lat":43.0067128,"lon":-8.7176675,"elevationM":485},{"id":"node:7560987646","kind":"peak","name":"Picotiños","lat":43.0054669,"lon":-8.7133146,"elevationM":481},{"id":"node:7560987652","kind":"peak","name":"Pedra Canaveira","lat":43.0019378,"lon":-8.7131669,"elevationM":485},{"id":"node:7561048305","kind":"peak","name":"Castro de Malvares","lat":43.0398863,"lon":-8.7105142,"elevationM":425},{"id":"node:7561048307","kind":"peak","name":"Raiceiras","lat":43.0363652,"lon":-8.7107917,"elevationM":447},{"id":"node:7561048315","kind":"peak","name":"O Cotón da Garga","lat":43.0405555,"lon":-8.7217505,"elevationM":453},{"id":"node:7561048316","kind":"peak","name":"Cotón de Carboeiro","lat":43.0344394,"lon":-8.7175616,"elevationM":475},{"id":"node:7561048317","kind":"peak","name":"Pedra Penedo","lat":43.0151568,"lon":-8.715703,"elevationM":465},{"id":"node:7564421133","kind":"peak","name":"Pedra do Ferro","lat":43.0526858,"lon":-8.6992993,"elevationM":484},{"id":"node:7564421134","kind":"peak","name":"Alto de Noco","lat":43.0562204,"lon":-8.7066815,"elevationM":462},{"id":"node:7564421135","kind":"peak","name":"Pedra Sebei","lat":43.0596685,"lon":-8.7130018,"elevationM":437},{"id":"node:7564421144","kind":"peak","name":"Monte Maior","lat":43.098896,"lon":-8.718212,"elevationM":513},{"id":"node:7566339066","kind":"peak","name":"Pena Fendida","lat":43.0917165,"lon":-8.7048367,"elevationM":499},{"id":"node:7566365051","kind":"peak","name":"O Meixoeiro","lat":43.1270706,"lon":-8.7605022,"elevationM":459},{"id":"node:7566365058","kind":"peak","name":"Alto de Campelo","lat":43.1316432,"lon":-8.7584224,"elevationM":455},{"id":"node:7566365066","kind":"peak","name":"Campelo","lat":43.1359278,"lon":-8.7563018,"elevationM":452},{"id":"node:7566387299","kind":"peak","name":"O Montiño","lat":43.1242232,"lon":-8.7339223,"elevationM":403},{"id":"node:7847746632","kind":"peak","name":"Pé do Muíño","lat":43.293511,"lon":-8.9288507,"elevationM":1},{"id":"node:7871682379","kind":"peak","name":"Monte das Pías","lat":43.2355259,"lon":-8.9146754,"elevationM":58},{"id":"node:8004463976","kind":"peak","name":"Monte de Seara","lat":43.5677318,"lon":-8.045573,"elevationM":336},{"id":"node:8004463982","kind":"peak","name":"Moimentos","lat":43.5427769,"lon":-8.076343,"elevationM":114},{"id":"node:8004463996","kind":"peak","name":"O Pico","lat":43.5496972,"lon":-8.0952957,"elevationM":303},{"id":"node:8004464000","kind":"peak","name":"Monte do Pedroso","lat":43.5522496,"lon":-8.0962728,"elevationM":302},{"id":"node:8004464018","kind":"peak","name":"Coto da Pena Longa","lat":43.6164604,"lon":-8.1847878,"elevationM":45},{"id":"node:8004464024","kind":"peak","name":"Monte de Meirás","lat":43.6118141,"lon":-8.1867421,"elevationM":41},{"id":"node:8004464040","kind":"peak","name":"A Lameira","lat":43.5837568,"lon":-8.1829414,"elevationM":52},{"id":"node:8004464057","kind":"peak","name":"Coto do Vilar","lat":43.5661162,"lon":-8.1460319,"elevationM":162},{"id":"node:8004464138","kind":"peak","name":"Pena do Lagarto","lat":43.5665946,"lon":-8.0505222,"elevationM":327},{"id":"node:8004464152","kind":"peak","name":"Coto do Rapadoiro","lat":43.5531216,"lon":-8.0493338,"elevationM":321},{"id":"node:8004464172","kind":"peak","name":"Penarrachada","lat":43.5543083,"lon":-8.0242712,"elevationM":298},{"id":"node:8191483760","kind":"peak","name":"Coto da Agrela","lat":43.0561777,"lon":-8.4353126,"elevationM":311},{"id":"node:8191483761","kind":"peak","name":"Cruz do Monte","lat":43.0291428,"lon":-8.4492314,"elevationM":327},{"id":"node:8191483762","kind":"peak","name":"Pena Negra","lat":43.0269126,"lon":-8.4640127,"elevationM":null},{"id":"node:8191483763","kind":"peak","name":"Mercurín","lat":43.1132031,"lon":-8.4383651,"elevationM":428},{"id":"node:8322553677","kind":"peak","name":"Castro de Freixeiro","lat":43.0165091,"lon":-8.762691,"elevationM":395},{"id":"node:8322553684","kind":"peak","name":"O Castro","lat":43.0135732,"lon":-8.7563315,"elevationM":418},{"id":"node:8898469121","kind":"peak","name":"Pena do Raposo","lat":43.2069174,"lon":-8.9307805,"elevationM":241},{"id":"node:8979423524","kind":"peak","name":"Monte de Allariz","lat":43.2636158,"lon":-8.9680983,"elevationM":56},{"id":"node:9397193104","kind":"peak","name":"Parada","lat":43.1935141,"lon":-8.486077,"elevationM":409},{"id":"node:9405640186","kind":"peak","name":"Monte da Brea","lat":43.3020239,"lon":-8.5669971,"elevationM":153},{"id":"node:9405640189","kind":"peak","name":"Monte da Vila","lat":43.2998689,"lon":-8.570087,"elevationM":151},{"id":"node:9405642617","kind":"peak","name":"Picoto da Veiga","lat":43.2810014,"lon":-8.5811806,"elevationM":262},{"id":"node:9405642627","kind":"peak","name":"Monte da Pedra Vella","lat":43.2865623,"lon":-8.5804939,"elevationM":213},{"id":"node:9405642647","kind":"peak","name":"Pedra Arcela","lat":43.2995097,"lon":-8.5958576,"elevationM":277},{"id":"node:9405642650","kind":"peak","name":"A Castañeira","lat":43.2950276,"lon":-8.606565,"elevationM":243},{"id":"node:9405642786","kind":"peak","name":"A Ferreira","lat":43.3025704,"lon":-8.5919738,"elevationM":274},{"id":"node:9405642788","kind":"peak","name":"A Escoitada","lat":43.3005638,"lon":-8.5913837,"elevationM":277},{"id":"node:9405642794","kind":"peak","name":"Monte Alto","lat":43.2969954,"lon":-8.5868025,"elevationM":285},{"id":"node:9405642925","kind":"peak","name":"Lendo","lat":43.2857501,"lon":-8.6022306,"elevationM":306},{"id":"node:9405642935","kind":"peak","name":"Monte da Estrela","lat":43.2903422,"lon":-8.5927248,"elevationM":295},{"id":"node:9405642960","kind":"peak","name":"Pico de Monteagudo","lat":43.2727529,"lon":-8.5722542,"elevationM":223},{"id":"node:9405642990","kind":"peak","name":"Pedra Maior","lat":43.2558148,"lon":-8.5378683,"elevationM":325},{"id":"node:9405643033","kind":"peak","name":"Pedra do Boi Branco","lat":43.2635188,"lon":-8.4923029,"elevationM":384},{"id":"node:9405643400","kind":"peak","name":"O Castelo","lat":43.2238792,"lon":-8.3971596,"elevationM":434},{"id":"node:9405643411","kind":"peak","name":"Monte da Arca Aberta","lat":43.2079754,"lon":-8.3913017,"elevationM":441},{"id":"node:9405643448","kind":"peak","name":"Monte dos Quintos","lat":43.2011842,"lon":-8.4099852,"elevationM":385},{"id":"node:9405643467","kind":"peak","name":"Coto de Guichar","lat":43.202337,"lon":-8.4190357,"elevationM":312},{"id":"node:9405643502","kind":"peak","name":"Monte das Moas","lat":43.2116664,"lon":-8.4083364,"elevationM":456},{"id":"node:9419291736","kind":"peak","name":"Monte de Río","lat":43.2179842,"lon":-8.4384442,"elevationM":438},{"id":"node:9419291742","kind":"peak","name":"Monte de Caroliño","lat":43.2193837,"lon":-8.4322536,"elevationM":485},{"id":"node:9481300851","kind":"peak","name":"O Petón","lat":43.1345487,"lon":-8.4852346,"elevationM":301},{"id":"node:9481300902","kind":"peak","name":"Peneda Branca","lat":43.1331733,"lon":-8.4619257,"elevationM":418},{"id":"node:9481301046","kind":"peak","name":"O Coto","lat":43.1533383,"lon":-8.4688778,"elevationM":381},{"id":"node:10095079799","kind":"peak","name":"Monte de Golán","lat":43.2101038,"lon":-8.538259,"elevationM":513},{"id":"node:10095094029","kind":"peak","name":"Fonte do Ouro","lat":43.2089574,"lon":-8.5480511,"elevationM":519},{"id":"node:10095094045","kind":"peak","name":"Coto do Outeiro","lat":43.2012331,"lon":-8.5424835,"elevationM":511},{"id":"node:12535089079","kind":"peak","name":"Pename","lat":43.498468,"lon":-8.1388406,"elevationM":181},{"id":"node:12535089082","kind":"peak","name":"Pena Branca","lat":43.5304521,"lon":-8.1299057,"elevationM":125},{"id":"node:12535089083","kind":"peak","name":"Pena dos Gatos","lat":43.5322609,"lon":-8.1353569,"elevationM":137},{"id":"node:12535089091","kind":"peak","name":"Coto do Castro","lat":43.4509275,"lon":-8.1472034,"elevationM":312},{"id":"node:12535154814","kind":"peak","name":"Monte do Coto","lat":43.4899277,"lon":-8.2830084,"elevationM":219},{"id":"node:12535154835","kind":"peak","name":"Breamo","lat":43.3994512,"lon":-8.1834381,"elevationM":305},{"id":"node:12535154843","kind":"peak","name":"Monte da Aguieira","lat":43.3448051,"lon":-8.2034608,"elevationM":91},{"id":"node:12535154844","kind":"peak","name":"A Panela","lat":43.3426,"lon":-8.1995721,"elevationM":115},{"id":"node:12535154854","kind":"peak","name":"Santa Marta de Babío","lat":43.3145485,"lon":-8.2532115,"elevationM":188},{"id":"node:12535154887","kind":"peak","name":"Castro Maior","lat":43.173634,"lon":-8.3299031,"elevationM":474},{"id":"node:12535154908","kind":"peak","name":"A Areosa","lat":43.0104759,"lon":-8.3779087,"elevationM":361},{"id":"node:12535676048","kind":"peak","name":"O Campelo","lat":43.4437657,"lon":-8.3081436,"elevationM":73},{"id":"node:12535676074","kind":"peak","name":"Pena Branca","lat":43.5918686,"lon":-8.2155874,"elevationM":86},{"id":"node:12536506946","kind":"peak","name":"O Castelo","lat":43.4824442,"lon":-8.0354933,"elevationM":537},{"id":"node:12536506947","kind":"peak","name":"Pena Daza","lat":43.4796467,"lon":-8.0300129,"elevationM":536},{"id":"node:12536506967","kind":"peak","name":"O Picoto","lat":43.4684588,"lon":-8.0723421,"elevationM":412},{"id":"node:12573705715","kind":"peak","name":"Alto de Fernandiña","lat":43.1985779,"lon":-8.9408566,"elevationM":376},{"id":"node:12914358647","kind":"peak","name":"O Pico de Meda","lat":43.1130972,"lon":-8.8674713,"elevationM":null},{"id":"node:12966993096","kind":"peak","name":"O Picoto","lat":43.264745,"lon":-8.4854562,"elevationM":358}]}