{"tileKey":"la_p16_lo_p48","version":"v1-1775891056926","entries":[{"id":"node:1222510141","kind":"peak","name":"جبل با حسين","lat":16.066667,"lon":48.983333,"elevationM":null},{"id":"node:1222585892","kind":"peak","name":"جبل فريد صرصر","lat":16.885788,"lon":48.234372,"elevationM":null},{"id":"node:1222585904","kind":"peak","name":"جبل فريد دھمة","lat":16.934937,"lon":48.286783,"elevationM":null},{"id":"node:1222592502","kind":"peak","name":"قارة اللبين","lat":16.386866,"lon":48.752293,"elevationM":null},{"id":"node:6937224203","kind":"peak","name":"جبال ليسر","lat":16.942678,"lon":48.212715,"elevationM":null},{"id":"node:6937224540","kind":"peak","name":"جبل فراط الريح","lat":16.8489,"lon":48.17715,"elevationM":null}]}