{"tileKey":"la_p24_lo_p56","version":"v1-1775891056926","entries":[{"id":"node:1719453692","kind":"peak","name":"Jabal Bu Faraj جبل بو فرج","lat":24.8710934,"lon":56.0619576,"elevationM":913},{"id":"node:1719453762","kind":"peak","name":"Jabal Scharab - جبل شرب","lat":24.92086,"lon":56.0270546,"elevationM":740},{"id":"node:1719454120","kind":"peak","name":"Qarn Shuwaynah - قرن شوينة","lat":24.9337555,"lon":56.3500714,"elevationM":70},{"id":"node:1719455141","kind":"peak","name":"Jabal Huwayl جبل هويل","lat":24.750274,"lon":56.235618,"elevationM":458},{"id":"node:1719456310","kind":"peak","name":"جبل طوام","lat":24.6604166,"lon":56.3204692,"elevationM":808},{"id":"node:1719465113","kind":"peak","name":"Jabal Adas جبل عدس","lat":24.6369032,"lon":56.1360909,"elevationM":1054},{"id":"node:1719538074","kind":"peak","name":"قرن قويرة","lat":24.42,"lon":56.02,"elevationM":null},{"id":"node:1719558347","kind":"peak","name":"جبل فياض","lat":24,"lon":56.15,"elevationM":null},{"id":"node:1719558352","kind":"peak","name":"جبل خشة","lat":24.03,"lon":56.13,"elevationM":null},{"id":"node:1719558362","kind":"peak","name":"جبل مقيليت","lat":24.07,"lon":56.25,"elevationM":null},{"id":"node:1720846822","kind":"peak","name":"جبل دهت","lat":24.47,"lon":56.12,"elevationM":null},{"id":"node:1720846835","kind":"peak","name":"Jabal Ghashnah جبل غشنة","lat":24.4291837,"lon":56.1238015,"elevationM":1295},{"id":"node:1720850902","kind":"peak","name":"جبل غويل","lat":24.58,"lon":56,"elevationM":null},{"id":"node:1720850919","kind":"peak","name":"جبل عود غويل","lat":24.6,"lon":56,"elevationM":null},{"id":"node:1720850935","kind":"peak","name":"جبل أم ذوان","lat":24.27,"lon":56,"elevationM":null},{"id":"node:1720854152","kind":"peak","name":"الحجر الغربي","lat":24.17,"lon":56.25,"elevationM":773},{"id":"node:1720854178","kind":"peak","name":"الحجر","lat":24.1700967,"lon":56.2499579,"elevationM":null},{"id":"node:1720854261","kind":"peak","name":"حجر","lat":24.1699082,"lon":56.2499579,"elevationM":null},{"id":"node:1720854329","kind":"peak","name":"جبل ساعة","lat":24.07,"lon":56.05,"elevationM":null},{"id":"node:1720855402","kind":"peak","name":"جبل ختمة","lat":24.02,"lon":56.04,"elevationM":null},{"id":"node:3649947760","kind":"peak","name":"Jabal Azba","lat":24.9422935,"lon":56.3414194,"elevationM":112},{"id":"node:3650258192","kind":"peak","name":"Jabal Jima","lat":24.9075779,"lon":56.0412777,"elevationM":660},{"id":"node:3650258197","kind":"peak","name":"Jabal Sawamia","lat":24.8764733,"lon":56.0512789,"elevationM":740},{"id":"node:8040255785","kind":"peak","name":"Um Alnosoor / Jabal Hatta","lat":24.7432517,"lon":56.0811107,"elevationM":1280},{"id":"node:10755640413","kind":"peak","name":"Jabal Ruwayshid","lat":24.8182563,"lon":56.1781935,"elevationM":438},{"id":"node:10755671049","kind":"peak","name":"Jabal Qimah","lat":24.7948606,"lon":56.1561748,"elevationM":618},{"id":"node:10756061068","kind":"peak","name":"Jabal Abu Samasimah","lat":24.7839114,"lon":56.1194668,"elevationM":550},{"id":"node:10788653316","kind":"peak","name":"Jabal Laim","lat":24.8343113,"lon":56.0695109,"elevationM":420},{"id":"node:10788666620","kind":"peak","name":"Jabal Lishan","lat":24.8006274,"lon":56.0902921,"elevationM":660},{"id":"node:10905832131","kind":"peak","name":"Jibal Al Hiyar","lat":24.9662265,"lon":56.2896559,"elevationM":385},{"id":"node:11513215657","kind":"peak","name":"Najd Milāḩ","lat":24.8195852,"lon":56.2171709,"elevationM":414},{"id":"node:11707711894","kind":"peak","name":"Jabal Al Abyad","lat":24.8276612,"lon":56.0859492,"elevationM":559},{"id":"node:11707745086","kind":"peak","name":"Jabal Dafda","lat":24.8109938,"lon":56.0831561,"elevationM":530},{"id":"node:11722004991","kind":"peak","name":"Jabal Ahmaren","lat":24.8138792,"lon":56.2703718,"elevationM":318},{"id":"node:11729827109","kind":"peak","name":"Qarn Sulayman","lat":24.9144883,"lon":56.3406368,"elevationM":53},{"id":"node:11782897306","kind":"peak","name":"Jibal Al Milhi","lat":24.7951248,"lon":56.0367773,"elevationM":719},{"id":"node:11795165127","kind":"peak","name":"Jabal Qitami","lat":24.788996,"lon":56.2118898,"elevationM":410},{"id":"node:11795239064","kind":"peak","name":"Jabal Rihab","lat":24.802203,"lon":56.2298661,"elevationM":319},{"id":"node:11795475722","kind":"peak","name":"Jabal Al Khasfah","lat":24.9794261,"lon":56.3033659,"elevationM":464},{"id":"node:11807412097","kind":"peak","name":"Jabal Muthaiq","lat":24.9925663,"lon":56.2453521,"elevationM":919},{"id":"node:11874866817","kind":"peak","name":"Jabal Shaykh","lat":24.4619638,"lon":56.4310424,"elevationM":668},{"id":"node:11889148793","kind":"peak","name":"Jabal Abu As Samasim","lat":24.8674513,"lon":56.0423854,"elevationM":542},{"id":"node:11955992922","kind":"peak","name":"Jabal Hawa","lat":24.8817368,"lon":56.0672238,"elevationM":652},{"id":"node:11985844564","kind":"peak","name":"Jabal Al Minyab","lat":24.744448,"lon":56.0654259,"elevationM":1039},{"id":"node:11986311640","kind":"peak","name":"Jabal Al Miqsha","lat":24.9381259,"lon":56.1919171,"elevationM":400},{"id":"node:11986362430","kind":"peak","name":"Jabal Mirebikh","lat":24.9092166,"lon":56.1726462,"elevationM":340},{"id":"node:12121464306","kind":"peak","name":"Jabal Luhaynah","lat":24.2580338,"lon":56.1946621,"elevationM":1198},{"id":"node:12154111628","kind":"peak","name":"Jabal al Hindiyah","lat":24.6769062,"lon":56.0618005,"elevationM":725},{"id":"node:12157785640","kind":"peak","name":"Jabal al Khudayrah","lat":24.4958103,"lon":56.0924954,"elevationM":952},{"id":"node:12170035379","kind":"peak","name":"Jabal Naselah","lat":24.8816701,"lon":56.2792128,"elevationM":178},{"id":"node:12170072810","kind":"peak","name":"Jabal Nasla","lat":24.8669662,"lon":56.2448037,"elevationM":341},{"id":"node:12191427758","kind":"peak","name":"Jabal Ghashabi","lat":24.4973678,"lon":56.2768182,"elevationM":1216},{"id":"node:12199150037","kind":"peak","name":"Jabal Nibah","lat":24.7597921,"lon":56.1546912,"elevationM":596},{"id":"node:12205876250","kind":"peak","name":"Jabal Qadām","lat":24.6549972,"lon":56.3204899,"elevationM":826},{"id":"node:12218828966","kind":"peak","name":"Jabal Mudayrah","lat":24.8401801,"lon":56.0584985,"elevationM":472},{"id":"node:12269932271","kind":"peak","name":"Jabal Al Khanfariyyah","lat":24.7854346,"lon":56.0944009,"elevationM":654},{"id":"node:12269960909","kind":"peak","name":"Jibal Abu Thani","lat":24.783896,"lon":56.0015864,"elevationM":612},{"id":"node:12277039160","kind":"peak","name":"Unnamed Summit","lat":24.6242781,"lon":56.1594346,"elevationM":1306},{"id":"node:12294065160","kind":"peak","name":"Jabal as Sumayn","lat":24.3394256,"lon":56.3258275,"elevationM":990},{"id":"node:12345229663","kind":"peak","name":"Jabal Qallat Sabba","lat":24.7887566,"lon":56.1811134,"elevationM":658}]}