{"tileKey":"la_p58_lo_p9","version":"v1-1775849605232","entries":[{"id":"node:416154875","kind":"peak","name":"Mørjeheia","lat":58.8325614,"lon":9.2541634,"elevationM":212},{"id":"node:446532543","kind":"peak","name":"Sjåen","lat":58.8699306,"lon":9.3581575,"elevationM":152},{"id":"node:446532547","kind":"peak","name":"Storkollen","lat":58.8677883,"lon":9.3801035,"elevationM":154},{"id":"node:924801529","kind":"peak","name":"Lyngdalsknuten","lat":58.8861483,"lon":9.3112903,"elevationM":135},{"id":"node:924801558","kind":"peak","name":"Styrfjell","lat":58.8914082,"lon":9.3115828,"elevationM":130},{"id":"node:924801939","kind":"peak","name":"Kjerrkollen","lat":58.8872841,"lon":9.3224351,"elevationM":176},{"id":"node:982904072","kind":"peak","name":"Skibufjell","lat":58.8765772,"lon":9.3438032,"elevationM":null},{"id":"node:1266054760","kind":"peak","name":"Byttekollen","lat":58.8321175,"lon":9.2973273,"elevationM":null},{"id":"node:1266055109","kind":"peak","name":"Mørkhei","lat":58.8356631,"lon":9.303025,"elevationM":null},{"id":"node:1268266272","kind":"peak","name":"Hesttjennknuten","lat":58.872292,"lon":9.2919758,"elevationM":231},{"id":"node:1268902787","kind":"peak","name":"Veten","lat":58.8654353,"lon":9.4192047,"elevationM":null},{"id":"node:1285466505","kind":"peak","name":"Bjørneknuten","lat":58.8891582,"lon":9.4116532,"elevationM":170},{"id":"node:1285466523","kind":"peak","name":"Lovisenbergkollen","lat":58.8960636,"lon":9.4133481,"elevationM":190},{"id":"node:1319623950","kind":"peak","name":"Spellemannsfjellet","lat":58.9278323,"lon":9.2533386,"elevationM":null},{"id":"node:1322958057","kind":"peak","name":"Hegrefjell","lat":58.9075474,"lon":9.456371,"elevationM":100},{"id":"node:1342666525","kind":"peak","name":"Brattøykollen","lat":58.867045,"lon":9.312678,"elevationM":null},{"id":"node:1370571751","kind":"peak","name":"Bærøykjerringa","lat":58.8782565,"lon":9.4515014,"elevationM":71},{"id":"node:1370721532","kind":"peak","name":"Vestre Gumøyknuten","lat":58.8817647,"lon":9.485356,"elevationM":112},{"id":"node:1375370543","kind":"peak","name":"Skarheia","lat":58.9077194,"lon":9.5345282,"elevationM":118},{"id":"node:1375370555","kind":"peak","name":"Langøybratten","lat":58.9117577,"lon":9.5273022,"elevationM":121},{"id":"node:1392688811","kind":"peak","name":"Steinmann","lat":58.8692229,"lon":9.465516,"elevationM":null},{"id":"node:1440166744","kind":"peak","name":"Tiuråsen","lat":58.8759356,"lon":9.2732362,"elevationM":172},{"id":"node:1440174283","kind":"peak","name":"Barlindknuten","lat":58.8685647,"lon":9.2783088,"elevationM":222},{"id":"node:1440174286","kind":"peak","name":"Lindheimsheia","lat":58.8705171,"lon":9.2551302,"elevationM":173},{"id":"node:1440174289","kind":"peak","name":"Tømmeråsen","lat":58.8818746,"lon":9.2797679,"elevationM":164},{"id":"node:1440177045","kind":"peak","name":"Brenteheia","lat":58.8639938,"lon":9.2705754,"elevationM":199},{"id":"node:1442125599","kind":"peak","name":"Brattli","lat":58.916759,"lon":9.3147212,"elevationM":137},{"id":"node:1445330476","kind":"peak","name":"Sørdalsknuten","lat":58.8561727,"lon":9.2568947,"elevationM":null},{"id":"node:1825533363","kind":"peak","name":"Borteidknuten","lat":58.892393,"lon":9.4588571,"elevationM":null},{"id":"node:2919515107","kind":"peak","name":"Hølsknuten","lat":58.8034143,"lon":9.1998458,"elevationM":null},{"id":"node:2919515179","kind":"peak","name":"Tjuvheller","lat":58.803264,"lon":9.1956261,"elevationM":null},{"id":"node:2953237781","kind":"peak","name":"Rendalsfjell","lat":58.5790895,"lon":9.0111754,"elevationM":null},{"id":"node:2953237782","kind":"peak","name":"Ulefjell","lat":58.5873711,"lon":9.0190867,"elevationM":null},{"id":"node:2966746163","kind":"peak","name":"Kvitfjell","lat":58.6834043,"lon":9.0280158,"elevationM":null},{"id":"node:2984897383","kind":"peak","name":"Bjørnåstårnet","lat":58.668045,"lon":9.0265899,"elevationM":null},{"id":"node:3653389820","kind":"peak","name":"Fransåsen","lat":58.7053729,"lon":9.1628292,"elevationM":null},{"id":"node:3771657845","kind":"peak","name":"Hisåsen varde","lat":58.675283,"lon":9.1760578,"elevationM":null},{"id":"node:3808641092","kind":"peak","name":"Glupeåsen","lat":58.774829,"lon":9.137993,"elevationM":null},{"id":"node:3808641093","kind":"peak","name":"Geitfjella","lat":58.782809,"lon":9.1157223,"elevationM":null},{"id":"node:3808671156","kind":"peak","name":"Heimheia","lat":58.7802771,"lon":9.1171346,"elevationM":null},{"id":"node:3808689557","kind":"peak","name":"Helleråsen","lat":58.7777601,"lon":9.1155555,"elevationM":null},{"id":"node:3808689558","kind":"peak","name":"Heståsen","lat":58.7759096,"lon":9.1145536,"elevationM":null},{"id":"node:4324104075","kind":"peak","name":"Østre Gumøyknuten","lat":58.8960636,"lon":9.5376386,"elevationM":107},{"id":"node:4327081587","kind":"peak","name":"Melkertangen","lat":58.8972626,"lon":9.547833,"elevationM":33},{"id":"node:4327081803","kind":"peak","name":"Ørneheia","lat":58.8885202,"lon":9.5229483,"elevationM":null},{"id":"node:4328233862","kind":"peak","name":"Lifjell","lat":58.891523,"lon":9.5212681,"elevationM":49},{"id":"node:4348904869","kind":"peak","name":"Rolighetsknuten","lat":58.9040964,"lon":9.5497027,"elevationM":77},{"id":"node:4348904870","kind":"peak","name":"Kjemperyggen","lat":58.9025831,"lon":9.5272247,"elevationM":null},{"id":"node:4348912793","kind":"peak","name":"Bjønnkjerråsen","lat":58.8953506,"lon":9.5166212,"elevationM":null},{"id":"node:4348912794","kind":"peak","name":"Langkjerråsen","lat":58.8934072,"lon":9.513407,"elevationM":58},{"id":"node:4348954494","kind":"peak","name":"Fløyheia","lat":58.892704,"lon":9.5308945,"elevationM":35},{"id":"node:4348960290","kind":"peak","name":"Bråteheia","lat":58.8863707,"lon":9.5033965,"elevationM":45},{"id":"node:4348969390","kind":"peak","name":"Veggerødheia","lat":58.881636,"lon":9.5010053,"elevationM":37},{"id":"node:4348969391","kind":"peak","name":"Haukebergheia","lat":58.8788428,"lon":9.5007985,"elevationM":null},{"id":"node:4551104843","kind":"peak","name":"Svineryggen","lat":58.8806588,"lon":9.5535136,"elevationM":50},{"id":"node:4717006913","kind":"peak","name":"Stuåsen","lat":58.8891306,"lon":9.4915487,"elevationM":54},{"id":"node:4730193987","kind":"peak","name":"Fløyfjell","lat":58.8599968,"lon":9.4751034,"elevationM":46},{"id":"node:4730193988","kind":"peak","name":"Store Harefjell","lat":58.860148,"lon":9.4886518,"elevationM":54},{"id":"node:4730194202","kind":"peak","name":"Lille Harefjell","lat":58.8612675,"lon":9.4899549,"elevationM":null},{"id":"node:4730194203","kind":"peak","name":"60.3","lat":58.8645085,"lon":9.4941962,"elevationM":null},{"id":"node:4730385467","kind":"peak","name":"Fanteheia","lat":58.8980933,"lon":9.5037377,"elevationM":62},{"id":"node:4751336778","kind":"peak","name":"Nessundkollen","lat":58.8677881,"lon":9.4444886,"elevationM":56},{"id":"node:4751336779","kind":"peak","name":"Gråkollen","lat":58.8730769,"lon":9.470684,"elevationM":67},{"id":"node:4799065366","kind":"peak","name":"Størfjell","lat":58.5888169,"lon":9.0274468,"elevationM":null},{"id":"node:4812131784","kind":"peak","name":"Valen","lat":58.5690873,"lon":9.0088014,"elevationM":null},{"id":"node:4867593789","kind":"peak","name":"Hellesengkollen","lat":58.8659828,"lon":9.5226529,"elevationM":36},{"id":"node:5275319947","kind":"peak","name":"Vårfjell","lat":58.575774,"lon":9.0139583,"elevationM":null},{"id":"node:5849829344","kind":"peak","name":"Jansknuten","lat":58.9101308,"lon":9.4249907,"elevationM":null},{"id":"node:6226183780","kind":"peak","name":"Kovlefjell","lat":58.5949802,"lon":9.0449506,"elevationM":55},{"id":"node:6425727759","kind":"peak","name":"Dyngøknuten","lat":58.5762581,"lon":9.0026146,"elevationM":null},{"id":"node:7623907508","kind":"peak","name":"Skolehei","lat":58.5757697,"lon":9.0079442,"elevationM":null},{"id":"node:7895007434","kind":"peak","name":"Hviteberg","lat":58.9004709,"lon":9.6509587,"elevationM":null},{"id":"node:7895007435","kind":"peak","name":"Nordre hue","lat":58.9030834,"lon":9.6392146,"elevationM":null},{"id":"node:7895007436","kind":"peak","name":"Søndre hue","lat":58.8965647,"lon":9.6399715,"elevationM":null},{"id":"node:8625261767","kind":"peak","name":"Bjønndalsheia","lat":58.9899334,"lon":9.290736,"elevationM":238},{"id":"node:8625391340","kind":"peak","name":"Dyvikheia","lat":58.9661773,"lon":9.2073006,"elevationM":340},{"id":"node:8887146917","kind":"peak","name":"Dansarfjell","lat":58.8720502,"lon":9.1509251,"elevationM":null},{"id":"node:8949362382","kind":"peak","name":"Bjønnåsfjell","lat":58.9876636,"lon":9.068184,"elevationM":355},{"id":"node:9620657330","kind":"peak","name":"Fløyknatten","lat":58.7240666,"lon":9.0677455,"elevationM":null},{"id":"node:11455133488","kind":"peak","name":"Vardefjell","lat":58.9409711,"lon":9.214033,"elevationM":329},{"id":"node:11973653093","kind":"peak","name":"Hudalsknuten","lat":58.6790692,"lon":9.1354545,"elevationM":108},{"id":"node:11973653095","kind":"peak","name":"Hisåsen","lat":58.674467,"lon":9.1700452,"elevationM":56},{"id":"node:13437092656","kind":"peak","name":"Kjørkeliheia","lat":58.7970857,"lon":9.081728,"elevationM":null},{"id":"node:13437092658","kind":"peak","name":"Kollen","lat":58.8041432,"lon":9.113178,"elevationM":null}]}