{"tileKey":"la_p56_lo_p157","version":"v1-1775891056926","entries":[{"id":"node:2076305068","kind":"volcano","name":"Большой","lat":56.4688823,"lon":157.7908327,"elevationM":1301},{"id":"node:8330641177","kind":"peak","name":"Загорная","lat":56.8175115,"lon":157.2541808,"elevationM":null},{"id":"node:8330641190","kind":"peak","name":"Мама","lat":56.4339092,"lon":157.75496,"elevationM":null},{"id":"node:8330641191","kind":"peak","name":"Гольцовая","lat":56.4632967,"lon":157.9323291,"elevationM":null},{"id":"node:8330641192","kind":"peak","name":"Вулканическая","lat":56.4912636,"lon":157.9646014,"elevationM":null},{"id":"node:8330641193","kind":"peak","name":"Баранья","lat":56.4822358,"lon":157.9923463,"elevationM":null},{"id":"node:8330646398","kind":"peak","name":"Скалистая","lat":56.8217155,"lon":157.116208,"elevationM":null},{"id":"node:8330646399","kind":"peak","name":"Грибная","lat":56.7692833,"lon":157.574501,"elevationM":null},{"id":"node:8330652081","kind":"peak","name":"Тихая","lat":56.8471415,"lon":157.6018809,"elevationM":null},{"id":"node:8330652082","kind":"peak","name":"Мерзлая","lat":56.7720114,"lon":157.2095488,"elevationM":null},{"id":"node:8330652083","kind":"peak","name":"Ихпен","lat":56.8052018,"lon":157.2265433,"elevationM":null},{"id":"node:8330652084","kind":"peak","name":"Кочевая","lat":56.9290535,"lon":157.397518,"elevationM":null},{"id":"node:8330652085","kind":"peak","name":"Воронья","lat":56.9443188,"lon":157.4090193,"elevationM":null},{"id":"node:8330652087","kind":"peak","name":"Зеньц","lat":56.9994281,"lon":157.3472212,"elevationM":null},{"id":"node:8330652088","kind":"peak","name":"Пухлая","lat":56.9597651,"lon":157.3307417,"elevationM":null},{"id":"node:8330652089","kind":"peak","name":"Сосопхан","lat":56.8939569,"lon":157.2608757,"elevationM":null},{"id":"node:8330654264","kind":"peak","name":"Калковая","lat":56.8866898,"lon":157.3733996,"elevationM":null},{"id":"node:8330654266","kind":"peak","name":"Снежная","lat":56.9636724,"lon":157.1149206,"elevationM":null},{"id":"node:8330654267","kind":"peak","name":"Большая","lat":56.9468,"lon":157.1372366,"elevationM":null},{"id":"node:8330654268","kind":"peak","name":"Белая","lat":56.9136647,"lon":157.1260786,"elevationM":null},{"id":"node:8330654269","kind":"peak","name":"Аныч","lat":56.8666159,"lon":157.0862102,"elevationM":null},{"id":"node:8330654270","kind":"peak","name":"Слияние","lat":56.8686097,"lon":157.0666837,"elevationM":null},{"id":"node:8330654277","kind":"peak","name":"Малая Лухля","lat":56.9850037,"lon":157.1288681,"elevationM":null},{"id":"node:8330654279","kind":"peak","name":"Вечная","lat":56.87581,"lon":157.5011157,"elevationM":null},{"id":"node:8330654280","kind":"peak","name":"Уступ","lat":56.9093772,"lon":157.5943278,"elevationM":null},{"id":"node:8330654281","kind":"peak","name":"Увальная","lat":56.9089086,"lon":157.6516627,"elevationM":null},{"id":"node:8330654282","kind":"peak","name":"Радуга","lat":56.9216995,"lon":157.843666,"elevationM":null},{"id":"node:8330654283","kind":"peak","name":"Малый Тыклаваям","lat":56.8842984,"lon":157.8361129,"elevationM":null},{"id":"node:8330654284","kind":"peak","name":"Грива","lat":56.8695245,"lon":157.9385089,"elevationM":null},{"id":"node:8365135775","kind":"peak","name":"Стол","lat":56.0212213,"lon":157.5817107,"elevationM":null},{"id":"node:8365135776","kind":"peak","name":"Безымянная","lat":56.0558398,"lon":157.4520206,"elevationM":null},{"id":"node:8365135777","kind":"peak","name":"Топограф","lat":56.1215389,"lon":157.5118445,"elevationM":null},{"id":"node:8365135778","kind":"peak","name":"Оленья","lat":56.0716044,"lon":157.606945,"elevationM":null},{"id":"node:8365135779","kind":"peak","name":"Тюрпора","lat":56.1119688,"lon":157.6671981,"elevationM":null},{"id":"node:8365135780","kind":"peak","name":"Луговая","lat":56.081903,"lon":157.7185248,"elevationM":null},{"id":"node:8365135781","kind":"peak","name":"Отрожная","lat":56.0630281,"lon":157.747364,"elevationM":null},{"id":"node:8365135782","kind":"peak","name":"Янгъянг","lat":56.0841779,"lon":157.7723407,"elevationM":null},{"id":"node:8365135783","kind":"peak","name":"Быстрая","lat":56.0027966,"lon":157.9228877,"elevationM":null},{"id":"node:8365137974","kind":"peak","name":"Кичиг","lat":56.7301052,"lon":157.1914386,"elevationM":null},{"id":"node:8365137975","kind":"peak","name":"Березовая","lat":56.2258903,"lon":157.4685859,"elevationM":null},{"id":"node:8365137976","kind":"peak","name":"Березовая","lat":56.2513139,"lon":157.6026964,"elevationM":null},{"id":"node:8365137977","kind":"peak","name":"Сероглазка","lat":56.1455017,"lon":157.8239249,"elevationM":null},{"id":"node:8365137981","kind":"peak","name":"Памятная","lat":56.1848811,"lon":157.7974033,"elevationM":null},{"id":"node:8365137982","kind":"peak","name":"Крутая","lat":56.2196391,"lon":157.7136325,"elevationM":null},{"id":"node:8365137983","kind":"peak","name":"Обрыв","lat":56.2129812,"lon":157.6468563,"elevationM":null},{"id":"node:8365137984","kind":"peak","name":"Комариная","lat":56.3991321,"lon":157.227745,"elevationM":null},{"id":"node:8365137985","kind":"peak","name":"Поисковая","lat":56.3703605,"lon":157.2617769,"elevationM":null},{"id":"node:8365137986","kind":"peak","name":"Дождливая","lat":56.35624,"lon":157.2346973,"elevationM":null},{"id":"node:8365139352","kind":"peak","name":"Междуречье","lat":56.7674018,"lon":157.0570277,"elevationM":null},{"id":"node:8365139353","kind":"peak","name":"Заречная","lat":56.6926773,"lon":157.1207999,"elevationM":null},{"id":"node:8365139354","kind":"peak","name":"Кабельная","lat":56.7134098,"lon":157.2274016,"elevationM":null},{"id":"node:8365139355","kind":"peak","name":"Гусиная","lat":56.6975316,"lon":157.2829341,"elevationM":null},{"id":"node:8365139356","kind":"peak","name":"Грозовая","lat":56.6814582,"lon":157.3197555,"elevationM":null},{"id":"node:8365139357","kind":"peak","name":"Тополец","lat":56.7172252,"lon":157.4707746,"elevationM":null},{"id":"node:8365139358","kind":"peak","name":"Дальняя","lat":56.6873274,"lon":157.4201774,"elevationM":null},{"id":"node:8365139359","kind":"peak","name":"Сувоен","lat":56.5188784,"lon":157.138524,"elevationM":null},{"id":"node:8365139360","kind":"peak","name":"Медная","lat":56.5132907,"lon":157.11874,"elevationM":null},{"id":"node:8365139361","kind":"peak","name":"Останец","lat":56.5028709,"lon":157.0166014,"elevationM":null},{"id":"node:8365139362","kind":"peak","name":"Туманная","lat":56.4637234,"lon":157.0529079,"elevationM":null},{"id":"node:8365139364","kind":"peak","name":"Бугорок","lat":56.2809139,"lon":157.0421789,"elevationM":null},{"id":"node:8365139365","kind":"peak","name":"Ориентир","lat":56.1670125,"lon":157.0111083,"elevationM":null},{"id":"node:8365139366","kind":"peak","name":"Ровная","lat":56.1058426,"lon":157.0838927,"elevationM":null},{"id":"node:8365139367","kind":"peak","name":"Сторож","lat":56.0146489,"lon":157.1594237,"elevationM":null},{"id":"node:8365139369","kind":"peak","name":"Эмгучань","lat":56.0017887,"lon":157.1246623,"elevationM":null},{"id":"node:8365139370","kind":"peak","name":"Грозовая","lat":56.0100427,"lon":157.761526,"elevationM":null},{"id":"node:10605561657","kind":"peak","name":"Янг-Янг","lat":56.0878658,"lon":157.7614542,"elevationM":1025},{"id":"node:10605561658","kind":"peak","name":"Авотя","lat":56.1457502,"lon":157.9983608,"elevationM":1203}]}