{"tileKey":"la_p19_lo_m105","version":"v1-1775891056926","entries":[{"id":"node:2821588005","kind":"peak","name":"Cerro de San Pedrito","lat":19.0522024,"lon":-104.3068953,"elevationM":170},{"id":"node:2830067805","kind":"peak","name":"Cerro de la Cal","lat":19.2307238,"lon":-104.697831,"elevationM":60},{"id":"node:3804375102","kind":"peak","name":"El Divisadero (Ciruelo Gordo)","lat":19.5934243,"lon":-104.5804509,"elevationM":1000},{"id":"node:4149338989","kind":"peak","name":"Huehuentón","lat":19.6333113,"lon":-104.9478865,"elevationM":null},{"id":"node:7660216462","kind":"peak","name":"Cipil","lat":19.508666,"lon":-104.4694483,"elevationM":1520},{"id":"node:8591971105","kind":"peak","name":"Cerro de la Cruz","lat":19.0521393,"lon":-104.32312,"elevationM":200},{"id":"node:10840220734","kind":"peak","name":"Cerro de Juluapan","lat":19.0946968,"lon":-104.395778,"elevationM":240},{"id":"node:10840220735","kind":"peak","name":"Cerro del Toro","lat":19.1553297,"lon":-104.4005067,"elevationM":800},{"id":"node:11073922568","kind":"peak","name":"Cerro El Ocote","lat":19.245799,"lon":-104.0687419,"elevationM":1800},{"id":"node:11073938566","kind":"peak","name":"Cerro Copales (El Carbonero)","lat":19.3724311,"lon":-104.0068839,"elevationM":1800},{"id":"node:11923146536","kind":"peak","name":"La Vaca","lat":19.1260819,"lon":-104.4429745,"elevationM":300},{"id":"node:11923146537","kind":"peak","name":"Cerro Espumilla","lat":19.2087826,"lon":-104.1423251,"elevationM":1300},{"id":"node:11923146538","kind":"peak","name":"Cerro Los Naranjos","lat":19.2129797,"lon":-104.1678875,"elevationM":1100},{"id":"node:11923561442","kind":"peak","name":"Cerro El Centinela","lat":19.2045463,"lon":-104.2898333,"elevationM":600},{"id":"node:12745329914","kind":"peak","name":"La Aguja","lat":19.7217531,"lon":-104.0393639,"elevationM":1500},{"id":"node:12745329915","kind":"peak","name":"La Lagunilla","lat":19.6809941,"lon":-104.0661762,"elevationM":1400},{"id":"node:12745329916","kind":"peak","name":"La Pastora","lat":19.7002224,"lon":-104.0963793,"elevationM":1300},{"id":"node:12745329917","kind":"peak","name":"Los Lobos","lat":19.7803516,"lon":-104.1100428,"elevationM":1300},{"id":"node:12745329918","kind":"peak","name":"El Carrizal","lat":19.7745734,"lon":-104.0886293,"elevationM":1300},{"id":"node:12748622285","kind":"peak","name":"La Cebadilla","lat":19.6559263,"lon":-104.470911,"elevationM":600},{"id":"node:12748680369","kind":"peak","name":"Changavilancillo","lat":19.5428499,"lon":-104.370526,"elevationM":1500}]}