{"tileKey":"la_p10_lo_p35","version":"v1-1775891056926","entries":[{"id":"node:1150883702","kind":"peak","name":"Fadoc","lat":10.4923271,"lon":35.119611,"elevationM":null},{"id":"node:1150884183","kind":"peak","name":"Monte Iagona","lat":10.5504852,"lon":35.3518454,"elevationM":null},{"id":"node:1150893775","kind":"peak","name":"Waladura","lat":10.2991133,"lon":35.8200932,"elevationM":null},{"id":"node:1150904680","kind":"peak","name":"Mincio","lat":10.5798148,"lon":35.4370636,"elevationM":null},{"id":"node:1150913697","kind":"peak","name":"Duma","lat":10.3350821,"lon":35.3590901,"elevationM":null},{"id":"node:1150968935","kind":"peak","name":"Guciar","lat":10.4891956,"lon":35.6408831,"elevationM":null},{"id":"node:1150973410","kind":"peak","name":"Sairibanti","lat":10.1512251,"lon":35.8677429,"elevationM":null},{"id":"node:1150980086","kind":"peak","name":"Dildessa","lat":10.2280605,"lon":35.136098,"elevationM":null}]}