{"tileKey":"la_p36_lo_p42","version":"v1-1775891056926","entries":[{"id":"node:571230682","kind":"peak","name":"تل كتشك","lat":36.8500172,"lon":42.0667633,"elevationM":null},{"id":"node:571230742","kind":"peak","name":"مسعود صغير","lat":36.8191798,"lon":42.0543151,"elevationM":null},{"id":"node:2486436018","kind":"peak","name":"جبل عين زالة","lat":36.736936,"lon":42.569545,"elevationM":null},{"id":"node:2486437959","kind":"peak","name":"دير مالة","lat":36.6355987,"lon":42.7821306,"elevationM":null},{"id":"node:2486440155","kind":"peak","name":"جبل إبراهيم","lat":36.3199863,"lon":42.6191682,"elevationM":560},{"id":"node:2486441245","kind":"peak","name":"جبل شيخ إبراهيم","lat":36.3202797,"lon":42.6192124,"elevationM":560},{"id":"node:2486441349","kind":"peak","name":"جبل زمبر","lat":36.3512763,"lon":42.5576452,"elevationM":530},{"id":"node:2486441592","kind":"peak","name":"جبل زنبار","lat":36.3510492,"lon":42.5576941,"elevationM":530},{"id":"node:2486446235","kind":"peak","name":"تل سنن","lat":36.2675,"lon":42.466389,"elevationM":null},{"id":"node:2486446309","kind":"peak","name":"تل كرجال","lat":36.717222,"lon":42.526944,"elevationM":null},{"id":"node:2486446313","kind":"peak","name":"تل جركافر","lat":36.685833,"lon":42.518333,"elevationM":null},{"id":"node:2486446336","kind":"peak","name":"تل حيل الأثري","lat":36.8023022,"lon":42.1784171,"elevationM":null},{"id":"node:2486446345","kind":"peak","name":"تل هيوة","lat":36.748598,"lon":42.3010043,"elevationM":null},{"id":"node:2486446586","kind":"peak","name":"جبل مسعود","lat":36.2869989,"lon":42.6787443,"elevationM":null},{"id":"node:2486446791","kind":"peak","name":"تل حكنة","lat":36.559167,"lon":42.558611,"elevationM":null},{"id":"node:4829693344","kind":"peak","name":"قره تبة","lat":36.3492585,"lon":42.4277398,"elevationM":null},{"id":"node:4846734857","kind":"peak","name":"علان","lat":36.2637177,"lon":42.7124062,"elevationM":null},{"id":"node:5900359793","kind":"peak","name":"Tell","lat":36.9583551,"lon":42.7213259,"elevationM":null},{"id":"node:12875436109","kind":"peak","name":"Chiya Sipi","lat":36.9664037,"lon":42.9685412,"elevationM":null}]}