{"tileKey":"la_p60_lo_p59","version":"v1-1775891056926","entries":[{"id":"node:565502483","kind":"peak","name":"Денежкин Камень","lat":60.4186849,"lon":59.5339219,"elevationM":1492},{"id":"node:565502488","kind":"peak","name":"Кривинская","lat":60.3100837,"lon":59.4708113,"elevationM":868},{"id":"node:845590046","kind":"peak","name":"Сосьвинский","lat":60.1797508,"lon":59.1027864,"elevationM":1205},{"id":"node:1234658314","kind":"peak","name":"Караульная Сопка","lat":60.8820225,"lon":59.2567976,"elevationM":793},{"id":"node:1571031912","kind":"peak","name":"Белый Камень","lat":60.5877221,"lon":59.185834,"elevationM":1085},{"id":"node:1571032308","kind":"peak","name":"Мартай","lat":60.9242564,"lon":59.2313765,"elevationM":1130},{"id":"node:1931242963","kind":"peak","name":"Посьмак","lat":60.8400573,"lon":59.3146367,"elevationM":823},{"id":"node:2059540222","kind":"peak","name":"Щебенная","lat":60.0515669,"lon":59.0856533,"elevationM":678},{"id":"node:2059540241","kind":"peak","name":"Казанский Камень","lat":60.1127982,"lon":59.0475828,"elevationM":1035},{"id":"node:2059540245","kind":"peak","name":"Сосьвинский Камень","lat":60.1224716,"lon":59.0786755,"elevationM":954},{"id":"node:2059540274","kind":"peak","name":"Хребет","lat":60.286967,"lon":59.156736,"elevationM":1339},{"id":"node:2059540303","kind":"peak","name":"Лямпа Кутимская (Гумбольдта)","lat":60.376434,"lon":59.1930624,"elevationM":1411},{"id":"node:2059540319","kind":"peak","name":"Сольва","lat":60.446117,"lon":59.221384,"elevationM":1338},{"id":"node:2059540364","kind":"peak","name":"Хозатумп южный","lat":60.65849,"lon":59.428098,"elevationM":962},{"id":"node:2059540394","kind":"peak","name":"Туйтпалюльке-Чахл","lat":60.8977176,"lon":59.4739966,"elevationM":922},{"id":"node:2461986520","kind":"peak","name":"Раскарчахл","lat":60.9353355,"lon":59.4775093,"elevationM":925},{"id":"node:2462433198","kind":"peak","name":"Кекур Сопка","lat":60.4703244,"lon":59.3534475,"elevationM":654},{"id":"node:2526587965","kind":"peak","name":"Лесной Сенной Камень","lat":60.0146644,"lon":59.0997401,"elevationM":814},{"id":"node:2526587966","kind":"peak","name":"Берёзовая","lat":60.0827268,"lon":59.2168172,"elevationM":567},{"id":"node:2526587967","kind":"peak","name":"Вагранский Носок","lat":60.0720357,"lon":59.2116678,"elevationM":463},{"id":"node:2526587968","kind":"peak","name":"Гладкая","lat":60.0687521,"lon":59.4434869,"elevationM":557},{"id":"node:2526587969","kind":"peak","name":"Кривский Чурок","lat":60.0454552,"lon":59.3756276,"elevationM":641},{"id":"node:2526587970","kind":"peak","name":"Останец Теремки","lat":60.1178333,"lon":59.1993,"elevationM":654},{"id":"node:2526587971","kind":"peak","name":"Острая","lat":60.0638214,"lon":59.4750789,"elevationM":577},{"id":"node:2526587972","kind":"peak","name":"Плешивый Увал","lat":60.0983919,"lon":59.1417885,"elevationM":716},{"id":"node:2526587973","kind":"peak","name":"Теремки","lat":60.1407747,"lon":59.3032114,"elevationM":806},{"id":"node:2526587975","kind":"peak","name":"Тулайская Грива","lat":60.0255543,"lon":59.2643108,"elevationM":664},{"id":"node:2526587978","kind":"peak","name":"Чёртова Банька","lat":60.0875045,"lon":59.3289758,"elevationM":800},{"id":"node:2526587982","kind":"peak","name":"Юртикская","lat":60.0098929,"lon":59.3832823,"elevationM":431},{"id":"node:2526656206","kind":"peak","name":"Белая","lat":60.2258932,"lon":59.7889227,"elevationM":454},{"id":"node:2526656207","kind":"peak","name":"Большая Брусковая","lat":60.1147118,"lon":59.5006908,"elevationM":813},{"id":"node:2526656208","kind":"peak","name":"Ваниловка","lat":60.2303168,"lon":59.5994393,"elevationM":524},{"id":"node:2526656209","kind":"peak","name":"Введенская","lat":60.1856352,"lon":59.8449762,"elevationM":404},{"id":"node:2526656210","kind":"peak","name":"Высотинская","lat":60.2369356,"lon":59.7518224,"elevationM":603},{"id":"node:2526656211","kind":"peak","name":"Золотой камень","lat":60.1126638,"lon":59.6617022,"elevationM":818},{"id":"node:2526656212","kind":"peak","name":"Кедровая","lat":60.2579351,"lon":59.7517141,"elevationM":489},{"id":"node:2526656213","kind":"peak","name":"Константиновская","lat":60.0060869,"lon":59.5678022,"elevationM":551},{"id":"node:2526656214","kind":"peak","name":"Крутая","lat":60.2356698,"lon":59.7053349,"elevationM":586},{"id":"node:2526656215","kind":"peak","name":"Кумба","lat":60.1385576,"lon":59.642785,"elevationM":921},{"id":"node:2526656216","kind":"peak","name":"Липовая","lat":60.1707075,"lon":59.8047579,"elevationM":null},{"id":"node:2526656217","kind":"peak","name":"Малая Брусковая","lat":60.1350927,"lon":59.5313085,"elevationM":678},{"id":"node:2526656218","kind":"peak","name":"Нехорошкова","lat":60.2327489,"lon":59.6684286,"elevationM":641},{"id":"node:2526656219","kind":"peak","name":"Оленьевский Увал","lat":60.0344246,"lon":59.6364303,"elevationM":378},{"id":"node:2526656220","kind":"peak","name":"Рещеватая","lat":60.2803274,"lon":59.8936027,"elevationM":296},{"id":"node:2526656221","kind":"peak","name":"Рыбачьи Чирки","lat":60.2814079,"lon":59.6011554,"elevationM":349},{"id":"node:2526656222","kind":"peak","name":"Сарайная","lat":60.1985161,"lon":59.85042,"elevationM":368},{"id":"node:2526656223","kind":"peak","name":"Чёрный Увал","lat":60.0921386,"lon":59.5622728,"elevationM":682},{"id":"node:2526656341","kind":"peak","name":"Плоская","lat":60.3117671,"lon":59.6856229,"elevationM":272},{"id":"node:2526814117","kind":"peak","name":"Большая Ходовская Сопка","lat":60.2855236,"lon":59.2503286,"elevationM":707},{"id":"node:2526814121","kind":"peak","name":"Оленья Сопка","lat":60.4641234,"lon":59.3890138,"elevationM":638},{"id":"node:2526814126","kind":"peak","name":"Ходовая","lat":60.3292339,"lon":59.3054313,"elevationM":580},{"id":"node:2527011015","kind":"peak","name":"Большая Шарпинская Сопка","lat":60.440035,"lon":59.5835452,"elevationM":1293},{"id":"node:2527011016","kind":"peak","name":"Вогульская","lat":60.4084181,"lon":59.893409,"elevationM":260},{"id":"node:2527011017","kind":"peak","name":"Жёлтая Сопка","lat":60.3914781,"lon":59.4296306,"elevationM":798},{"id":"node:2527011018","kind":"peak","name":"Пихтовый Увал","lat":60.3780984,"lon":59.608327,"elevationM":916},{"id":"node:2527011020","kind":"peak","name":"Тёплая Сопка","lat":60.4760384,"lon":59.9040353,"elevationM":306},{"id":"node:2527011021","kind":"peak","name":"Чёрная Сопка","lat":60.4584529,"lon":59.8163766,"elevationM":460},{"id":"node:2527011166","kind":"peak","name":"Кулаковский Увал","lat":60.4545093,"lon":59.5270536,"elevationM":971},{"id":"node:2527011174","kind":"peak","name":"Белкинский Увал","lat":60.4598085,"lon":59.6735847,"elevationM":582},{"id":"node:2527240692","kind":"peak","name":"Бобровка","lat":60.6896171,"lon":59.8957643,"elevationM":356},{"id":"node:2527240699","kind":"peak","name":"Большая Шудья","lat":60.5311114,"lon":59.0494035,"elevationM":863},{"id":"node:2527240708","kind":"peak","name":"Журавлёв Камень","lat":60.506253,"lon":59.6709186,"elevationM":782},{"id":"node:2527240714","kind":"peak","name":"Караульная","lat":60.5944788,"lon":59.3378464,"elevationM":727},{"id":"node:2527240720","kind":"peak","name":"Кобылья","lat":60.6319563,"lon":59.7609148,"elevationM":505},{"id":"node:2527240725","kind":"peak","name":"Острая Сопка","lat":60.6499421,"lon":59.2758293,"elevationM":785},{"id":"node:2527240732","kind":"peak","name":"Самсоновская Сопка","lat":60.5455419,"lon":59.7758061,"elevationM":439},{"id":"node:2527240737","kind":"peak","name":"Средний Кутим","lat":60.5373887,"lon":59.2557183,"elevationM":615},{"id":"node:2527240743","kind":"peak","name":"Чурок","lat":60.5420209,"lon":59.6111565,"elevationM":712},{"id":"node:2527240748","kind":"peak","name":"Чурол","lat":60.6123602,"lon":59.0942668,"elevationM":773},{"id":"node:2527387572","kind":"peak","name":"Матрия Чакур","lat":60.8330705,"lon":59.916509,"elevationM":344},{"id":"node:2564091280","kind":"peak","name":"Нирсорисоут","lat":60.770184,"lon":59.441711,"elevationM":821},{"id":"node:2564091281","kind":"peak","name":"Хальсори","lat":60.734973,"lon":59.44487,"elevationM":801},{"id":"node:2564091282","kind":"peak","name":"Яныг-Анквыллюльнечахл","lat":60.693251,"lon":59.420571,"elevationM":845},{"id":"node:3979250538","kind":"peak","name":"Граничная Cопка","lat":60.4378583,"lon":59.9650722,"elevationM":null},{"id":"node:3979250539","kind":"peak","name":"Кальинская","lat":60.2762667,"lon":59.9881167,"elevationM":259},{"id":"node:3979661252","kind":"peak","name":"Граничная","lat":60.7032778,"lon":59.2685083,"elevationM":808},{"id":"node:3979661256","kind":"peak","name":"Пропащая","lat":60.7949583,"lon":59.0415722,"elevationM":839},{"id":"node:3979662357","kind":"peak","name":"Речная","lat":60.7434056,"lon":59.3301333,"elevationM":739},{"id":"node:3979662361","kind":"peak","name":"Химлинья-Чакур","lat":60.8361,"lon":59.7010944,"elevationM":742},{"id":"node:3979662362","kind":"peak","name":"Чащева Сопка","lat":60.6294,"lon":59.9637361,"elevationM":264},{"id":"node:3982408437","kind":"peak","name":"Кумкурый-Чакур","lat":60.8987528,"lon":59.9094639,"elevationM":410},{"id":"node:3982408452","kind":"peak","name":"Яныгтумп","lat":60.9970333,"lon":59.4871778,"elevationM":1026}]}