{"tileKey":"la_p24_lo_p34","version":"v1-1775891056926","entries":[{"id":"node:767981797","kind":"peak","name":"جبل أم الطيور","lat":24.1581115,"lon":34.8442157,"elevationM":1095},{"id":"node:767981827","kind":"peak","name":"جبل سرطوط","lat":24.2667942,"lon":34.972989,"elevationM":1388},{"id":"node:768741114","kind":"peak","name":"جبل أم سميوكي","lat":24.2597035,"lon":34.8200788,"elevationM":null},{"id":"node:768741116","kind":"peak","name":"جبل أبو عرقوب","lat":24.183196,"lon":34.7637702,"elevationM":1608},{"id":"node:768741347","kind":"peak","name":"جبل الأبيض","lat":24.4407955,"lon":34.816785,"elevationM":891},{"id":"node:768741353","kind":"peak","name":"جبل درنكات","lat":24.3949974,"lon":34.765401,"elevationM":922},{"id":"node:768741363","kind":"peak","name":"جبل أم عفين","lat":24.364309,"lon":34.6281132,"elevationM":null},{"id":"node:768741368","kind":"peak","name":"جبل كهفة","lat":24.1388159,"lon":34.6497425,"elevationM":1018},{"id":"node:768741392","kind":"peak","name":"جبل الخلة","lat":24.3286406,"lon":34.6465882,"elevationM":977},{"id":"node:768741397","kind":"peak","name":"جبل شواب","lat":24.418699,"lon":34.8952793,"elevationM":830},{"id":"node:768741564","kind":"peak","name":"جبل نخيرة","lat":24.433333,"lon":34.55,"elevationM":872},{"id":"node:768741579","kind":"peak","name":"جبل أم رقيبة","lat":24.5598169,"lon":34.7097203,"elevationM":570},{"id":"node:768741582","kind":"peak","name":"جبل مسيويراب","lat":24.4467574,"lon":34.7110451,"elevationM":1021},{"id":"node:768741616","kind":"peak","name":"نسلة مرفو","lat":24.556853,"lon":34.7445212,"elevationM":null},{"id":"node:768758940","kind":"peak","name":"رأس العلم","lat":24.8955234,"lon":34.761771,"elevationM":653},{"id":"node:768758952","kind":"peak","name":"جبل سكري","lat":24.9516938,"lon":34.7203823,"elevationM":589},{"id":"node:768758997","kind":"peak","name":"جبل غويل","lat":24.8787195,"lon":34.646744,"elevationM":1104},{"id":"node:768758999","kind":"peak","name":"جبل حفافيت","lat":24.7546767,"lon":34.5826315,"elevationM":null},{"id":"node:768759001","kind":"peak","name":"جبل اللويوي","lat":24.74392,"lon":34.7791058,"elevationM":653},{"id":"node:768759002","kind":"peak","name":"جبل حنجلية","lat":24.8417051,"lon":34.6463522,"elevationM":1240},{"id":"node:768759006","kind":"peak","name":"جبل نقرص","lat":24.8084867,"lon":34.5981976,"elevationM":1505},{"id":"node:768759007","kind":"peak","name":"جبل أم مغر","lat":24.6548365,"lon":34.6859079,"elevationM":858},{"id":"node:6340803486","kind":"peak","name":"Gebel El-Dob Neia","lat":24.7497935,"lon":34.9044011,"elevationM":451},{"id":"node:6340803569","kind":"peak","name":"Nasib El-Madara","lat":24.5805732,"lon":34.9423169,"elevationM":452},{"id":"node:6340804429","kind":"peak","name":"Gebel Tarfawi","lat":24.312216,"lon":34.9327467,"elevationM":1363},{"id":"node:6340804430","kind":"peak","name":"Gebel Hashanib","lat":24.3468035,"lon":34.8495553,"elevationM":1133},{"id":"node:6340804597","kind":"peak","name":"Gebel Um Kabu","lat":24.6330524,"lon":34.8567867,"elevationM":639},{"id":"node:6340804598","kind":"peak","name":"Gebel Um Harba","lat":24.6531019,"lon":34.7792601,"elevationM":604},{"id":"node:6340804599","kind":"peak","name":"Gebel Sikeit","lat":24.6651632,"lon":34.8025417,"elevationM":769},{"id":"node:6340804797","kind":"peak","name":"Gebel Ras Sha'it","lat":24.8537988,"lon":34.5323467,"elevationM":1019},{"id":"node:6340804958","kind":"peak","name":"Gebel Hafafît","lat":24.5922416,"lon":34.7575019,"elevationM":742},{"id":"node:6340805122","kind":"peak","name":"Gebel Lawi","lat":24.7779971,"lon":34.8290312,"elevationM":515},{"id":"node:6340805313","kind":"peak","name":"Gebel Ghadir","lat":24.8356804,"lon":34.7906971,"elevationM":636},{"id":"node:6340805314","kind":"peak","name":"Gebel Zabara","lat":24.7555614,"lon":34.7015188,"elevationM":1360},{"id":"node:6340805326","kind":"peak","name":"Gebel Rabdi","lat":24.9300893,"lon":34.7925853,"elevationM":549},{"id":"node:6343262096","kind":"peak","name":"Gebel Abu Hâd","lat":24.5912269,"lon":34.6018695,"elevationM":633},{"id":"node:6343262148","kind":"peak","name":"Gebel Mukhatatat","lat":24.5263932,"lon":34.8186348,"elevationM":570},{"id":"node:6343262893","kind":"peak","name":"Gebel Abarun","lat":24.1886875,"lon":34.8396633,"elevationM":1600},{"id":"node:6343262894","kind":"peak","name":"Gebel Abu Hamamid","lat":24.2441277,"lon":34.7958684,"elevationM":1745},{"id":"node:6343262895","kind":"peak","name":"Gebel El-Burrad","lat":24.2925618,"lon":34.7503352,"elevationM":1260},{"id":"node:6343262897","kind":"peak","name":"Gebel Umm Sidri","lat":24.3666249,"lon":34.6853614,"elevationM":968},{"id":"node:6343262898","kind":"peak","name":"Gebel Abu Itil","lat":24.4590647,"lon":34.6081996,"elevationM":649},{"id":"node:6343291259","kind":"peak","name":"جبل حميثرة","lat":24.2007869,"lon":34.6344056,"elevationM":null}]}