{"tileKey":"la_p33_lo_p102","version":"v1-1775891056926","entries":[{"id":"node:3870917023","kind":"peak","name":"日干拉布才","lat":33.2004738,"lon":102.746294,"elevationM":null},{"id":"node:11295629895","kind":"peak","name":"加格","lat":33.7423092,"lon":102.5674353,"elevationM":null},{"id":"node:13003613890","kind":"peak","name":"甲央玛","lat":33.5218939,"lon":102.4627663,"elevationM":null},{"id":"node:13003613893","kind":"peak","name":"孜尔安","lat":33.6513118,"lon":102.4745936,"elevationM":null},{"id":"node:13003613894","kind":"peak","name":"冬曲冻列","lat":33.6504078,"lon":102.4840713,"elevationM":null},{"id":"node:13003613897","kind":"peak","name":"盖冬克喀","lat":33.7158987,"lon":102.4884547,"elevationM":null},{"id":"node:13003640009","kind":"peak","name":"达尔","lat":33.7253091,"lon":102.4894222,"elevationM":null},{"id":"node:13003640010","kind":"peak","name":"曲如杂卡","lat":33.759247,"lon":102.512287,"elevationM":null},{"id":"node:13003640011","kind":"peak","name":"麦多冈兰","lat":33.793073,"lon":102.5664873,"elevationM":null},{"id":"node:13003640013","kind":"peak","name":"达恰日干","lat":33.8507975,"lon":102.5686987,"elevationM":null},{"id":"node:13003640076","kind":"peak","name":"协玛勒查","lat":33.8695224,"lon":102.5728624,"elevationM":null},{"id":"node:13003640094","kind":"peak","name":"甲央木杂","lat":33.9291287,"lon":102.5823243,"elevationM":null},{"id":"node:13003640143","kind":"peak","name":"津隆克喀","lat":33.9882535,"lon":102.9706154,"elevationM":null}]}