{"tileKey":"la_p36_lo_m92","version":"v1-1775891056926","entries":[{"id":"node:358032499","kind":"peak","name":"High Hill","lat":36.9006114,"lon":-91.6126418,"elevationM":344},{"id":"node:358051495","kind":"peak","name":"Hines Hill","lat":36.7228377,"lon":-91.8532045,"elevationM":336},{"id":"node:358051550","kind":"peak","name":"Mosby Hill","lat":36.7822782,"lon":-91.2826341,"elevationM":294},{"id":"node:358051575","kind":"peak","name":"Wild Cat Hill","lat":36.6945028,"lon":-91.3676364,"elevationM":281},{"id":"node:358051583","kind":"peak","name":"Conner Hill","lat":36.6961687,"lon":-91.1784649,"elevationM":239},{"id":"node:358063015","kind":"peak","name":"Bald Hill","lat":36.5922822,"lon":-91.1206852,"elevationM":251},{"id":"node:358063905","kind":"peak","name":"Green Mountain","lat":36.9217194,"lon":-91.1909644,"elevationM":275},{"id":"node:358064477","kind":"peak","name":"Mulvinia Hill","lat":36.5580313,"lon":-91.0486958,"elevationM":216},{"id":"node:358064829","kind":"peak","name":"Reed Hill","lat":36.5250616,"lon":-91.0642942,"elevationM":207},{"id":"node:358064833","kind":"peak","name":"Retort Hill","lat":36.9775515,"lon":-91.1501299,"elevationM":193},{"id":"node:358065124","kind":"peak","name":"Tater Hill","lat":36.7183904,"lon":-91.1709649,"elevationM":182},{"id":"node:358065155","kind":"peak","name":"Turkey Knob","lat":36.6701274,"lon":-91.157212,"elevationM":234},{"id":"node:358065353","kind":"peak","name":"Windes Hill","lat":36.9833847,"lon":-91.1695747,"elevationM":231},{"id":"node:358065363","kind":"peak","name":"Wolf Mountain","lat":36.6333923,"lon":-91.0937403,"elevationM":281},{"id":"node:358967371","kind":"peak","name":"Bellah Hills","lat":36.4717295,"lon":-91.1140173,"elevationM":225},{"id":"node:358968233","kind":"peak","name":"Britton Hill","lat":36.4181196,"lon":-91.4795835,"elevationM":250},{"id":"node:358969747","kind":"peak","name":"Cooley Hill","lat":36.3550651,"lon":-91.0642926,"elevationM":165},{"id":"node:358973335","kind":"peak","name":"Hunters Mountain","lat":36.0747924,"lon":-91.9979286,"elevationM":255},{"id":"node:358979293","kind":"peak","name":"Rock Quarry Hill","lat":36.3722872,"lon":-91.4537492,"elevationM":233},{"id":"node:358980391","kind":"peak","name":"Salem Knob","lat":36.3811761,"lon":-91.8251479,"elevationM":323},{"id":"node:358982832","kind":"peak","name":"Wallace Knob","lat":36.3767318,"lon":-91.8632044,"elevationM":333},{"id":"node:358983603","kind":"peak","name":"Wildcat Knob","lat":36.4325645,"lon":-91.8779271,"elevationM":326},{"id":"node:358985168","kind":"peak","name":"Baker Den Hill","lat":36.4536743,"lon":-91.1359622,"elevationM":190},{"id":"node:358985172","kind":"peak","name":"Baker Hill","lat":36.1306248,"lon":-91.6584757,"elevationM":203},{"id":"node:358985180","kind":"peak","name":"Bald Hill","lat":36.4256194,"lon":-91.1845746,"elevationM":187},{"id":"node:358985203","kind":"peak","name":"Bald Knob","lat":36.2136793,"lon":-91.3034659,"elevationM":200},{"id":"node:358985206","kind":"peak","name":"Bald Knob","lat":36.4453411,"lon":-91.0223477,"elevationM":192},{"id":"node:358985209","kind":"peak","name":"Bald Mountain","lat":36.0872921,"lon":-91.9640389,"elevationM":239},{"id":"node:358985248","kind":"peak","name":"Beard Hill","lat":36.3020109,"lon":-91.2692987,"elevationM":197},{"id":"node:358985264","kind":"peak","name":"Big Lick Hill","lat":36.1847909,"lon":-91.2898542,"elevationM":202},{"id":"node:358985277","kind":"peak","name":"Biggers Hill","lat":36.3245103,"lon":-91.4948614,"elevationM":168},{"id":"node:358985347","kind":"peak","name":"Bowman Hill","lat":36.3006221,"lon":-91.41847,"elevationM":230},{"id":"node:358985463","kind":"peak","name":"Burns Hill","lat":36.1528463,"lon":-91.7618122,"elevationM":247},{"id":"node:358985484","kind":"peak","name":"Byler Hill","lat":36.08757,"lon":-91.9979287,"elevationM":215},{"id":"node:358985517","kind":"peak","name":"Cave Hill","lat":36.1875687,"lon":-91.3070769,"elevationM":208},{"id":"node:358985641","kind":"peak","name":"Davidson Hill","lat":36.1361801,"lon":-91.6976436,"elevationM":227},{"id":"node:358985666","kind":"peak","name":"Denim Hill","lat":36.1820131,"lon":-91.4076355,"elevationM":208},{"id":"node:358985692","kind":"peak","name":"Divide Hill","lat":36.2034016,"lon":-91.4118025,"elevationM":196},{"id":"node:358985750","kind":"peak","name":"Ellison Hill","lat":36.3620096,"lon":-91.2606877,"elevationM":216},{"id":"node:358985763","kind":"peak","name":"Field Mountain","lat":36.2242347,"lon":-91.3362448,"elevationM":171},{"id":"node:358985810","kind":"peak","name":"Gann Hill","lat":36.1775688,"lon":-91.40958,"elevationM":210},{"id":"node:358985822","kind":"peak","name":"Gentry Hill","lat":36.4792294,"lon":-91.120962,"elevationM":221},{"id":"node:358985845","kind":"peak","name":"Goat Shed Mountain","lat":36.23729,"lon":-91.3279113,"elevationM":196},{"id":"node:358985877","kind":"peak","name":"Gravel Hill","lat":36.0589594,"lon":-91.6329189,"elevationM":192},{"id":"node:358985973","kind":"peak","name":"Higgs Mountain","lat":36.4586743,"lon":-91.2204093,"elevationM":226},{"id":"node:358986117","kind":"peak","name":"Levi Hill","lat":36.3389546,"lon":-91.3018,"elevationM":216},{"id":"node:358986248","kind":"peak","name":"Mine Hill","lat":36.4533966,"lon":-91.1890194,"elevationM":170},{"id":"node:358986317","kind":"peak","name":"Oaks Hill","lat":36.284789,"lon":-91.2429089,"elevationM":175},{"id":"node:358986328","kind":"peak","name":"Mount Olive","lat":36.2134015,"lon":-91.3254111,"elevationM":201},{"id":"node:358986335","kind":"peak","name":"Panther Hill","lat":36.1953463,"lon":-91.2834651,"elevationM":196},{"id":"node:358986364","kind":"peak","name":"Phillips Knob","lat":36.4936734,"lon":-91.0240149,"elevationM":206},{"id":"node:358986415","kind":"peak","name":"Pine Hill","lat":36.4228423,"lon":-91.8487597,"elevationM":308},{"id":"node:358986786","kind":"peak","name":"Shaw Knob","lat":36.4425644,"lon":-91.8937608,"elevationM":272},{"id":"node:358986914","kind":"peak","name":"Stone Hill","lat":36.4189528,"lon":-91.102072,"elevationM":187},{"id":"node:358986994","kind":"peak","name":"Tater Hill","lat":36.1447916,"lon":-91.4393029,"elevationM":173},{"id":"node:358987005","kind":"peak","name":"Thorn Hill","lat":36.2467332,"lon":-91.9940402,"elevationM":262},{"id":"node:358987041","kind":"peak","name":"Turkey Knob","lat":36.3903428,"lon":-91.8684822,"elevationM":278},{"id":"node:358987061","kind":"peak","name":"Tyner Hill","lat":36.1692356,"lon":-91.4051353,"elevationM":192},{"id":"node:358987104","kind":"peak","name":"Ward Hill","lat":36.3497877,"lon":-91.2987443,"elevationM":219},{"id":"node:11371472757","kind":"peak","name":"Mount Mesara","lat":36.355247,"lon":-91.591581,"elevationM":null},{"id":"node:13196325151","kind":"peak","name":"Devils Backbone","lat":36.8426215,"lon":-91.3983729,"elevationM":null}]}