{"tileKey":"la_p4_lo_m63","version":"v1-1775891056926","entries":[{"id":"node:13198007448","kind":"peak","name":"Cerro Arautapa","lat":4.5902851,"lon":-62.2013712,"elevationM":null},{"id":"node:13198015370","kind":"peak","name":"Cerro Paredén","lat":4.6626612,"lon":-62.2436965,"elevationM":930},{"id":"node:13246276081","kind":"peak","name":"Piedra Kuturikén","lat":4.2997774,"lon":-62.4712014,"elevationM":1095},{"id":"node:13246276083","kind":"peak","name":"Piedra Karista","lat":4.2035745,"lon":-62.4199391,"elevationM":660},{"id":"node:13246410530","kind":"peak","name":"Pirámide del Kuchitara","lat":4.3618269,"lon":-62.0078337,"elevationM":null},{"id":"node:13246669671","kind":"peak","name":"Cerro Tupí","lat":4.4630744,"lon":-62.1327281,"elevationM":980},{"id":"node:13246870296","kind":"peak","name":"Cerro Wakén","lat":4.2540179,"lon":-62.0780003,"elevationM":null},{"id":"node:13246870298","kind":"peak","name":"Cerro Marabada","lat":4.3114067,"lon":-62.1279431,"elevationM":null},{"id":"node:13246891201","kind":"peak","name":"Cerro Arichai","lat":4.315087,"lon":-62.0847273,"elevationM":null},{"id":"node:13246891205","kind":"peak","name":"Cerro Kauripí","lat":4.395706,"lon":-62.0832253,"elevationM":null},{"id":"node:13246898219","kind":"peak","name":"Cerro Wiyaparú","lat":4.4378093,"lon":-62.1740342,"elevationM":null},{"id":"node:13246901011","kind":"peak","name":"Cerro Pareteute","lat":4.5609818,"lon":-62.0983315,"elevationM":1080},{"id":"node:13246903584","kind":"peak","name":"Cerro Kurebadén","lat":4.6984188,"lon":-62.1762228,"elevationM":730},{"id":"node:13246903590","kind":"peak","name":"Cerro Paredén","lat":4.6183039,"lon":-62.1361399,"elevationM":null},{"id":"node:13246903591","kind":"peak","name":"Cerro Sawayén","lat":4.6595815,"lon":-62.0974517,"elevationM":null},{"id":"node:13247668658","kind":"peak","name":"Cerro Penawara","lat":4.1238396,"lon":-62.2068751,"elevationM":630},{"id":"node:13247668669","kind":"peak","name":"Cerro Shapuwé","lat":4.0985312,"lon":-62.179699,"elevationM":730},{"id":"node:13247668671","kind":"peak","name":"Cerro Kuyawata","lat":4.1037642,"lon":-62.160945,"elevationM":623},{"id":"node:13247668672","kind":"peak","name":"Cerro Tsayurí","lat":4.1007678,"lon":-62.1329642,"elevationM":730},{"id":"node:13247668673","kind":"peak","name":"Cerro Wotiyana","lat":4.1244389,"lon":-62.1189738,"elevationM":780},{"id":"node:13247668674","kind":"peak","name":"Cerro Anapoma","lat":4.1199765,"lon":-62.1422875,"elevationM":780},{"id":"node:13247695703","kind":"peak","name":"Cerro Worinama","lat":4.1870589,"lon":-62.1502376,"elevationM":782},{"id":"node:13247695704","kind":"peak","name":"Cerro Wesariná","lat":4.1565735,"lon":-62.1050906,"elevationM":860},{"id":"node:13247695705","kind":"peak","name":"Cerro Orinapó","lat":4.1484303,"lon":-62.1499157,"elevationM":600},{"id":"node:13247695706","kind":"peak","name":"Cerro Yamaturu","lat":4.150121,"lon":-62.1619535,"elevationM":600},{"id":"node:13247695707","kind":"peak","name":"Cerro Yupanare","lat":4.2345236,"lon":-62.1836043,"elevationM":680},{"id":"node:13247695708","kind":"peak","name":"Cerro Toruwana","lat":4.222219,"lon":-62.1833253,"elevationM":700},{"id":"node:13247695709","kind":"peak","name":"Cerro Emakotó","lat":4.2698527,"lon":-62.1366549,"elevationM":560},{"id":"node:13247695710","kind":"peak","name":"Cerro Parayina","lat":4.2813862,"lon":-62.1722102,"elevationM":542},{"id":"node:13247695711","kind":"peak","name":"Cerro Shinarú","lat":4.2844461,"lon":-62.1801496,"elevationM":586},{"id":"node:13247695712","kind":"peak","name":"Cerro Wasurima","lat":4.2955728,"lon":-62.1928954,"elevationM":616},{"id":"node:13247695713","kind":"peak","name":"Cerro Kinamaru","lat":4.2530764,"lon":-62.2035599,"elevationM":751},{"id":"node:13247695714","kind":"peak","name":"Cerro Sapótana","lat":4.252413,"lon":-62.218194,"elevationM":745},{"id":"node:13247695715","kind":"peak","name":"Cerro Kurumá","lat":4.2709868,"lon":-62.233944,"elevationM":686},{"id":"node:13247695716","kind":"peak","name":"Cerro Omepuru","lat":4.2853448,"lon":-62.2279573,"elevationM":715},{"id":"node:13247695717","kind":"peak","name":"Cerro Amurana","lat":4.2375194,"lon":-62.2496832,"elevationM":920},{"id":"node:13247695718","kind":"peak","name":"Cerro Manawé","lat":4.2184099,"lon":-62.2473335,"elevationM":831},{"id":"node:13247695719","kind":"peak","name":"Cerro Nawakare","lat":4.181559,"lon":-62.261281,"elevationM":690},{"id":"node:13247695720","kind":"peak","name":"Cerro Yaramatú","lat":4.175738,"lon":-62.315526,"elevationM":642},{"id":"node:13247695721","kind":"peak","name":"Cerro Pekaritú","lat":4.1897982,"lon":-62.3005486,"elevationM":633},{"id":"node:13247695722","kind":"peak","name":"Cerro Puyaroma","lat":4.2203251,"lon":-62.3062992,"elevationM":620},{"id":"node:13247695723","kind":"peak","name":"Cerro Yekopó","lat":4.2265845,"lon":-62.28526,"elevationM":795},{"id":"node:13247695724","kind":"peak","name":"Cerro Womaburi","lat":4.2141621,"lon":-62.2706688,"elevationM":1105},{"id":"node:13247722753","kind":"peak","name":"Cerro Mariparú","lat":4.7342922,"lon":-62.3331535,"elevationM":700},{"id":"node:13247722754","kind":"peak","name":"Cerro Aramina","lat":4.6796848,"lon":-62.3280788,"elevationM":830},{"id":"node:13247722755","kind":"peak","name":"Cerro Apowata","lat":4.6148604,"lon":-62.3073721,"elevationM":891},{"id":"node:13247722756","kind":"peak","name":"Cerro Morikatu","lat":4.5870768,"lon":-62.287674,"elevationM":867},{"id":"node:13247722757","kind":"peak","name":"Cerro Kayaneto","lat":4.5484473,"lon":-62.2566033,"elevationM":712},{"id":"node:13247722758","kind":"peak","name":"Cerro Kunepana","lat":4.5326184,"lon":-62.2771597,"elevationM":680},{"id":"node:13247722759","kind":"peak","name":"Cerro Wayarima","lat":4.5087462,"lon":-62.2564316,"elevationM":620},{"id":"node:13247722760","kind":"peak","name":"Cerro Sanukari","lat":4.4945422,"lon":-62.2817946,"elevationM":670},{"id":"node:13247722761","kind":"peak","name":"Cerro Ñakoparú","lat":4.5287253,"lon":-62.3041105,"elevationM":702},{"id":"node:13247722762","kind":"peak","name":"Cerro Tepokó","lat":4.5419339,"lon":-62.333529,"elevationM":975},{"id":"node:13247722763","kind":"peak","name":"Cerro Sakorina","lat":4.5222225,"lon":-62.3207402,"elevationM":876},{"id":"node:13247722764","kind":"peak","name":"Cerro Owanama","lat":4.5019223,"lon":-62.3608446,"elevationM":803},{"id":"node:13247722765","kind":"peak","name":"Cerro Nupamari","lat":4.4988312,"lon":-62.3333573,"elevationM":810},{"id":"node:13247722766","kind":"peak","name":"Cerro Porikuna","lat":4.520062,"lon":-62.411415,"elevationM":982},{"id":"node:13247722767","kind":"peak","name":"Cerro Makurama","lat":4.5053235,"lon":-62.4028909,"elevationM":1004},{"id":"node:13247722768","kind":"peak","name":"Cerro Shinawe","lat":4.4844025,"lon":-62.4628115,"elevationM":920},{"id":"node:13247722769","kind":"peak","name":"Cerro Awarina","lat":4.4697702,"lon":-62.4596787,"elevationM":1105},{"id":"node:13247722770","kind":"peak","name":"Cerro Yewanatu","lat":4.480445,"lon":-62.3852205,"elevationM":873},{"id":"node:13247722771","kind":"peak","name":"Cerro Yemaramu","lat":4.4793112,"lon":-62.3438287,"elevationM":825},{"id":"node:13247722772","kind":"peak","name":"Cerro Wuronama","lat":4.5108425,"lon":-62.313037,"elevationM":840},{"id":"node:13247722773","kind":"peak","name":"Cerro Inawapó","lat":4.5496879,"lon":-62.2823525,"elevationM":765},{"id":"node:13247722774","kind":"peak","name":"Chacó Tepuy","lat":4.5907984,"lon":-62.3480988,"elevationM":1050},{"id":"node:13247722775","kind":"peak","name":"Cerro Yumariba","lat":4.5262654,"lon":-62.2117353,"elevationM":null},{"id":"node:13247722776","kind":"peak","name":"Cerro Meyawana","lat":4.3869342,"lon":-62.2129584,"elevationM":520},{"id":"node:13247722777","kind":"peak","name":"Cerro Rupakóna","lat":4.3970324,"lon":-62.2661519,"elevationM":600},{"id":"node:13247722778","kind":"peak","name":"Cerro Pemayato","lat":4.4916115,"lon":-62.2198677,"elevationM":590},{"id":"node:13247722779","kind":"peak","name":"Cerro Rokawana","lat":4.4801241,"lon":-62.2281504,"elevationM":616},{"id":"node:13247722780","kind":"peak","name":"Cerro Shimato","lat":4.4710538,"lon":-62.2225285,"elevationM":614},{"id":"node:13247722781","kind":"peak","name":"Cerro Ayurama","lat":4.439371,"lon":-62.2432995,"elevationM":603},{"id":"node:13247722782","kind":"peak","name":"Cerro Teyakura","lat":4.4254117,"lon":-62.3099578,"elevationM":721},{"id":"node:13247722783","kind":"peak","name":"Cerro Yaipuru","lat":4.4402534,"lon":-62.3169691,"elevationM":753},{"id":"node:13247722784","kind":"peak","name":"Cerro Manopare","lat":4.4106713,"lon":-62.3072112,"elevationM":743},{"id":"node:13247722785","kind":"peak","name":"Cerro Matunari","lat":4.4329957,"lon":-62.2957206,"elevationM":771},{"id":"node:13247722786","kind":"peak","name":"Cerro Enawana","lat":4.4335948,"lon":-62.4163771,"elevationM":873},{"id":"node:13247722787","kind":"peak","name":"Cerro Kamapure","lat":4.446174,"lon":-62.3568964,"elevationM":847},{"id":"node:13247722788","kind":"peak","name":"Cerro Kumakaro","lat":4.436162,"lon":-62.3743201,"elevationM":797},{"id":"node:13247722789","kind":"peak","name":"Cerro Piyomari","lat":4.4304927,"lon":-62.3669601,"elevationM":803},{"id":"node:13247722790","kind":"peak","name":"Cerro Yewakama","lat":4.4024666,"lon":-62.3748565,"elevationM":650},{"id":"node:13247722791","kind":"peak","name":"Cerro Kaporima","lat":4.4022527,"lon":-62.3460818,"elevationM":613},{"id":"node:13247722792","kind":"peak","name":"Cerro Kowamato","lat":4.397118,"lon":-62.3356962,"elevationM":605},{"id":"node:13247722793","kind":"peak","name":"Cerro Kuritawé","lat":4.3905927,"lon":-62.3261476,"elevationM":674},{"id":"node:13247722794","kind":"peak","name":"Cerro Yayénaru","lat":4.4079222,"lon":-62.418201,"elevationM":758},{"id":"node:13247722795","kind":"peak","name":"Cerro Wapamato","lat":4.4083714,"lon":-62.445302,"elevationM":934},{"id":"node:13247722796","kind":"peak","name":"Cerro Kuyamatu","lat":4.395952,"lon":-62.4230719,"elevationM":721},{"id":"node:13247722797","kind":"peak","name":"Cerro Purané","lat":4.4287384,"lon":-62.4477911,"elevationM":1185},{"id":"node:13247722798","kind":"peak","name":"Cerro Tokapure","lat":4.4279683,"lon":-62.4787009,"elevationM":1185},{"id":"node:13247722799","kind":"peak","name":"Cerro Yewanara","lat":4.4162658,"lon":-62.4876917,"elevationM":1165},{"id":"node:13247722800","kind":"peak","name":"Cerro Okuramá","lat":4.4234007,"lon":-62.5228393,"elevationM":1215},{"id":"node:13247722901","kind":"peak","name":"Cerro Kanepurú","lat":4.4125433,"lon":-62.5310898,"elevationM":1157},{"id":"node:13247722902","kind":"peak","name":"Cerro Yaramaki","lat":4.3999849,"lon":-62.555809,"elevationM":900},{"id":"node:13247722903","kind":"peak","name":"Cerro Ñurimata","lat":4.3811789,"lon":-62.450881,"elevationM":742},{"id":"node:13247722904","kind":"peak","name":"Cerro Karopanare","lat":4.3882607,"lon":-62.5032807,"elevationM":865},{"id":"node:13247722905","kind":"peak","name":"Cerro Kapuyare","lat":4.3478662,"lon":-62.4371052,"elevationM":866},{"id":"node:13247722906","kind":"peak","name":"Cerro Osipurú","lat":4.3698181,"lon":-62.4726176,"elevationM":811},{"id":"node:13247722907","kind":"peak","name":"Cerro Tukuwana","lat":4.3646405,"lon":-62.5011778,"elevationM":1120},{"id":"node:13247722908","kind":"peak","name":"Cerro Omayari","lat":4.3515891,"lon":-62.2813869,"elevationM":621},{"id":"node:13247722909","kind":"peak","name":"Cerro Niyamato","lat":4.354178,"lon":-62.2429776,"elevationM":610},{"id":"node:13247722910","kind":"peak","name":"Cerro Orapurú","lat":4.3377459,"lon":-62.2328925,"elevationM":610},{"id":"node:13247722911","kind":"peak","name":"Cerro Wakurama","lat":4.3210353,"lon":-62.2239018,"elevationM":615},{"id":"node:13247722912","kind":"peak","name":"Cerro Pitonaré","lat":4.300323,"lon":-62.2067785,"elevationM":615},{"id":"node:13247722913","kind":"peak","name":"Cerro Kuruapá","lat":4.2425482,"lon":-62.2853351,"elevationM":630},{"id":"node:13247722914","kind":"peak","name":"Cerro Kamairu","lat":4.2576985,"lon":-62.2772241,"elevationM":601},{"id":"node:13247722915","kind":"peak","name":"Cerro Tawané","lat":4.2651023,"lon":-62.2867727,"elevationM":691},{"id":"node:13247722916","kind":"peak","name":"Cerro El Saludón","lat":4.2403655,"lon":-62.3909927,"elevationM":590},{"id":"node:13247722917","kind":"peak","name":"Cerro Sedunika","lat":4.270837,"lon":-62.3841477,"elevationM":551},{"id":"node:13247722918","kind":"peak","name":"Cerro Kawenurí","lat":4.268526,"lon":-62.3652435,"elevationM":560},{"id":"node:13247722919","kind":"peak","name":"Cerro Ketoniri","lat":4.2706712,"lon":-62.3739499,"elevationM":611},{"id":"node:13247722920","kind":"peak","name":"Cerro Junisaka","lat":4.2608012,"lon":-62.3415756,"elevationM":606},{"id":"node:13247722921","kind":"peak","name":"Cerro Amakurai","lat":4.3281817,"lon":-62.2867513,"elevationM":651},{"id":"node:13247722922","kind":"peak","name":"Cerro Opayena","lat":4.304474,"lon":-62.2839189,"elevationM":620},{"id":"node:13247722923","kind":"peak","name":"Cerro Kuremaru","lat":4.3109574,"lon":-62.2681046,"elevationM":673},{"id":"node:13247722924","kind":"peak","name":"Cerro Karamatú","lat":4.2982475,"lon":-62.2720313,"elevationM":681},{"id":"node:13247722925","kind":"peak","name":"Cerro Wakopana","lat":4.3824626,"lon":-62.2894335,"elevationM":786},{"id":"node:13247722926","kind":"peak","name":"Cerro Yuwapana","lat":4.3685986,"lon":-62.3083592,"elevationM":723},{"id":"node:13247722927","kind":"peak","name":"Cerro Surawana","lat":4.3660311,"lon":-62.3556948,"elevationM":673},{"id":"node:13247722928","kind":"peak","name":"Cerro Yamarana","lat":4.3358202,"lon":-62.3754144,"elevationM":725},{"id":"node:13247722929","kind":"peak","name":"Cerro Tikanoma","lat":4.2997453,"lon":-62.3339582,"elevationM":660},{"id":"node:13247722930","kind":"peak","name":"Cerro Kopiruma","lat":4.3186602,"lon":-62.3614776,"elevationM":725},{"id":"node:13247722931","kind":"peak","name":"Cerro Apuwaré","lat":4.3553762,"lon":-62.387774,"elevationM":763},{"id":"node:13247722932","kind":"peak","name":"Cerro Samurana","lat":4.329059,"lon":-62.4009276,"elevationM":625},{"id":"node:13247722933","kind":"peak","name":"Cerro Merayatu","lat":4.3330173,"lon":-62.3902202,"elevationM":720},{"id":"node:13247722934","kind":"peak","name":"Cerro Tsamapó","lat":4.3509686,"lon":-62.4117208,"elevationM":962},{"id":"node:13247722935","kind":"peak","name":"Cerro Wotepó","lat":4.3320545,"lon":-62.436676,"elevationM":1087},{"id":"node:13247722936","kind":"peak","name":"Cerro Sakurama","lat":4.3333383,"lon":-62.4530483,"elevationM":1030},{"id":"node:13247722937","kind":"peak","name":"Cerro Ñaperutu","lat":4.3545631,"lon":-62.4641848,"elevationM":910},{"id":"node:13247722938","kind":"peak","name":"Cerro Ropañe","lat":4.3345364,"lon":-62.4963069,"elevationM":1130},{"id":"node:13247722939","kind":"peak","name":"Cerro Wayumare","lat":4.3322256,"lon":-62.4743128,"elevationM":1121},{"id":"node:13247722940","kind":"peak","name":"Cerro Tupakana","lat":4.3200724,"lon":-62.4899769,"elevationM":1110},{"id":"node:13247722941","kind":"peak","name":"Cerro Kunakopé","lat":4.3142525,"lon":-62.4681545,"elevationM":1130},{"id":"node:13247722942","kind":"peak","name":"Cerro Wemakuri","lat":4.2930265,"lon":-62.419585,"elevationM":610},{"id":"node:13247722943","kind":"peak","name":"Cerro Topayana","lat":4.3054262,"lon":-62.4318481,"elevationM":866},{"id":"node:13247722944","kind":"peak","name":"Cerro Rimatsu","lat":4.3043885,"lon":-62.4490357,"elevationM":941},{"id":"node:13247722945","kind":"peak","name":"Cerro Pitawe","lat":4.3210245,"lon":-62.5067622,"elevationM":1200},{"id":"node:13247722946","kind":"peak","name":"Cerro Yarupata","lat":4.2214165,"lon":-62.4889362,"elevationM":600},{"id":"node:13247722947","kind":"peak","name":"Cerro Kunayare","lat":4.2400659,"lon":-62.4815655,"elevationM":677},{"id":"node:13247722948","kind":"peak","name":"Cerro Ruwakama","lat":4.2288956,"lon":-62.4604726,"elevationM":674},{"id":"node:13247722949","kind":"peak","name":"Cerro Wokamato","lat":4.2013329,"lon":-62.4305284,"elevationM":715},{"id":"node:13247722950","kind":"peak","name":"Cerro Suripana","lat":4.2090796,"lon":-62.4407315,"elevationM":675},{"id":"node:13247722951","kind":"peak","name":"Cerro Oyamari","lat":4.2061693,"lon":-62.4571252,"elevationM":730},{"id":"node:13247722952","kind":"peak","name":"Cerro Katamona","lat":4.1939926,"lon":-62.4790549,"elevationM":655},{"id":"node:13247722953","kind":"peak","name":"Cerro Mapéru","lat":4.1950626,"lon":-62.4918866,"elevationM":672},{"id":"node:13247722955","kind":"peak","name":"Cerro Temaparu","lat":4.1922164,"lon":-62.374878,"elevationM":602},{"id":"node:13311001893","kind":"peak","name":"Cerro Pomwibara","lat":4.7590229,"lon":-62.2265196,"elevationM":930},{"id":"node:13311001894","kind":"peak","name":"Cerro Menatabaray","lat":4.9164956,"lon":-62.3283363,"elevationM":1000},{"id":"node:13311001895","kind":"peak","name":"Cerro Manibara","lat":4.8448516,"lon":-62.3536563,"elevationM":900},{"id":"node:13311001896","kind":"peak","name":"Cerro Kabaireima","lat":4.7875695,"lon":-62.3333895,"elevationM":800},{"id":"node:13311001897","kind":"peak","name":"Cerro Erepuchi","lat":4.7577505,"lon":-62.3109341,"elevationM":780},{"id":"node:13311020441","kind":"peak","name":"Cerro Simuruyén","lat":4.9907397,"lon":-62.4928522,"elevationM":750},{"id":"node:13311030026","kind":"peak","name":"Cerro Arichay","lat":4.9051006,"lon":-62.4261403,"elevationM":820},{"id":"node:13319252689","kind":"peak","name":"Cerro Yamurato","lat":4.7078926,"lon":-62.4823809,"elevationM":733},{"id":"node:13319252690","kind":"peak","name":"Cerro Mashapó","lat":4.7063528,"lon":-62.5278282,"elevationM":748},{"id":"node:13319252691","kind":"peak","name":"Cerro Mekatana","lat":4.7281869,"lon":-62.5541783,"elevationM":831},{"id":"node:13319252692","kind":"peak","name":"Cerro Tonakuri","lat":4.7578682,"lon":-62.5913859,"elevationM":866},{"id":"node:13319252693","kind":"peak","name":"Cerro Yewampé","lat":4.7288284,"lon":-62.5752497,"elevationM":905},{"id":"node:13319252694","kind":"peak","name":"Cerro Orapoñá","lat":4.6961092,"lon":-62.6160193,"elevationM":740},{"id":"node:13319252695","kind":"peak","name":"Cerro Tukayana","lat":4.6857371,"lon":-62.7261615,"elevationM":631},{"id":"node:13319252696","kind":"peak","name":"Cerro Kaiwokó","lat":4.7036796,"lon":-62.6847267,"elevationM":657},{"id":"node:13319252697","kind":"peak","name":"Cerro Yarokina","lat":4.7634279,"lon":-62.6717234,"elevationM":744},{"id":"node:13319252698","kind":"peak","name":"Cerro Tokiwena","lat":4.7634707,"lon":-62.6539565,"elevationM":727},{"id":"node:13319252699","kind":"peak","name":"Cerro Korupana","lat":4.8060654,"lon":-62.705369,"elevationM":750},{"id":"node:13319252700","kind":"peak","name":"Cerro Amawato","lat":4.8049107,"lon":-62.6864648,"elevationM":741},{"id":"node:13319253201","kind":"peak","name":"Cerro Norikama","lat":4.8068565,"lon":-62.7902341,"elevationM":730},{"id":"node:13319253202","kind":"peak","name":"Cerro Romatiri","lat":4.8140623,"lon":-62.7538634,"elevationM":860},{"id":"node:13319253203","kind":"peak","name":"Cerro Puwamari","lat":4.8726464,"lon":-62.7280712,"elevationM":780},{"id":"node:13319253204","kind":"peak","name":"Cerro Yopinare","lat":4.8787397,"lon":-62.8180862,"elevationM":560},{"id":"node:13319253205","kind":"peak","name":"Cerro Kawarune","lat":4.8915034,"lon":-62.811327,"elevationM":730},{"id":"node:13319253206","kind":"peak","name":"Cerro Tamawero","lat":4.8599465,"lon":-62.8284932,"elevationM":625},{"id":"node:13319253207","kind":"peak","name":"Cerro Kotaburi","lat":4.8825667,"lon":-62.9896403,"elevationM":532},{"id":"node:13319253228","kind":"peak","name":"Cerro Merikana","lat":4.9756479,"lon":-62.6490212,"elevationM":612},{"id":"node:13319253229","kind":"peak","name":"Cerro Yopanatú","lat":4.9452066,"lon":-62.669878,"elevationM":635},{"id":"node:13319253230","kind":"peak","name":"Cerro Sakumena","lat":4.9650021,"lon":-62.703352,"elevationM":692},{"id":"node:13319253231","kind":"peak","name":"Cerro Roparima","lat":4.969021,"lon":-62.7374268,"elevationM":654},{"id":"node:13319253232","kind":"peak","name":"Cerro Somiretú","lat":4.9555961,"lon":-62.7697421,"elevationM":752},{"id":"node:13319253233","kind":"peak","name":"Cerro Wesokina","lat":4.9629927,"lon":-62.9024792,"elevationM":567},{"id":"node:13319253268","kind":"peak","name":"Cerro Soranika","lat":4.7925731,"lon":-62.9407811,"elevationM":485},{"id":"node:13319253269","kind":"peak","name":"Cerro Wurayeto","lat":4.7962936,"lon":-62.9528618,"elevationM":495},{"id":"node:13319253270","kind":"peak","name":"Cerro Jeyasuna","lat":4.8062792,"lon":-62.9609943,"elevationM":495},{"id":"node:13319253279","kind":"peak","name":"Cerro Wutanori","lat":4.7251075,"lon":-62.9382706,"elevationM":560},{"id":"node:13319253280","kind":"peak","name":"Cerro Wewanu","lat":4.5892798,"lon":-62.6688695,"elevationM":680},{"id":"node:13319253281","kind":"peak","name":"Cerro Surinamei","lat":4.6073532,"lon":-62.6890397,"elevationM":577},{"id":"node:13319253282","kind":"peak","name":"Cerro Puruwé","lat":4.6701037,"lon":-62.7597213,"elevationM":673},{"id":"node:13319253283","kind":"peak","name":"Cerro Sibuteka","lat":4.7145006,"lon":-62.897501,"elevationM":526},{"id":"node:13319253284","kind":"peak","name":"Cerro Jorimena","lat":4.6855018,"lon":-62.8991747,"elevationM":545},{"id":"node:13319253285","kind":"peak","name":"Cerro Teboniká","lat":4.6821228,"lon":-62.8767729,"elevationM":538},{"id":"node:13319253286","kind":"peak","name":"Cerro Kenurita","lat":4.6724563,"lon":-62.9003334,"elevationM":577},{"id":"node:13319253287","kind":"peak","name":"Cerro Kesaruna","lat":4.6538927,"lon":-62.8929949,"elevationM":572},{"id":"node:13319253288","kind":"peak","name":"Cerro Yowasina","lat":4.5812482,"lon":-62.8363896,"elevationM":590},{"id":"node:13319253289","kind":"peak","name":"Cerro Soborito","lat":4.5758261,"lon":-62.8247595,"elevationM":650},{"id":"node:13319253290","kind":"peak","name":"Cerro Tobanika","lat":4.532704,"lon":-62.870164,"elevationM":647},{"id":"node:13319253291","kind":"peak","name":"Cerro Winutako","lat":4.5058155,"lon":-62.8291154,"elevationM":620},{"id":"node:13319253292","kind":"peak","name":"Cerro Wobitena","lat":4.4968739,"lon":-62.9678178,"elevationM":665},{"id":"node:13319253293","kind":"peak","name":"Cerro Nakuyiri","lat":4.4687006,"lon":-62.9250527,"elevationM":670},{"id":"node:13319253294","kind":"peak","name":"Cerro Jekumiro","lat":4.4805305,"lon":-62.8580618,"elevationM":690},{"id":"node:13319253295","kind":"peak","name":"Cerro Kuyorina","lat":4.4437138,"lon":-62.8730607,"elevationM":780},{"id":"node:13319253296","kind":"peak","name":"Cerro Wemurita","lat":4.4245881,"lon":-62.8139449,"elevationM":682},{"id":"node:13319253297","kind":"peak","name":"Cerro Kematura","lat":4.4595874,"lon":-62.7940965,"elevationM":670},{"id":"node:13319253298","kind":"peak","name":"Cerro Jeyomura","lat":4.4959541,"lon":-62.765708,"elevationM":512},{"id":"node:13319253299","kind":"peak","name":"Cerro Suranika","lat":4.4692996,"lon":-62.681079,"elevationM":636},{"id":"node:13319253300","kind":"peak","name":"Cerro Kasinumi","lat":4.4317336,"lon":-62.7032662,"elevationM":611},{"id":"node:13319253301","kind":"peak","name":"Cerro Tirunaka","lat":4.0939831,"lon":-62.7676177,"elevationM":873},{"id":"node:13319253302","kind":"peak","name":"Cerro Simeraku","lat":4.1120898,"lon":-62.6448798,"elevationM":884},{"id":"node:13319253303","kind":"peak","name":"Cerro Koyasume","lat":4.1650804,"lon":-62.7338648,"elevationM":700},{"id":"node:13319253304","kind":"peak","name":"Cerro Sitaruna","lat":4.0978356,"lon":-62.706399,"elevationM":883},{"id":"node:13319253305","kind":"peak","name":"Cerro Jeyanuto","lat":4.0843089,"lon":-62.6604796,"elevationM":943},{"id":"node:13319253306","kind":"peak","name":"Cerro Wekonuri","lat":4.0635476,"lon":-62.5761295,"elevationM":871},{"id":"node:13319253307","kind":"peak","name":"Cerro Jeyorinó","lat":4.1270927,"lon":-62.5878453,"elevationM":683},{"id":"node:13319253308","kind":"peak","name":"Cerro Siyamata","lat":4.1411966,"lon":-62.5815154,"elevationM":706},{"id":"node:13319253309","kind":"peak","name":"Cerro Koranití","lat":4.2075389,"lon":-62.5434494,"elevationM":670},{"id":"node:13319253310","kind":"peak","name":"Cerro Watorino","lat":4.2036869,"lon":-62.5996256,"elevationM":716},{"id":"node:13319253311","kind":"peak","name":"Cerro Jemokura","lat":4.2537184,"lon":-62.6539565,"elevationM":620},{"id":"node:13319253312","kind":"peak","name":"Cerro Kurabina","lat":4.2140872,"lon":-62.6334429,"elevationM":690},{"id":"node:13319253313","kind":"peak","name":"Cerro Kawutena","lat":4.1910608,"lon":-62.6655865,"elevationM":745},{"id":"node:13319253314","kind":"peak","name":"Cerro Yutimaku","lat":4.1616991,"lon":-62.6051617,"elevationM":874},{"id":"node:13319253315","kind":"peak","name":"Cerro Senaburi","lat":4.1914674,"lon":-62.6264262,"elevationM":840},{"id":"node:13319253316","kind":"peak","name":"Cerro Wunasiro","lat":4.2437038,"lon":-62.7571679,"elevationM":634},{"id":"node:13319253317","kind":"peak","name":"Cerro Kobasina","lat":4.2325335,"lon":-62.6961637,"elevationM":800},{"id":"node:13319253318","kind":"peak","name":"Cerro Kobuyaka","lat":4.2750096,"lon":-62.6300311,"elevationM":502},{"id":"node:13319253319","kind":"peak","name":"Cerro Waburina","lat":4.2729768,"lon":-62.6745987,"elevationM":536},{"id":"node:13319253320","kind":"peak","name":"Cerro Kimirena","lat":4.2912933,"lon":-62.7159691,"elevationM":514},{"id":"node:13319253321","kind":"peak","name":"Cerro Kewomari","lat":4.3578795,"lon":-62.7716732,"elevationM":712},{"id":"node:13319253322","kind":"peak","name":"Cerro Sibotaku","lat":4.394679,"lon":-62.7598286,"elevationM":1003},{"id":"node:13319253323","kind":"peak","name":"Cerro Watoniso","lat":4.3739688,"lon":-62.7709866,"elevationM":925},{"id":"node:13319253324","kind":"peak","name":"Cerro Weyotina","lat":4.3375533,"lon":-62.7333928,"elevationM":924},{"id":"node:13319253325","kind":"peak","name":"Cerro Torinakó","lat":4.3561678,"lon":-62.7301741,"elevationM":917},{"id":"node:13319253326","kind":"peak","name":"Cerro Wamutini","lat":4.3191524,"lon":-62.6702214,"elevationM":645},{"id":"node:13319253327","kind":"peak","name":"Cerro Sutarina","lat":4.3002374,"lon":-62.6412535,"elevationM":742},{"id":"node:13319253328","kind":"peak","name":"Cerro Jenariná","lat":4.3189384,"lon":-62.6463604,"elevationM":716},{"id":"node:13319253329","kind":"peak","name":"Cerro Wunitaka","lat":4.3150442,"lon":-62.6222849,"elevationM":710},{"id":"node:13319253330","kind":"peak","name":"Cerro Koyaritú","lat":4.3508617,"lon":-62.6059342,"elevationM":720},{"id":"node:13319253331","kind":"peak","name":"Cerro Wekuriso","lat":4.3720005,"lon":-62.5588131,"elevationM":1190},{"id":"node:13319253332","kind":"peak","name":"Cerro Shepuná","lat":4.4829051,"lon":-62.5670529,"elevationM":860},{"id":"node:13319253333","kind":"peak","name":"Cerro Puyamatu","lat":4.5063503,"lon":-62.5949908,"elevationM":622},{"id":"node:13319253334","kind":"peak","name":"Cerro Taramí","lat":4.5324045,"lon":-62.6040888,"elevationM":890},{"id":"node:13319253335","kind":"peak","name":"Cerro Kakurana","lat":4.5683826,"lon":-62.6301384,"elevationM":975},{"id":"node:13319253336","kind":"peak","name":"Wopari Tepuy","lat":4.5459661,"lon":-62.542162,"elevationM":1280},{"id":"node:13319253337","kind":"peak","name":"Yapuruama Tepuy","lat":4.6288696,"lon":-62.6399232,"elevationM":1140},{"id":"node:13319253338","kind":"peak","name":"Cerro Maporitu","lat":4.6462789,"lon":-62.6829243,"elevationM":816},{"id":"node:13319253339","kind":"peak","name":"Cerro Ominare","lat":4.7411032,"lon":-62.7622319,"elevationM":1103},{"id":"node:13319261067","kind":"peak","name":"Cerro Soramiko","lat":4.2674561,"lon":-62.9173279,"elevationM":530},{"id":"node:13319261075","kind":"peak","name":"Cerro Nusariko","lat":4.0908155,"lon":-62.9712725,"elevationM":556},{"id":"node:13319261081","kind":"peak","name":"Cerro Wakurata","lat":4.0055414,"lon":-62.786522,"elevationM":901},{"id":"node:13319261082","kind":"peak","name":"Cerro Soruneko","lat":4.0372634,"lon":-62.8433633,"elevationM":925},{"id":"node:13319261083","kind":"peak","name":"Cerro Teyamiko","lat":4.0597377,"lon":-62.8544999,"elevationM":800},{"id":"node:13319261084","kind":"peak","name":"Cerro Wobarika","lat":4.0611932,"lon":-62.7939034,"elevationM":820},{"id":"node:13319261085","kind":"peak","name":"Cerro Wetonima","lat":4.1541659,"lon":-62.5366259,"elevationM":643},{"id":"node:13319261094","kind":"peak","name":"Cerro Jerabuni","lat":4.0519895,"lon":-62.9115344,"elevationM":774},{"id":"node:13319261095","kind":"peak","name":"Cerro Wabasirotí","lat":4.0328113,"lon":-62.9114485,"elevationM":751},{"id":"node:13319261096","kind":"peak","name":"Cerro Tokurana","lat":4.0309276,"lon":-62.8626538,"elevationM":910},{"id":"node:13319261097","kind":"peak","name":"Cerro Kimumakú","lat":4.095781,"lon":-62.8217555,"elevationM":970},{"id":"node:13319261098","kind":"peak","name":"Cerro Waborima","lat":4.1244603,"lon":-62.9216624,"elevationM":880},{"id":"node:13319261099","kind":"peak","name":"Cerro Masoriká","lat":4.0665013,"lon":-62.8895188,"elevationM":970},{"id":"node:13319261100","kind":"peak","name":"Cerro Wukaneti","lat":4.0833672,"lon":-62.9381848,"elevationM":700},{"id":"node:13319262304","kind":"peak","name":"Cerro Kuyasinú","lat":4.1277562,"lon":-62.9971075,"elevationM":762},{"id":"node:13319262306","kind":"peak","name":"Cerro Wotamise","lat":4.2023601,"lon":-62.9801989,"elevationM":600},{"id":"node:13319262307","kind":"peak","name":"Cerro Joratená","lat":4.1616135,"lon":-62.9596425,"elevationM":692},{"id":"node:13319262308","kind":"peak","name":"Cerro Kenobiró","lat":4.2195655,"lon":-62.8410888,"elevationM":683},{"id":"node:13319262309","kind":"peak","name":"Cerro Sikuriná","lat":4.193158,"lon":-62.8589631,"elevationM":700},{"id":"node:13319262310","kind":"peak","name":"Cerro Kurarinama","lat":4.1668995,"lon":-62.8292227,"elevationM":780},{"id":"node:13319262311","kind":"peak","name":"Cerro Mirayato","lat":4.4934299,"lon":-62.4844408,"elevationM":1101},{"id":"node:13319262317","kind":"peak","name":"Cerro Kumawena","lat":4.9616673,"lon":-62.8317118,"elevationM":656},{"id":"node:13319262330","kind":"peak","name":"Cerro Tonayaku","lat":4.9986917,"lon":-62.5631905,"elevationM":707},{"id":"node:13319262331","kind":"peak","name":"Cerro Yapumara","lat":4.9758616,"lon":-62.6032734,"elevationM":740},{"id":"node:13319262332","kind":"peak","name":"Cerro Kimapuru","lat":4.9618383,"lon":-62.605033,"elevationM":718},{"id":"node:13319262333","kind":"peak","name":"Cerro Taminare","lat":4.9254532,"lon":-62.5268626,"elevationM":552},{"id":"node:13319262334","kind":"peak","name":"Cerro Turayama","lat":4.7276309,"lon":-62.4994183,"elevationM":620},{"id":"node:13319262335","kind":"peak","name":"Cerro Opimatu","lat":4.8379242,"lon":-62.5400377,"elevationM":659},{"id":"node:13319262336","kind":"peak","name":"Cerro Nimawetu","lat":4.8548151,"lon":-62.5949049,"elevationM":744},{"id":"node:13319262337","kind":"peak","name":"Cerro Yarunata","lat":4.8549434,"lon":-62.6535702,"elevationM":750},{"id":"node:13319262338","kind":"peak","name":"Cerro Surinapó","lat":4.8526771,"lon":-62.6287651,"elevationM":870},{"id":"node:13319262339","kind":"peak","name":"Cerro Kupuweri","lat":4.9158114,"lon":-62.6505876,"elevationM":600},{"id":"node:13319262340","kind":"peak","name":"Cerro Shewate","lat":4.8926365,"lon":-62.6868081,"elevationM":660},{"id":"node:13319262341","kind":"peak","name":"Cerro Tumapó","lat":4.9192107,"lon":-62.7285004,"elevationM":717},{"id":"node:13319262342","kind":"peak","name":"Cerro Nikapure","lat":4.8399554,"lon":-62.7622533,"elevationM":790},{"id":"node:13319262343","kind":"peak","name":"Cerro Taponare","lat":4.8120738,"lon":-62.6629043,"elevationM":691},{"id":"node:13319262344","kind":"peak","name":"Cerro Kepiyaro","lat":4.8124586,"lon":-62.6740623,"elevationM":693},{"id":"node:13319262345","kind":"peak","name":"Cerro Kenawari","lat":4.8271693,"lon":-62.6400304,"elevationM":939},{"id":"node:13319262346","kind":"peak","name":"Cerro Shurimó","lat":4.8076904,"lon":-62.6380563,"elevationM":941},{"id":"node:13319262347","kind":"peak","name":"Cerro Tepuwari","lat":4.8241973,"lon":-62.6069212,"elevationM":843},{"id":"node:13319262348","kind":"peak","name":"Cerro Yowakana","lat":4.7981753,"lon":-62.5979734,"elevationM":830},{"id":"node:13319262349","kind":"peak","name":"Cerro Sumapona","lat":4.7897719,"lon":-62.5626326,"elevationM":935},{"id":"node:13319262350","kind":"peak","name":"Cerro Wekapori","lat":4.9696623,"lon":-62.5624824,"elevationM":945},{"id":"node:13319262351","kind":"peak","name":"Cerro Tayanaro","lat":4.9402042,"lon":-62.5570536,"elevationM":627},{"id":"node:13319262352","kind":"peak","name":"Cerro Weparina","lat":4.8391643,"lon":-62.4937964,"elevationM":609},{"id":"node:13319262353","kind":"peak","name":"Cerro Shurimatu","lat":4.7547034,"lon":-62.404275,"elevationM":683},{"id":"node:13319262354","kind":"peak","name":"Cerro Norimatu","lat":4.8007412,"lon":-62.3973441,"elevationM":528},{"id":"node:13319262355","kind":"peak","name":"Cerro Koyaruma","lat":4.782459,"lon":-62.3929239,"elevationM":573},{"id":"node:13319262356","kind":"peak","name":"Cerro Yekunare","lat":4.7714467,"lon":-62.3836541,"elevationM":580},{"id":"node:13319262357","kind":"peak","name":"Cerro Opayena","lat":4.782908,"lon":-62.427578,"elevationM":700},{"id":"node:13319262358","kind":"peak","name":"Cerro Asikama","lat":4.8382663,"lon":-62.4542714,"elevationM":707},{"id":"node:13319262359","kind":"peak","name":"Cerro Yatope","lat":4.8823957,"lon":-62.5368405,"elevationM":758},{"id":"node:13319262360","kind":"peak","name":"Cerro Werakuna","lat":4.8706794,"lon":-62.5557661,"elevationM":651},{"id":"node:13319262361","kind":"peak","name":"Cerro Paruyana","lat":4.8797018,"lon":-62.5982523,"elevationM":778},{"id":"node:13319262362","kind":"peak","name":"Cerro Okomarí","lat":4.8722615,"lon":-62.5772238,"elevationM":708},{"id":"node:13319262363","kind":"peak","name":"Cerro Remamari","lat":4.8315098,"lon":-62.5692845,"elevationM":841},{"id":"node:13319262364","kind":"peak","name":"Cerro Wamenuka","lat":4.7993941,"lon":-62.5207043,"elevationM":887},{"id":"node:13319262365","kind":"peak","name":"Cerro Rupayena","lat":4.7575688,"lon":-62.5042248,"elevationM":768},{"id":"node:13319262366","kind":"peak","name":"Cerro Wotayena","lat":4.7074863,"lon":-62.4097681,"elevationM":788},{"id":"node:13319262367","kind":"peak","name":"Cerro Kumutawi","lat":4.7243804,"lon":-62.4371481,"elevationM":635},{"id":"node:13319262368","kind":"peak","name":"Cerro Kapunari","lat":4.719077,"lon":-62.4577475,"elevationM":653},{"id":"node:13319262369","kind":"peak","name":"Cerro Yomaparú","lat":4.7807056,"lon":-62.3533988,"elevationM":546},{"id":"node:13319262370","kind":"peak","name":"Cerro Puwarama","lat":4.7370615,"lon":-62.3559737,"elevationM":748},{"id":"node:13319262371","kind":"peak","name":"Cerro Warumekó","lat":4.6615919,"lon":-62.4106265,"elevationM":758},{"id":"node:13319262372","kind":"peak","name":"Cerro Yarimako","lat":4.6486742,"lon":-62.3944474,"elevationM":692},{"id":"node:13319262373","kind":"peak","name":"Cerro Tarumako","lat":4.5981989,"lon":-62.3872376,"elevationM":820},{"id":"node:13319262374","kind":"peak","name":"Cerro Suturama","lat":4.6489737,"lon":-62.4331141,"elevationM":754},{"id":"node:13319262375","kind":"peak","name":"Cerro Wariapó","lat":4.6412315,"lon":-62.4665451,"elevationM":780},{"id":"node:13319262376","kind":"peak","name":"Cerro Yawarima","lat":4.6531227,"lon":-62.5373126,"elevationM":811},{"id":"node:13319262377","kind":"peak","name":"Cerro Kamaretu","lat":4.6302597,"lon":-62.5406385,"elevationM":877},{"id":"node:13319262378","kind":"peak","name":"Cerro Apenawe","lat":4.620571,"lon":-62.5040102,"elevationM":863},{"id":"node:13319262379","kind":"peak","name":"Cerro Surikotu","lat":4.5922529,"lon":-62.4917794,"elevationM":882},{"id":"node:13323169684","kind":"peak","name":"Cerro Opetamá","lat":4.4994195,"lon":-62.5201035,"elevationM":1056},{"id":"node:13323169685","kind":"peak","name":"Cerro Ekayamó","lat":4.5627357,"lon":-62.5895405,"elevationM":921},{"id":"node:13323169686","kind":"peak","name":"Cerro Tupokama","lat":4.4770436,"lon":-62.5104046,"elevationM":1068},{"id":"node:13323169687","kind":"peak","name":"Cerro Osamari","lat":4.4638231,"lon":-62.4790764,"elevationM":1151},{"id":"node:13323192081","kind":"peak","name":"Cerro Kuramatu","lat":4.4298937,"lon":-62.5538671,"elevationM":1230},{"id":"node:13323194430","kind":"peak","name":"Cerro Somatika","lat":4.2448379,"lon":-62.7229429,"elevationM":775},{"id":"node:13510501773","kind":"peak","name":"Piedra Kature","lat":4.3453789,"lon":-62.7432579,"elevationM":900}]}