{"tileKey":"la_p40_lo_p36","version":"v1-1775891056926","entries":[{"id":"node:1879738227","kind":"peak","name":"Gölçalı Tepesi","lat":40.6587552,"lon":36.1170094,"elevationM":1146},{"id":"node:1969820491","kind":"peak","name":"Dikilitaş Tepesi","lat":40.5584428,"lon":36.6841299,"elevationM":1433},{"id":"node:1969820494","kind":"peak","name":"Orta Dağ","lat":40.5033268,"lon":36.7543036,"elevationM":1245},{"id":"node:2228363084","kind":"peak","name":"Cami Tepesi","lat":40.6003523,"lon":36.2965954,"elevationM":1953},{"id":"node:2228363093","kind":"peak","name":"Himmetin Tepesi","lat":40.7199724,"lon":36.2529512,"elevationM":529},{"id":"node:2228363095","kind":"peak","name":"Kocababa Dağı","lat":40.6362347,"lon":36.0992406,"elevationM":1552},{"id":"node:2228363100","kind":"peak","name":"Otulcakuz Tepesi","lat":40.5422578,"lon":36.2202777,"elevationM":1573},{"id":"node:2228363107","kind":"peak","name":"Poyrazlık Tepesi","lat":40.5177225,"lon":36.3538302,"elevationM":1552},{"id":"node:2228363111","kind":"peak","name":"Sakarat Dağı","lat":40.6001569,"lon":36.2923468,"elevationM":1924},{"id":"node:2228779428","kind":"peak","name":"Balcı Sırtı","lat":40.8537639,"lon":36.0664489,"elevationM":1330},{"id":"node:2228779430","kind":"peak","name":"Kadodu Tepesi","lat":40.8214793,"lon":36.070614,"elevationM":1956},{"id":"node:2228779432","kind":"peak","name":"Kelsivri Tepesi","lat":40.8573782,"lon":36.2848522,"elevationM":1221},{"id":"node:2297310568","kind":"peak","name":"Akdağ","lat":40.215591,"lon":36.3473373,"elevationM":1907},{"id":"node:2297310582","kind":"peak","name":"Bakacak Tepesi","lat":40.2421143,"lon":36.0022189,"elevationM":1054},{"id":"node:2297310585","kind":"peak","name":"Başpınar Tepesi","lat":40.0952983,"lon":36.0608834,"elevationM":1589},{"id":"node:2297310597","kind":"peak","name":"Büyükçal Tepesi","lat":40.2801687,"lon":36.0443407,"elevationM":705},{"id":"node:2297310610","kind":"peak","name":"Göl Tepesi","lat":40.4160787,"lon":36.5507244,"elevationM":1630},{"id":"node:2297310636","kind":"peak","name":"Kavalkaya Tepesi","lat":40.1875239,"lon":36.1151734,"elevationM":1638},{"id":"node:2297310700","kind":"peak","name":"Tuzla Tepesi","lat":40.2035021,"lon":36.4094967,"elevationM":1503},{"id":"node:2304974512","kind":"peak","name":"Gürcü Tepesi","lat":40.1050874,"lon":36.6665304,"elevationM":1946},{"id":"node:2414620593","kind":"peak","name":"Meşeli Tepesi","lat":40.9262191,"lon":36.4473144,"elevationM":1245},{"id":"node:2463172669","kind":"peak","name":"Yıldız Dağı","lat":40.1215937,"lon":36.9125793,"elevationM":2552},{"id":"node:2508621180","kind":"peak","name":"Kurtbaba Tepesi","lat":40.672115,"lon":36.4772101,"elevationM":597},{"id":"node:2873310641","kind":"peak","name":"Bakımlı Dağı","lat":40.3942079,"lon":36.8218386,"elevationM":1789},{"id":"node:2995727807","kind":"peak","name":"Toraç Dağı","lat":40.2190467,"lon":36.8357463,"elevationM":2124},{"id":"node:3101783776","kind":"peak","name":"Eriklibacak Tepesi","lat":40.9467291,"lon":36.8052361,"elevationM":1136},{"id":"node:3695086663","kind":"peak","name":"Çataltepe","lat":40.8430926,"lon":36.3331877,"elevationM":1215},{"id":"node:6286933764","kind":"peak","name":"Hüseyin Gazi Tepesi","lat":40.536248,"lon":36.9639223,"elevationM":543},{"id":"node:8667687769","kind":"peak","name":"Karakiraz Tepesi","lat":40.9994801,"lon":36.8267298,"elevationM":943},{"id":"node:8667687772","kind":"peak","name":"Keçekesiği Tepesi","lat":40.9927752,"lon":36.8174815,"elevationM":959},{"id":"node:8667687773","kind":"peak","name":"Karaçamur Tepesi","lat":40.9820687,"lon":36.8146062,"elevationM":1036},{"id":"node:8667687775","kind":"peak","name":"Sülükgölü Tepesi","lat":40.9682498,"lon":36.8142628,"elevationM":1125},{"id":"node:8667687778","kind":"peak","name":"Şalgamlık Tepesi","lat":40.9594349,"lon":36.8190789,"elevationM":1140},{"id":"node:8667687779","kind":"peak","name":"Ortaca Tepesi","lat":40.9507654,"lon":36.8193054,"elevationM":1183},{"id":"node:8667687781","kind":"peak","name":"Uzunyazı Tepesi","lat":40.935716,"lon":36.7975902,"elevationM":1054},{"id":"node:8667687782","kind":"peak","name":"Eynebel Tepesi","lat":40.9260622,"lon":36.7954016,"elevationM":994},{"id":"node:8714716853","kind":"peak","name":"Asar T.","lat":40.3691822,"lon":36.3401932,"elevationM":1280},{"id":"node:9139447705","kind":"peak","name":"Gülağa Tepe","lat":40.6969087,"lon":36.8520926,"elevationM":1519},{"id":"node:9437333351","kind":"peak","name":"Kızılparmak T.","lat":40.3654618,"lon":36.3740741,"elevationM":875},{"id":"node:9437333352","kind":"peak","name":"Güllü T.","lat":40.3589412,"lon":36.3696572,"elevationM":725},{"id":"node:9437333353","kind":"peak","name":"Bülbüllük T.","lat":40.3675841,"lon":36.3579977,"elevationM":985},{"id":"node:9437333354","kind":"peak","name":"Bayramkaya T.","lat":40.3702979,"lon":36.3641989,"elevationM":975},{"id":"node:9437333355","kind":"peak","name":"Öksüz T.","lat":40.3683704,"lon":36.3457916,"elevationM":1205},{"id":"node:9911317476","kind":"peak","name":"Elicekkaya T.","lat":40.3197141,"lon":36.5339532,"elevationM":870},{"id":"node:9911335162","kind":"peak","name":"Ahmaklar T.","lat":40.3021494,"lon":36.5399173,"elevationM":1035},{"id":"node:9911350137","kind":"peak","name":"Haç T.","lat":40.3117758,"lon":36.5451799,"elevationM":765},{"id":"node:9911377214","kind":"peak","name":"Çatalkaya T.","lat":40.277318,"lon":36.5417392,"elevationM":795},{"id":"node:9911378895","kind":"peak","name":"Kuz T.","lat":40.282131,"lon":36.559679,"elevationM":975},{"id":"node:9911390333","kind":"peak","name":"Oyuk T.","lat":40.2719333,"lon":36.5700704,"elevationM":1270},{"id":"node:9911396946","kind":"peak","name":"Sarıkaya T.","lat":40.2994556,"lon":36.5826388,"elevationM":1030},{"id":"node:9911398428","kind":"peak","name":"Benli T.","lat":40.292815,"lon":36.5822319,"elevationM":1150},{"id":"node:9911402272","kind":"peak","name":"Çam T.","lat":40.3038454,"lon":36.5902277,"elevationM":1050},{"id":"node:10554797846","kind":"peak","name":"Karlı T.","lat":40.4114577,"lon":36.5558821,"elevationM":1570},{"id":"node:10554822537","kind":"peak","name":"Gölgesigüzel T.","lat":40.4236867,"lon":36.5493921,"elevationM":1580},{"id":"node:11595120933","kind":"peak","name":"Kınalık Tepesi","lat":40.9797504,"lon":36.7768501,"elevationM":1199},{"id":"node:11595120934","kind":"peak","name":"Kabalak Tepesi","lat":40.9730677,"lon":36.7759227,"elevationM":1204},{"id":"node:11595125723","kind":"peak","name":"Ketenlikbaşı Tepesi","lat":40.9713332,"lon":36.7875576,"elevationM":1146},{"id":"node:11595125730","kind":"peak","name":"Devret Tepesi","lat":40.9888795,"lon":36.7709258,"elevationM":1165},{"id":"node:11595503363","kind":"peak","name":"Fındıklıyokuş Tepesi","lat":40.9951168,"lon":36.7630772,"elevationM":1016},{"id":"node:11595518184","kind":"peak","name":"Ketenlik Tepesi","lat":40.964108,"lon":36.7873568,"elevationM":1063},{"id":"node:11595518185","kind":"peak","name":"Armutbelen Tepesi","lat":40.9546664,"lon":36.7827207,"elevationM":1033},{"id":"node:11595518186","kind":"peak","name":"Tekke Tepesi","lat":40.951687,"lon":36.7703317,"elevationM":894},{"id":"node:11595518187","kind":"peak","name":"Sırganlı Tepesi","lat":40.9564126,"lon":36.7661617,"elevationM":1054},{"id":"node:11595518188","kind":"peak","name":"Meşeli Tepesi","lat":40.9517188,"lon":36.762586,"elevationM":974},{"id":"node:11595518189","kind":"peak","name":"Yağcı Tepesi","lat":40.9563765,"lon":36.7603171,"elevationM":981},{"id":"node:11595518190","kind":"peak","name":"İncegeriş Tepesi","lat":40.9448499,"lon":36.7752926,"elevationM":887},{"id":"node:11595518191","kind":"peak","name":"Karaderebaşı Tepesi","lat":40.9548106,"lon":36.7982038,"elevationM":1096},{"id":"node:11595518192","kind":"peak","name":"Yazıbacağı Tepesi","lat":40.9387532,"lon":36.8083719,"elevationM":1035},{"id":"node:11595518193","kind":"peak","name":"Yayla Tepesi","lat":40.956137,"lon":36.811905,"elevationM":1114},{"id":"node:11595518194","kind":"peak","name":"Sığırağılı Tepesi","lat":40.9468227,"lon":36.8334212,"elevationM":1105},{"id":"node:11595518212","kind":"peak","name":"Düzbek Tepesi","lat":40.9774393,"lon":36.7950759,"elevationM":1115},{"id":"node:11595518213","kind":"peak","name":"Hortlak Tepesi","lat":40.958668,"lon":36.8340327,"elevationM":996},{"id":"node:11595518214","kind":"peak","name":"Hacıpınar Tepesi","lat":40.9624543,"lon":36.8381428,"elevationM":1009},{"id":"node:11595518215","kind":"peak","name":"Baltarla Tepesi","lat":40.9700947,"lon":36.8432439,"elevationM":906},{"id":"node:11595518216","kind":"peak","name":"Kırantarla Tepesi","lat":40.9802086,"lon":36.8420092,"elevationM":744},{"id":"node:11595518217","kind":"peak","name":"Deveboynu Tepesi","lat":40.9806523,"lon":36.8654718,"elevationM":756},{"id":"node:11595518218","kind":"peak","name":"Sapak Tepesi","lat":40.9751721,"lon":36.8765633,"elevationM":914},{"id":"node:11595518219","kind":"peak","name":"Koruksünüllük Tepesi","lat":40.9702387,"lon":36.8780813,"elevationM":937},{"id":"node:11595518220","kind":"peak","name":"Karaağaç Tepesi","lat":40.9572676,"lon":36.8713254,"elevationM":1007},{"id":"node:11595518221","kind":"peak","name":"Çermik Tepesi","lat":40.9508708,"lon":36.8709831,"elevationM":1054},{"id":"node:11595518222","kind":"peak","name":"Avcıoğlu Tepesi","lat":40.9433925,"lon":36.8718895,"elevationM":1109},{"id":"node:11595518223","kind":"peak","name":"Kavukmeşe Tepesi","lat":40.9367477,"lon":36.8769434,"elevationM":1044},{"id":"node:11595518224","kind":"peak","name":"Çakıroğlu Tepesi","lat":40.9455135,"lon":36.8911737,"elevationM":948},{"id":"node:11595518225","kind":"peak","name":"Samanlıkyanı Tepesi","lat":40.9259784,"lon":36.8722513,"elevationM":1006},{"id":"node:11595518226","kind":"peak","name":"Dikmetaş Tepesi","lat":40.9281458,"lon":36.8640549,"elevationM":881}]}