{"tileKey":"la_p42_lo_p26","version":"v1-1775891056926","entries":[{"id":"node:1069543070","kind":"peak","name":"Българка","lat":42.7470871,"lon":26.3216601,"elevationM":1181},{"id":"node:1166772195","kind":"peak","name":"Карабаир","lat":42.438306,"lon":26.1305914,"elevationM":342},{"id":"node:1166772618","kind":"peak","name":"Каракая","lat":42.409354,"lon":26.1415768,"elevationM":357},{"id":"node:1166772923","kind":"peak","name":"Големия баир","lat":42.4492131,"lon":26.0822147,"elevationM":303},{"id":"node:1166773797","kind":"peak","name":"Нишани","lat":42.4172494,"lon":26.1176945,"elevationM":389},{"id":"node:1166774775","kind":"peak","name":"Острия чатал","lat":42.41814,"lon":26.1555693,"elevationM":415},{"id":"node:1180965545","kind":"peak","name":"Бектепе","lat":42.6658288,"lon":26.1670668,"elevationM":592},{"id":"node:1180965625","kind":"peak","name":"Карталка","lat":42.6634599,"lon":26.1085789,"elevationM":470},{"id":"node:1180965669","kind":"peak","name":"Куртулмуш","lat":42.5960829,"lon":26.151989,"elevationM":452},{"id":"node:1180965898","kind":"peak","name":"Идемир","lat":42.5179544,"lon":26.2432976,"elevationM":234},{"id":"node:1180965908","kind":"peak","name":"Солука","lat":42.6568325,"lon":26.1304158,"elevationM":529},{"id":"node:1180965916","kind":"peak","name":"Къшлата","lat":42.5065555,"lon":26.1765389,"elevationM":262},{"id":"node:1180966012","kind":"peak","name":"Адабаир","lat":42.6634449,"lon":26.223993,"elevationM":506},{"id":"node:1180966122","kind":"peak","name":"Башбаир","lat":42.6040996,"lon":26.1604157,"elevationM":569},{"id":"node:1180966461","kind":"peak","name":"Айгинлика","lat":42.6134522,"lon":26.0881728,"elevationM":372},{"id":"node:1180966768","kind":"peak","name":"Момчила","lat":42.6023907,"lon":26.0352941,"elevationM":343},{"id":"node:1180966769","kind":"peak","name":"Карабоба","lat":42.5618681,"lon":26.2034919,"elevationM":298},{"id":"node:1180966964","kind":"peak","name":"Карабаир","lat":42.5802751,"lon":26.0370753,"elevationM":528},{"id":"node:1180967064","kind":"peak","name":"Кирмица","lat":42.6221813,"lon":26.0885194,"elevationM":277},{"id":"node:1180967501","kind":"peak","name":"Градище","lat":42.5818348,"lon":26.0568615,"elevationM":555},{"id":"node:1180967738","kind":"peak","name":"Ераклии","lat":42.6090956,"lon":26.2157645,"elevationM":234},{"id":"node:1180968323","kind":"peak","name":"Алабаир","lat":42.5920073,"lon":26.118964,"elevationM":532},{"id":"node:1180968341","kind":"peak","name":"Голям Козаревец","lat":42.665382,"lon":26.1858034,"elevationM":555},{"id":"node:1180968359","kind":"peak","name":"Бозтепе","lat":42.5487002,"lon":26.1227477,"elevationM":233},{"id":"node:1180968432","kind":"peak","name":"Голяма могила","lat":42.5555617,"lon":26.0216427,"elevationM":371},{"id":"node:1180968673","kind":"peak","name":"Тубумбаир","lat":42.5465284,"lon":26.2458086,"elevationM":269},{"id":"node:1180968709","kind":"peak","name":"Казанлъка","lat":42.5960829,"lon":26.0224884,"elevationM":410},{"id":"node:1180969370","kind":"peak","name":"Куштепе","lat":42.5822247,"lon":26.0942193,"elevationM":483},{"id":"node:1180969521","kind":"peak","name":"Голям Ганчо","lat":42.5843869,"lon":26.0178187,"elevationM":390},{"id":"node:1180969760","kind":"peak","name":"Хисаря","lat":42.6308827,"lon":26.1025323,"elevationM":445},{"id":"node:1180969794","kind":"peak","name":"Динбаир","lat":42.5803105,"lon":26.0662009,"elevationM":519},{"id":"node:1180969982","kind":"peak","name":"Тепето","lat":42.6462716,"lon":26.0377575,"elevationM":371},{"id":"node:1180970133","kind":"peak","name":"Казанджибаир","lat":42.5119923,"lon":26.1407409,"elevationM":198},{"id":"node:1180970265","kind":"peak","name":"Калето","lat":42.6084366,"lon":26.1710454,"elevationM":319},{"id":"node:1180970468","kind":"peak","name":"Чаталджа","lat":42.590377,"lon":26.0963375,"elevationM":561},{"id":"node:1180970564","kind":"peak","name":"Голямата Чука","lat":42.6549985,"lon":26.1646328,"elevationM":438},{"id":"node:1180970836","kind":"peak","name":"Коджабаир","lat":42.5920782,"lon":26.1426015,"elevationM":493},{"id":"node:1264536581","kind":"peak","name":"Малкия билерник","lat":42.881572,"lon":26.368327,"elevationM":815},{"id":"node:2426730830","kind":"peak","name":"Голяма чаталка","lat":42.7235077,"lon":26.3506309,"elevationM":1054},{"id":"node:3017970984","kind":"peak","name":"Саралан","lat":42.8164052,"lon":26.0854456,"elevationM":1031},{"id":"node:3017970985","kind":"peak","name":"Сливката","lat":42.8144034,"lon":26.0261528,"elevationM":1057},{"id":"node:3017970988","kind":"peak","name":"Червената пръст","lat":42.8135786,"lon":26.0466772,"elevationM":1115},{"id":"node:3017986221","kind":"peak","name":"Коджамара","lat":42.8211488,"lon":26.112096,"elevationM":1083},{"id":"node:3017986222","kind":"peak","name":"Сакалъка","lat":42.8223158,"lon":26.1247033,"elevationM":1093},{"id":"node:3017986223","kind":"peak","name":"Сливата","lat":42.822967,"lon":26.1514778,"elevationM":1014},{"id":"node:3017986224","kind":"peak","name":"Соуджака","lat":42.8113973,"lon":26.1191341,"elevationM":1214},{"id":"node:3017986225","kind":"peak","name":"Табите","lat":42.8224543,"lon":26.0970408,"elevationM":964},{"id":"node:3017986226","kind":"peak","name":"Трите гроба","lat":42.8169347,"lon":26.1353676,"elevationM":1106},{"id":"node:3018271488","kind":"peak","name":"Еньовска чука","lat":42.850587,"lon":26.3901147,"elevationM":854},{"id":"node:3018271490","kind":"peak","name":"Куилото","lat":42.8454957,"lon":26.3817421,"elevationM":853},{"id":"node:3018271491","kind":"peak","name":"Малкото връхче","lat":42.8513474,"lon":26.3769306,"elevationM":908},{"id":"node:3018271493","kind":"peak","name":"Осенишки връх","lat":42.8582163,"lon":26.372486,"elevationM":1024},{"id":"node:3018271495","kind":"peak","name":"Човешката глава","lat":42.8512127,"lon":26.3988976,"elevationM":900},{"id":"node:3168637961","kind":"peak","name":"Вида","lat":42.8567994,"lon":26.4787529,"elevationM":861},{"id":"node:3172338226","kind":"peak","name":"Куминя","lat":42.7255292,"lon":26.3306138,"elevationM":716},{"id":"node:3188200898","kind":"peak","name":"Кутелка","lat":42.7321769,"lon":26.32434,"elevationM":1084},{"id":"node:3343760245","kind":"peak","name":"Романски баир","lat":42.8425925,"lon":26.483299,"elevationM":835},{"id":"node:3343760246","kind":"peak","name":"Средния баир","lat":42.8434162,"lon":26.4765882,"elevationM":860},{"id":"node:3699070703","kind":"peak","name":"Кольов гроб","lat":42.9516992,"lon":26.6855612,"elevationM":559},{"id":"node:3699070704","kind":"peak","name":"Пейков бурун","lat":42.9430368,"lon":26.7106214,"elevationM":636},{"id":"node:3699079694","kind":"peak","name":"Разбойна","lat":42.8584327,"lon":26.4137791,"elevationM":1128},{"id":"node:3699461170","kind":"peak","name":"Голям Дебелец","lat":42.9493036,"lon":26.8958912,"elevationM":715},{"id":"node:3699461171","kind":"peak","name":"Малък Дебелец","lat":42.940651,"lon":26.9214314,"elevationM":579},{"id":"node:4160610235","kind":"peak","name":"Калюва","lat":42.8920799,"lon":26.2553179,"elevationM":829},{"id":"node:4724937746","kind":"peak","name":"Асанбаир","lat":42.449341,"lon":26.6795899,"elevationM":515},{"id":"node:4750693854","kind":"peak","name":"Дорук баир","lat":42.0898098,"lon":26.9633686,"elevationM":401},{"id":"node:4794131039","kind":"peak","name":"Св. Петка","lat":42.3625909,"lon":26.8305546,"elevationM":488},{"id":"node:6312250388","kind":"peak","name":"Бяла крава","lat":42.8199005,"lon":26.0360527,"elevationM":1057},{"id":"node:6312250389","kind":"peak","name":"Кокоша глава","lat":42.8349209,"lon":26.0128784,"elevationM":848},{"id":"node:6312250594","kind":"peak","name":"Букачев чукар","lat":42.8299427,"lon":26.0311604,"elevationM":947},{"id":"node:6312250686","kind":"peak","name":"Стръмен дол","lat":42.8289127,"lon":26.016655,"elevationM":880},{"id":"node:7539730347","kind":"peak","name":"Мешебурун","lat":42.9239139,"lon":26.9327259,"elevationM":387},{"id":"node:9799346788","kind":"peak","name":"Малка чаталка","lat":42.7239916,"lon":26.3601488,"elevationM":null},{"id":"node:9799457796","kind":"peak","name":"Тюлбето","lat":42.7146563,"lon":26.3638288,"elevationM":1050},{"id":"node:10049325334","kind":"peak","name":"Калето","lat":42.4531883,"lon":26.6917777,"elevationM":458},{"id":"node:10049325335","kind":"peak","name":"Св. Спас","lat":42.4508095,"lon":26.646046,"elevationM":498},{"id":"node:10293061907","kind":"peak","name":"Сивритепе","lat":42.8792095,"lon":26.0728741,"elevationM":803},{"id":"node:10293061908","kind":"peak","name":"Острия камък","lat":42.8618717,"lon":26.0503006,"elevationM":863},{"id":"node:10293087804","kind":"peak","name":"Ятаклъка","lat":42.8852177,"lon":26.054163,"elevationM":602},{"id":"node:10293087805","kind":"peak","name":"Боялъка","lat":42.8449631,"lon":26.0511589,"elevationM":922},{"id":"node:10293109645","kind":"peak","name":"Бабичката","lat":42.8925991,"lon":26.0117626,"elevationM":610},{"id":"node:10293109646","kind":"peak","name":"Тюфешки рът","lat":42.8164673,"lon":26.0117626,"elevationM":977},{"id":"node:10293117585","kind":"peak","name":"Елата","lat":42.8740597,"lon":26.0677242,"elevationM":777},{"id":"node:10293121192","kind":"peak","name":"Тозлуджа","lat":42.9112244,"lon":26.0324478,"elevationM":591},{"id":"node:10293121361","kind":"peak","name":"Чуклена","lat":42.8390408,"lon":26.0008621,"elevationM":693},{"id":"node:10293137481","kind":"peak","name":"Бейкору","lat":42.8940582,"lon":26.0345936,"elevationM":605},{"id":"node:10293137482","kind":"peak","name":"Черно бърдо","lat":42.8544044,"lon":26.0066128,"elevationM":895},{"id":"node:10293138075","kind":"peak","name":"Кожух","lat":42.8782654,"lon":26.0863495,"elevationM":631},{"id":"node:10293138445","kind":"peak","name":"Добро бърдо","lat":42.8544903,"lon":26.0294437,"elevationM":777},{"id":"node:10293139732","kind":"peak","name":"Локвата","lat":42.8264236,"lon":26.086092,"elevationM":751},{"id":"node:10293139733","kind":"peak","name":"Севриджа","lat":42.8750038,"lon":26.036911,"elevationM":766},{"id":"node:10293143580","kind":"peak","name":"Чадърташ","lat":42.8417015,"lon":26.0775948,"elevationM":892},{"id":"node:10293144085","kind":"peak","name":"Нишанлака","lat":42.8478813,"lon":26.0655785,"elevationM":959},{"id":"node:10293149596","kind":"peak","name":"Чукарките","lat":42.8841019,"lon":26.0086727,"elevationM":516},{"id":"node:10293149597","kind":"peak","name":"Мандралъка","lat":42.8570652,"lon":26.0695267,"elevationM":780},{"id":"node:10293150320","kind":"peak","name":"Чуката","lat":42.8756905,"lon":26.0132217,"elevationM":614},{"id":"node:10293150542","kind":"peak","name":"Осените","lat":42.825737,"lon":26.0577679,"elevationM":1040},{"id":"node:10293151730","kind":"peak","name":"Чибоклука","lat":42.8636742,"lon":26.0872936,"elevationM":672},{"id":"node:10293153400","kind":"peak","name":"Мирчов камък","lat":42.840929,"lon":26.0250664,"elevationM":889},{"id":"node:10293153401","kind":"peak","name":"Големия чукар","lat":42.8603268,"lon":26.0010338,"elevationM":752},{"id":"node:10293153709","kind":"peak","name":"Сърта","lat":42.8953457,"lon":26.0763931,"elevationM":731},{"id":"node:10293153710","kind":"peak","name":"Газиря","lat":42.8423882,"lon":26.0045528,"elevationM":681},{"id":"node:10820032292","kind":"peak","name":"Джанкуртуран","lat":42.6691903,"lon":26.302548,"elevationM":357},{"id":"node:10820032293","kind":"peak","name":"Урумтарла","lat":42.6829782,"lon":26.2899523,"elevationM":538},{"id":"node:10820032294","kind":"peak","name":"Бармука","lat":42.6992897,"lon":26.291762,"elevationM":817},{"id":"node:10820032298","kind":"peak","name":"Мортун","lat":42.707064,"lon":26.308114,"elevationM":653},{"id":"node:10820122937","kind":"peak","name":"Меча дупка","lat":42.6809328,"lon":26.2667999,"elevationM":701},{"id":"node:10820122939","kind":"peak","name":"Дългия баир","lat":42.6802229,"lon":26.242939,"elevationM":747},{"id":"node:10820126678","kind":"peak","name":"Козуйна","lat":42.6948758,"lon":26.1403928,"elevationM":1061},{"id":"node:10820126697","kind":"peak","name":"Ярана","lat":42.6944342,"lon":26.1567006,"elevationM":997},{"id":"node:10820200809","kind":"peak","name":"Дюлките","lat":42.7603943,"lon":26.2622536,"elevationM":998},{"id":"node:10820200811","kind":"peak","name":"Тарлабаир","lat":42.7422743,"lon":26.2294449,"elevationM":640},{"id":"node:10820200948","kind":"peak","name":"Малкия Прекер","lat":42.7349861,"lon":26.2147356,"elevationM":680},{"id":"node:10820200991","kind":"peak","name":"Големия Прекер","lat":42.7403123,"lon":26.2047498,"elevationM":680},{"id":"node:10820201063","kind":"peak","name":"Малката кория","lat":42.7818768,"lon":26.2035554,"elevationM":878},{"id":"node:10820201128","kind":"peak","name":"Елата","lat":42.7872627,"lon":26.2350768,"elevationM":891},{"id":"node:10820201156","kind":"peak","name":"Качулка","lat":42.7689497,"lon":26.1915606,"elevationM":1072},{"id":"node:11408930966","kind":"peak","name":"Камъчетата","lat":42.8335476,"lon":26.725359,"elevationM":422},{"id":"node:11409052540","kind":"peak","name":"Юрушка стена","lat":42.9280472,"lon":26.4626312,"elevationM":820},{"id":"node:11409059651","kind":"peak","name":"Кузбаши","lat":42.8926849,"lon":26.8239784,"elevationM":468},{"id":"node:11409066133","kind":"peak","name":"Сивриджасърт","lat":42.9077053,"lon":26.8223476,"elevationM":559},{"id":"node:11409067140","kind":"peak","name":"Юнусбаир","lat":42.8486538,"lon":26.8042374,"elevationM":508},{"id":"node:11409067143","kind":"peak","name":"Калето","lat":42.8544903,"lon":26.5709496,"elevationM":629},{"id":"node:11409109506","kind":"peak","name":"Ореша","lat":42.8604984,"lon":26.5606499,"elevationM":708},{"id":"node:11409121146","kind":"peak","name":"Могилата","lat":42.8435898,"lon":26.5425396,"elevationM":546},{"id":"node:11409126180","kind":"peak","name":"Калето","lat":42.8570652,"lon":26.8093014,"elevationM":343},{"id":"node:11409127215","kind":"peak","name":"Ташладжа","lat":42.8369808,"lon":26.6473389,"elevationM":433},{"id":"node:11409127216","kind":"peak","name":"Колаксъза","lat":42.8493404,"lon":26.8177128,"elevationM":502},{"id":"node:11409127504","kind":"peak","name":"Кайряка","lat":42.8230762,"lon":26.6265678,"elevationM":446},{"id":"node:11409127505","kind":"peak","name":"Шабанкорусу","lat":42.8417873,"lon":26.8235493,"elevationM":493},{"id":"node:11409128575","kind":"peak","name":"Пожара","lat":42.8373241,"lon":26.7773724,"elevationM":446},{"id":"node:11409128577","kind":"peak","name":"Коджа кая","lat":42.9071045,"lon":26.8107605,"elevationM":588},{"id":"node:11409132873","kind":"peak","name":"Марковица","lat":42.8679657,"lon":26.8349648,"elevationM":322},{"id":"node:11409133072","kind":"peak","name":"Лозята","lat":42.8239346,"lon":26.674118,"elevationM":376},{"id":"node:11409134158","kind":"peak","name":"Могилата","lat":42.8331184,"lon":26.7869854,"elevationM":423},{"id":"node:11409134159","kind":"peak","name":"Калето","lat":42.8495121,"lon":26.8418312,"elevationM":587},{"id":"node:11409134249","kind":"peak","name":"Кабата","lat":42.8247929,"lon":26.638155,"elevationM":419},{"id":"node:11446362862","kind":"peak","name":"Коминчето","lat":42.8896809,"lon":26.4808273,"elevationM":929},{"id":"node:11446365616","kind":"peak","name":"Момина могила","lat":42.8653908,"lon":26.5067482,"elevationM":953},{"id":"node:11446368552","kind":"peak","name":"Раздела","lat":42.875433,"lon":26.4935303,"elevationM":829},{"id":"node:11446370642","kind":"peak","name":"Татка","lat":42.8998947,"lon":26.4948177,"elevationM":806},{"id":"node:11476422593","kind":"peak","name":"Козак","lat":42.9234982,"lon":26.4811707,"elevationM":823},{"id":"node:11476422594","kind":"peak","name":"Юпек","lat":42.9303646,"lon":26.7704201,"elevationM":771},{"id":"node:11476480660","kind":"peak","name":"Могилките","lat":42.8513145,"lon":26.6672516,"elevationM":403},{"id":"node:11476495724","kind":"peak","name":"Могилките","lat":42.8512287,"lon":26.6651917,"elevationM":396},{"id":"node:11476496410","kind":"peak","name":"Кюлафбаир","lat":42.9181767,"lon":26.7854404,"elevationM":789},{"id":"node:11476504298","kind":"peak","name":"Арпалъка","lat":42.9244423,"lon":26.4987659,"elevationM":982},{"id":"node:11476504886","kind":"peak","name":"Чубрата","lat":42.9392052,"lon":26.4676094,"elevationM":569},{"id":"node:11476510746","kind":"peak","name":"Арпалъка","lat":42.9317379,"lon":26.4822865,"elevationM":682},{"id":"node:11476519540","kind":"peak","name":"Плоската могила","lat":42.9222107,"lon":26.4746475,"elevationM":825},{"id":"node:11476519541","kind":"peak","name":"Коджаач","lat":42.928648,"lon":26.751709,"elevationM":698},{"id":"node:11476519904","kind":"peak","name":"Саръкая","lat":42.9390335,"lon":26.5034008,"elevationM":809},{"id":"node:11476522904","kind":"peak","name":"Янаклък","lat":42.8999805,"lon":26.7817497,"elevationM":656},{"id":"node:11552107044","kind":"peak","name":"Алабаир","lat":42.8832436,"lon":26.7644978,"elevationM":534},{"id":"node:11552120116","kind":"peak","name":"Налъбурун","lat":42.9170609,"lon":26.7523098,"elevationM":770},{"id":"node:11552121484","kind":"peak","name":"Кайряка","lat":42.8633308,"lon":26.7083645,"elevationM":482},{"id":"node:11552126737","kind":"peak","name":"Каркъма","lat":42.8774929,"lon":26.7305088,"elevationM":532},{"id":"node:11552131917","kind":"peak","name":"Алибаба (Каякас)","lat":42.9459,"lon":26.5373898,"elevationM":949},{"id":"node:11552134897","kind":"peak","name":"Инджебурун","lat":42.94384,"lon":26.5555,"elevationM":1000},{"id":"node:11770011208","kind":"peak","name":"Къзъкджикбурун","lat":42.9158592,"lon":26.7340279,"elevationM":733},{"id":"node:11770052496","kind":"peak","name":"Икдиа","lat":42.934227,"lon":26.7156601,"elevationM":827},{"id":"node:11770059548","kind":"peak","name":"Йолнука","lat":42.8678799,"lon":26.6775513,"elevationM":493},{"id":"node:11770086790","kind":"peak","name":"Гениш баир","lat":42.8606701,"lon":26.5963554,"elevationM":609},{"id":"node:11770095983","kind":"peak","name":"Копана","lat":42.9299355,"lon":26.6953182,"elevationM":831},{"id":"node:12140798431","kind":"peak","name":"Язъ Тепе","lat":42.677627,"lon":26.3355679,"elevationM":null},{"id":"node:12638260414","kind":"peak","name":"Илийца","lat":42.7960501,"lon":26.9655548,"elevationM":684}]}