{"tileKey":"la_p55_lo_p92","version":"v1-1775891056926","entries":[{"id":"node:458968549","kind":"peak","name":"Шалунин бык","lat":55.9660738,"lon":92.6868821,"elevationM":null},{"id":"node:1096694231","kind":"peak","name":"Первый Столб","lat":55.9161754,"lon":92.7347945,"elevationM":85},{"id":"node:1096694260","kind":"peak","name":"Второй Столб","lat":55.9129542,"lon":92.7328105,"elevationM":694},{"id":"node:1098044994","kind":"peak","name":"Четвертый Столб","lat":55.9121737,"lon":92.7437842,"elevationM":30},{"id":"node:1098045003","kind":"peak","name":"Бабка","lat":55.9174535,"lon":92.7382409,"elevationM":30},{"id":"node:1098045007","kind":"peak","name":"Перья","lat":55.9170651,"lon":92.7444315,"elevationM":30},{"id":"node:1098045043","kind":"peak","name":"Дед","lat":55.9190677,"lon":92.7407488,"elevationM":50},{"id":"node:1098045050","kind":"peak","name":"Львиные ворота","lat":55.9173603,"lon":92.7450576,"elevationM":null},{"id":"node:1098045079","kind":"peak","name":"Третий Столб","lat":55.9129053,"lon":92.7424148,"elevationM":35},{"id":"node:1237162561","kind":"peak","name":"Чёртов палец","lat":55.9631314,"lon":92.7429612,"elevationM":null},{"id":"node:1237203514","kind":"peak","name":"Манская стенка","lat":55.8959823,"lon":92.7475274,"elevationM":null},{"id":"node:1237203521","kind":"peak","name":"Скрытный","lat":55.8957208,"lon":92.7342265,"elevationM":null},{"id":"node:1237273862","kind":"peak","name":"Барьеры","lat":55.9070657,"lon":92.7604564,"elevationM":null},{"id":"node:1237364522","kind":"peak","name":"Такмак","lat":55.949154,"lon":92.8011069,"elevationM":null},{"id":"node:1237364587","kind":"peak","name":"Вороний базар","lat":55.9104951,"lon":92.7574362,"elevationM":null},{"id":"node:1239634240","kind":"peak","name":"Малый Беркут","lat":55.93947,"lon":92.7697387,"elevationM":null},{"id":"node:1260424237","kind":"peak","name":"Здравствуй, Мана!","lat":55.9287114,"lon":92.4563521,"elevationM":null},{"id":"node:1437203877","kind":"peak","name":"Ермак","lat":55.9451808,"lon":92.8118742,"elevationM":null},{"id":"node:1454694127","kind":"peak","name":"Верхопуз","lat":55.903436,"lon":92.7395423,"elevationM":null},{"id":"node:1454694129","kind":"peak","name":"Дикарь","lat":55.8897713,"lon":92.7846074,"elevationM":null},{"id":"node:1454694131","kind":"peak","name":"Каин и Авель","lat":55.9029657,"lon":92.7404241,"elevationM":null},{"id":"node:1500886099","kind":"peak","name":"Бородок","lat":55.9443294,"lon":92.8145124,"elevationM":472},{"id":"node:1500886100","kind":"peak","name":"Откликные","lat":55.9231887,"lon":92.7774151,"elevationM":682},{"id":"node:1500890328","kind":"peak","name":"Царские ворота","lat":55.8954305,"lon":92.7730199,"elevationM":null},{"id":"node:1505914817","kind":"peak","name":"Грифы","lat":55.8800165,"lon":92.7667217,"elevationM":null},{"id":"node:1505976384","kind":"peak","name":"Манская Баба","lat":55.8935975,"lon":92.7492294,"elevationM":712},{"id":"node:1513810030","kind":"peak","name":"Волчий лоб","lat":55.9370704,"lon":92.7851282,"elevationM":null},{"id":"node:1513810036","kind":"peak","name":"Прадед","lat":55.9197263,"lon":92.7421012,"elevationM":null},{"id":"node:1513810038","kind":"peak","name":"Китайская стенка","lat":55.9345996,"lon":92.8057406,"elevationM":null},{"id":"node:1513810042","kind":"peak","name":"Копьевская видовка","lat":55.9007001,"lon":92.731794,"elevationM":null},{"id":"node:1513810045","kind":"peak","name":"Очаг","lat":55.9087055,"lon":92.732238,"elevationM":null},{"id":"node:1513810049","kind":"peak","name":"Каратановский","lat":55.8998264,"lon":92.8131663,"elevationM":null},{"id":"node:1513810053","kind":"peak","name":"Снегирь","lat":55.9347242,"lon":92.7862658,"elevationM":null},{"id":"node:1513810064","kind":"peak","name":"Сторожевой","lat":55.934389,"lon":92.8131227,"elevationM":null},{"id":"node:1513810066","kind":"peak","name":"Ферма","lat":55.9091261,"lon":92.7386904,"elevationM":null},{"id":"node:1513810068","kind":"peak","name":"Дикая","lat":55.9041831,"lon":92.8051535,"elevationM":712},{"id":"node:1608964139","kind":"peak","name":"Акта","lat":55.9783416,"lon":92.6041294,"elevationM":461},{"id":"node:1789982581","kind":"peak","name":"Столбовская видовка","lat":55.9323243,"lon":92.7575232,"elevationM":null},{"id":"node:1806840932","kind":"peak","name":"Арка","lat":55.9490469,"lon":92.8584691,"elevationM":null},{"id":"node:1872582047","kind":"peak","name":"Рыжая","lat":55.9440161,"lon":92.8612571,"elevationM":null},{"id":"node:2241627242","kind":"peak","name":"Голубка","lat":55.9676635,"lon":92.58097,"elevationM":null},{"id":"node:2241627249","kind":"peak","name":"Караульный бык","lat":55.9668089,"lon":92.5824133,"elevationM":null},{"id":"node:2242203913","kind":"peak","name":"Витязь","lat":55.9107269,"lon":92.9780304,"elevationM":501},{"id":"node:2242203919","kind":"peak","name":"Веера","lat":55.9102093,"lon":92.9804297,"elevationM":null},{"id":"node:2323880311","kind":"peak","name":"Красный гребень","lat":55.9638976,"lon":92.8284448,"elevationM":null},{"id":"node:2341862775","kind":"peak","name":"Сивая","lat":55.9333681,"lon":92.8768982,"elevationM":null},{"id":"node:2341862776","kind":"peak","name":"Уют","lat":55.9422701,"lon":92.8742713,"elevationM":null},{"id":"node:2341865419","kind":"peak","name":"Синильга","lat":55.9328377,"lon":92.8657645,"elevationM":328},{"id":"node:2388659687","kind":"peak","name":"Луч","lat":55.9230937,"lon":92.8861429,"elevationM":null},{"id":"node:2500859023","kind":"peak","name":"Олимп","lat":55.9062415,"lon":92.731138,"elevationM":null},{"id":"node:2527856697","kind":"peak","name":"Дачки","lat":55.9294897,"lon":92.7460783,"elevationM":null},{"id":"node:2527858353","kind":"peak","name":"Слоник","lat":55.9159939,"lon":92.7331383,"elevationM":null},{"id":"node:2628258985","kind":"peak","name":"Абатак","lat":55.8704,"lon":92.960304,"elevationM":803},{"id":"node:2628799342","kind":"peak","name":"Соколиха","lat":55.95071,"lon":92.94593,"elevationM":407},{"id":"node:2633764701","kind":"peak","name":"Вышка","lat":55.9686021,"lon":92.8045824,"elevationM":328},{"id":"node:2930491343","kind":"peak","name":"Бурея","lat":55.9418675,"lon":92.9176022,"elevationM":605},{"id":"node:2952281706","kind":"peak","name":"Белая","lat":55.9475251,"lon":92.888916,"elevationM":null},{"id":"node:2952281707","kind":"peak","name":"Крест","lat":55.9406667,"lon":92.8966133,"elevationM":null},{"id":"node:2952281708","kind":"peak","name":"Магда","lat":55.92968,"lon":92.8966133,"elevationM":null},{"id":"node:2952281709","kind":"peak","name":"Тамара","lat":55.9527002,"lon":92.8588537,"elevationM":550},{"id":"node:3283961846","kind":"peak","name":"Моховой","lat":55.9046279,"lon":92.7295338,"elevationM":null},{"id":"node:3283975163","kind":"peak","name":"Танк","lat":55.8920245,"lon":92.7422431,"elevationM":null},{"id":"node:3283999361","kind":"peak","name":"Эдельвейс","lat":55.8901952,"lon":92.7439067,"elevationM":null},{"id":"node:3283999653","kind":"peak","name":"Теремок","lat":55.8894025,"lon":92.7433845,"elevationM":null},{"id":"node:3284002119","kind":"peak","name":"Обабки","lat":55.8881382,"lon":92.7440707,"elevationM":null},{"id":"node:3284006662","kind":"peak","name":"Акула","lat":55.8961654,"lon":92.7462253,"elevationM":null},{"id":"node:3284029449","kind":"peak","name":"Медведица","lat":55.8796618,"lon":92.7709705,"elevationM":null},{"id":"node:3284051696","kind":"peak","name":"Монолит","lat":55.8855811,"lon":92.7826049,"elevationM":null},{"id":"node:3284099220","kind":"peak","name":"Колчан","lat":55.8886583,"lon":92.7611576,"elevationM":null},{"id":"node:3284112714","kind":"peak","name":"Водораздел","lat":55.9122933,"lon":92.7327023,"elevationM":null},{"id":"node:3284113227","kind":"peak","name":"Митра","lat":55.9120774,"lon":92.732608,"elevationM":null},{"id":"node:3284151066","kind":"peak","name":"Голубка","lat":55.9054485,"lon":92.7377285,"elevationM":null},{"id":"node:3284190946","kind":"peak","name":"Малый Такмак","lat":55.9500156,"lon":92.7920848,"elevationM":null},{"id":"node:3284244377","kind":"peak","name":"Жаба","lat":55.9382627,"lon":92.7904721,"elevationM":null},{"id":"node:3284245089","kind":"peak","name":"Цыпа","lat":55.9386373,"lon":92.7902927,"elevationM":null},{"id":"node:3284262592","kind":"peak","name":"Колокольня","lat":55.9301365,"lon":92.827311,"elevationM":null},{"id":"node:3284322639","kind":"peak","name":"Орочон","lat":55.9230502,"lon":92.8309903,"elevationM":null},{"id":"node:3284426461","kind":"peak","name":"Капелла","lat":55.9081011,"lon":92.7316747,"elevationM":null},{"id":"node:3284426551","kind":"peak","name":"Рукавицы","lat":55.9108493,"lon":92.732297,"elevationM":null},{"id":"node:3284524541","kind":"peak","name":"Грешник","lat":55.9317754,"lon":92.760957,"elevationM":null},{"id":"node:3284526231","kind":"peak","name":"Монах","lat":55.9273929,"lon":92.7599049,"elevationM":null},{"id":"node:3284532001","kind":"peak","name":"Мотылек","lat":55.9276297,"lon":92.7602171,"elevationM":null},{"id":"node:3284536400","kind":"peak","name":"Каштаковские паровозы","lat":55.926183,"lon":92.7588494,"elevationM":null},{"id":"node:3284537914","kind":"peak","name":"Монашка","lat":55.9276115,"lon":92.7591243,"elevationM":null},{"id":"node:3284566561","kind":"peak","name":"Первенец","lat":55.9148657,"lon":92.7532402,"elevationM":null},{"id":"node:3284567017","kind":"peak","name":"Предтеча","lat":55.9134366,"lon":92.7511399,"elevationM":695},{"id":"node:3285844064","kind":"peak","name":"Бастионы","lat":55.9337093,"lon":92.8234552,"elevationM":null},{"id":"node:3285844129","kind":"peak","name":"Калтатская Стенка","lat":55.9268793,"lon":92.8224665,"elevationM":null},{"id":"node:3285860448","kind":"peak","name":"Хмурый","lat":55.9145215,"lon":92.8045183,"elevationM":null},{"id":"node:3285863427","kind":"peak","name":"Поймба","lat":55.9201031,"lon":92.8026219,"elevationM":null},{"id":"node:3350432839","kind":"peak","name":"Лисовик","lat":55.9339746,"lon":92.7987773,"elevationM":null},{"id":"node:3368666738","kind":"peak","name":"Питекантроп","lat":55.9285149,"lon":92.7845819,"elevationM":null},{"id":"node:3369553018","kind":"peak","name":"Медея","lat":55.932983,"lon":92.788093,"elevationM":582},{"id":"node:3377452762","kind":"peak","name":"Троглодиты","lat":55.9046648,"lon":92.9912706,"elevationM":null},{"id":"node:3377486022","kind":"peak","name":"Колпа","lat":55.9288763,"lon":92.9159155,"elevationM":606},{"id":"node:3377523822","kind":"peak","name":"Топ","lat":55.9372533,"lon":92.8899264,"elevationM":null},{"id":"node:3377531214","kind":"peak","name":"Амбар","lat":55.9194193,"lon":92.9386018,"elevationM":null},{"id":"node:3377532193","kind":"peak","name":"Карст","lat":55.9294598,"lon":92.9469383,"elevationM":591},{"id":"node:3377532607","kind":"peak","name":"Зверь","lat":55.9281782,"lon":92.9623149,"elevationM":null},{"id":"node:3377533493","kind":"peak","name":"Тригон","lat":55.93533,"lon":92.96,"elevationM":606},{"id":"node:3393612018","kind":"peak","name":"Жаворонок","lat":55.9384519,"lon":92.7901305,"elevationM":null},{"id":"node:3393614270","kind":"peak","name":"Орулган","lat":55.9379804,"lon":92.7880005,"elevationM":null},{"id":"node:3782117880","kind":"peak","name":"Спартак","lat":55.8354179,"lon":92.3677876,"elevationM":null},{"id":"node:3822906937","kind":"peak","name":"Королевская калитка","lat":55.9109467,"lon":92.7282668,"elevationM":null},{"id":"node:3862884415","kind":"peak","name":"Пропасть","lat":55.9441743,"lon":92.8617923,"elevationM":null},{"id":"node:3902843849","kind":"peak","name":"Якорёк","lat":55.9278318,"lon":92.7472875,"elevationM":null},{"id":"node:4073098218","kind":"peak","name":"Феодалы","lat":55.903421,"lon":92.794964,"elevationM":null},{"id":"node:5255999642","kind":"peak","name":"Водопой","lat":55.9197268,"lon":92.760166,"elevationM":null},{"id":"node:5255999643","kind":"peak","name":"Орлик","lat":55.9388599,"lon":92.7725638,"elevationM":null},{"id":"node:5255999644","kind":"peak","name":"Второй Бурун","lat":55.9492055,"lon":92.8030131,"elevationM":null},{"id":"node:5255999645","kind":"peak","name":"Большой Беркут","lat":55.9485871,"lon":92.8014386,"elevationM":null},{"id":"node:5255999646","kind":"peak","name":"Солнечный грот","lat":55.9483588,"lon":92.8029406,"elevationM":null},{"id":"node:5255999647","kind":"peak","name":"Позвонки","lat":55.9474366,"lon":92.8026241,"elevationM":null},{"id":"node:5255999648","kind":"peak","name":"Святозар","lat":55.9277536,"lon":92.8304493,"elevationM":null},{"id":"node:5255999649","kind":"peak","name":"Руслан","lat":55.9279459,"lon":92.8324127,"elevationM":null},{"id":"node:5255999650","kind":"peak","name":"Замок Рыцаря","lat":55.9272667,"lon":92.8267693,"elevationM":null},{"id":"node:5255999651","kind":"peak","name":"Пагода","lat":55.9238705,"lon":92.8259325,"elevationM":null},{"id":"node:5255999652","kind":"peak","name":"Минарет","lat":55.9237563,"lon":92.822907,"elevationM":null},{"id":"node:5255999653","kind":"peak","name":"Тотем","lat":55.946932,"lon":92.8022861,"elevationM":null},{"id":"node:5255999654","kind":"peak","name":"Могол","lat":55.9480404,"lon":92.8016424,"elevationM":null},{"id":"node:5255999655","kind":"peak","name":"Гнездовье","lat":55.9372673,"lon":92.7906775,"elevationM":null},{"id":"node:5255999656","kind":"peak","name":"Фестевальный Бастион (Верблюжонок)","lat":55.8791146,"lon":92.7732968,"elevationM":null},{"id":"node:5255999657","kind":"peak","name":"Нахимовский Бастион","lat":55.8801256,"lon":92.7733612,"elevationM":null},{"id":"node:5255999658","kind":"peak","name":"Корниловский Бастион","lat":55.8813653,"lon":92.7725243,"elevationM":null},{"id":"node:5255999659","kind":"peak","name":"Плавники","lat":55.8820634,"lon":92.772181,"elevationM":null},{"id":"node:5255999660","kind":"peak","name":"Великий","lat":55.8821075,"lon":92.7908882,"elevationM":null},{"id":"node:5255999661","kind":"peak","name":"Глухариный","lat":55.8838927,"lon":92.7972704,"elevationM":null},{"id":"node:5255999662","kind":"peak","name":"Чуя","lat":55.8831767,"lon":92.7965784,"elevationM":null},{"id":"node:5255999663","kind":"peak","name":"Гриф","lat":55.8830202,"lon":92.7957845,"elevationM":null},{"id":"node:5255999664","kind":"peak","name":"Будда","lat":55.8825524,"lon":92.7932258,"elevationM":null},{"id":"node:5255999665","kind":"peak","name":"Вороний","lat":55.8825194,"lon":92.7922133,"elevationM":null},{"id":"node:5255999667","kind":"peak","name":"Утиный Нос","lat":55.8814648,"lon":92.7891549,"elevationM":null},{"id":"node:5255999668","kind":"peak","name":"Партизанский","lat":55.8814609,"lon":92.7887535,"elevationM":null},{"id":"node:5255999669","kind":"peak","name":"Промежуточный","lat":55.8815106,"lon":92.788533,"elevationM":null},{"id":"node:5255999670","kind":"peak","name":"Лендаха","lat":55.8813246,"lon":92.788167,"elevationM":null},{"id":"node:5255999671","kind":"peak","name":"Таганай","lat":55.8808192,"lon":92.7873327,"elevationM":null},{"id":"node:5255999672","kind":"peak","name":"Чапаевский","lat":55.8805108,"lon":92.7868581,"elevationM":null},{"id":"node:5255999673","kind":"peak","name":"Ворон","lat":55.8800714,"lon":92.7861929,"elevationM":null},{"id":"node:5255999674","kind":"peak","name":"Орлиный","lat":55.8797946,"lon":92.7856886,"elevationM":null},{"id":"node:5255999675","kind":"peak","name":"Гребень","lat":55.8795418,"lon":92.7853668,"elevationM":null},{"id":"node:5255999676","kind":"peak","name":"камень Крутовской","lat":55.9160105,"lon":92.7288081,"elevationM":null},{"id":"node:5255999677","kind":"peak","name":"Городская видовка","lat":55.9231792,"lon":92.7583194,"elevationM":null},{"id":"node:5255999678","kind":"peak","name":"Дикарёк","lat":55.9220799,"lon":92.7419794,"elevationM":null},{"id":"node:5255999679","kind":"peak","name":"Внук","lat":55.9211352,"lon":92.7424192,"elevationM":null},{"id":"node:5255999680","kind":"peak","name":"Золушкины скалы","lat":55.9313298,"lon":92.7758503,"elevationM":null},{"id":"node:5255999681","kind":"peak","name":"Калтатская Видовка","lat":55.9414495,"lon":92.8255462,"elevationM":null},{"id":"node:5255999682","kind":"peak","name":"Калтатские Ворота","lat":55.9359693,"lon":92.8331637,"elevationM":null},{"id":"node:5255999683","kind":"peak","name":"Сойотский","lat":55.9178209,"lon":92.825339,"elevationM":null},{"id":"node:5255999684","kind":"peak","name":"Каратановская дачка","lat":55.8957334,"lon":92.8126931,"elevationM":null},{"id":"node:5255999685","kind":"peak","name":"Маяк","lat":55.8974779,"lon":92.8137016,"elevationM":null},{"id":"node:5255999686","kind":"peak","name":"Безымянная","lat":55.8910409,"lon":92.7948832,"elevationM":null},{"id":"node:5255999687","kind":"peak","name":"Пестик","lat":55.8895178,"lon":92.7858412,"elevationM":null},{"id":"node:5255999688","kind":"peak","name":"Змееголовник","lat":55.8883867,"lon":92.7844622,"elevationM":null},{"id":"node:5255999689","kind":"peak","name":"Осторожный","lat":55.8888829,"lon":92.7864214,"elevationM":null},{"id":"node:5255999690","kind":"peak","name":"Караульный","lat":55.9052449,"lon":92.7600023,"elevationM":null},{"id":"node:5255999691","kind":"peak","name":"Треугольники","lat":55.8926245,"lon":92.750083,"elevationM":null},{"id":"node:5255999692","kind":"peak","name":"Близнецы","lat":55.8912695,"lon":92.7491784,"elevationM":null},{"id":"node:5255999693","kind":"peak","name":"Верблюд","lat":55.8908573,"lon":92.7489368,"elevationM":null},{"id":"node:5255999694","kind":"peak","name":"Кабарга","lat":55.8904392,"lon":92.7522254,"elevationM":null},{"id":"node:5255999695","kind":"peak","name":"Петушок","lat":55.8895095,"lon":92.7508868,"elevationM":null},{"id":"node:5255999696","kind":"peak","name":"Гребешок","lat":55.8888649,"lon":92.7505341,"elevationM":null},{"id":"node:5255999697","kind":"peak","name":"Гриб","lat":55.8816542,"lon":92.7480626,"elevationM":564},{"id":"node:5255999699","kind":"peak","name":"Фиг","lat":55.8840853,"lon":92.7546072,"elevationM":null},{"id":"node:5346912119","kind":"peak","name":"Дивногорская видовка","lat":55.9783728,"lon":92.3797558,"elevationM":500},{"id":"node:7646528086","kind":"peak","name":"Внучка","lat":55.9170673,"lon":92.7381374,"elevationM":null},{"id":"node:7816823585","kind":"peak","name":"Куриная грудка","lat":55.9119483,"lon":92.7338776,"elevationM":null},{"id":"node:8617491717","kind":"peak","name":"Сухая гряда","lat":55.9090294,"lon":92.7323106,"elevationM":null},{"id":"node:8919779926","kind":"peak","name":"Острая","lat":55.9767347,"lon":92.5910359,"elevationM":452},{"id":"node:9089069519","kind":"peak","name":"Астра","lat":55.9193396,"lon":92.8916573,"elevationM":null},{"id":"node:9089069521","kind":"peak","name":"Кувшин","lat":55.9247715,"lon":92.8802821,"elevationM":null},{"id":"node:9229726147","kind":"peak","name":"Голубые ворота","lat":55.9500456,"lon":92.8028178,"elevationM":null},{"id":"node:9439634100","kind":"peak","name":"Три грота","lat":55.8979617,"lon":92.9148256,"elevationM":null},{"id":"node:9766914773","kind":"peak","name":"Козыреевский зуб","lat":55.8398801,"lon":92.1419449,"elevationM":430},{"id":"node:9996951898","kind":"peak","name":"Трёхзорка","lat":55.9179699,"lon":92.9586697,"elevationM":null},{"id":"node:9996951899","kind":"peak","name":"Собачья сопка","lat":55.9246,"lon":92.97686,"elevationM":606},{"id":"node:10024238251","kind":"peak","name":"Форт","lat":55.9107666,"lon":92.983346,"elevationM":null},{"id":"node:10080255226","kind":"peak","name":"Горгона","lat":55.9193407,"lon":92.881422,"elevationM":null},{"id":"node:10080275331","kind":"peak","name":"Ковриги","lat":55.9224127,"lon":92.8515637,"elevationM":null},{"id":"node:10080565437","kind":"peak","name":"Блондинка","lat":55.9436171,"lon":92.8625983,"elevationM":null},{"id":"node:10096464166","kind":"peak","name":"Верхний Собакинский бык","lat":55.9721476,"lon":92.6385219,"elevationM":null},{"id":"node:10096464167","kind":"peak","name":"Нижний Собакинский бык","lat":55.972557,"lon":92.6455767,"elevationM":null},{"id":"node:11010113110","kind":"peak","name":"Аэлита","lat":55.9203281,"lon":92.7369166,"elevationM":null},{"id":"node:11010113144","kind":"peak","name":"Изюп","lat":55.8821102,"lon":92.7898056,"elevationM":null},{"id":"node:11058410302","kind":"peak","name":"Черничная горка","lat":55.8917858,"lon":92.7638111,"elevationM":573},{"id":"node:11058414210","kind":"peak","name":"Малый","lat":55.8822521,"lon":92.7904849,"elevationM":null},{"id":"node:11058574333","kind":"peak","name":"Мухоморы","lat":55.9072092,"lon":92.7316654,"elevationM":null},{"id":"node:11058574334","kind":"peak","name":"Бермуды","lat":55.8948244,"lon":92.7349694,"elevationM":null},{"id":"node:11058574345","kind":"peak","name":"Танк 2","lat":55.8932661,"lon":92.7442357,"elevationM":null},{"id":"node:11059033948","kind":"peak","name":"Пятак","lat":55.9291626,"lon":92.7597522,"elevationM":null},{"id":"node:11059033949","kind":"peak","name":"Лосёнок","lat":55.9283194,"lon":92.7470955,"elevationM":null},{"id":"node:11059033966","kind":"peak","name":"Золушкины скалы 2","lat":55.9284839,"lon":92.7749163,"elevationM":null},{"id":"node:11059039756","kind":"peak","name":"Музейный камень","lat":55.9060794,"lon":92.7482241,"elevationM":null},{"id":"node:11059191239","kind":"peak","name":"Рассыпушка","lat":55.9256103,"lon":92.8030719,"elevationM":null},{"id":"node:11140435136","kind":"peak","name":"Ассириец","lat":55.8993244,"lon":92.8130808,"elevationM":null},{"id":"node:11140520292","kind":"peak","name":"Скит","lat":55.9305911,"lon":92.7994296,"elevationM":null},{"id":"node:11176124026","kind":"peak","name":"Мелодия","lat":55.9202251,"lon":92.7355107,"elevationM":null},{"id":"node:11176211744","kind":"peak","name":"Скифы","lat":55.9099431,"lon":92.7278478,"elevationM":null},{"id":"node:11176211778","kind":"peak","name":"Дебри","lat":55.9047428,"lon":92.7320912,"elevationM":null},{"id":"node:11176226017","kind":"peak","name":"Пегас","lat":55.9529057,"lon":92.771772,"elevationM":null},{"id":"node:11176226029","kind":"peak","name":"Фрегат","lat":55.8989763,"lon":92.7953053,"elevationM":null},{"id":"node:11176226030","kind":"peak","name":"Идол","lat":55.9296641,"lon":92.8284745,"elevationM":null},{"id":"node:11176226031","kind":"peak","name":"Гривка","lat":55.9322796,"lon":92.7656925,"elevationM":null},{"id":"node:11176226032","kind":"peak","name":"Мумия","lat":55.9314272,"lon":92.7660307,"elevationM":null},{"id":"node:11188487941","kind":"peak","name":"Слизневский клык","lat":55.9556527,"lon":92.6168528,"elevationM":null},{"id":"node:12273019139","kind":"peak","name":"Медвежий","lat":55.8899402,"lon":92.7926219,"elevationM":30},{"id":"node:12488411034","kind":"peak","name":"Пролетарка","lat":55.9162154,"lon":92.7343691,"elevationM":null},{"id":"node:12774680858","kind":"peak","name":"Адат","lat":55.9807944,"lon":92.5539162,"elevationM":464},{"id":"node:12775741811","kind":"peak","name":"Камень Маяк","lat":55.8682087,"lon":92.934008,"elevationM":null},{"id":"node:13476024604","kind":"peak","name":"Башня","lat":55.9070594,"lon":92.8169208,"elevationM":null},{"id":"node:13476024605","kind":"peak","name":"Боровик","lat":55.9182134,"lon":92.7684258,"elevationM":null},{"id":"node:13476024606","kind":"peak","name":"Первый Бурун","lat":55.9496197,"lon":92.8032182,"elevationM":null},{"id":"node:13476119180","kind":"peak","name":"К-18","lat":55.9270255,"lon":92.8143192,"elevationM":null},{"id":"node:13476127797","kind":"peak","name":"Веер","lat":55.9217988,"lon":92.7768802,"elevationM":null},{"id":"node:13476127798","kind":"peak","name":"Ворота","lat":55.9225972,"lon":92.7771442,"elevationM":null},{"id":"node:13476127799","kind":"peak","name":"Вечная любовь","lat":55.8855263,"lon":92.7811886,"elevationM":null},{"id":"node:13476127800","kind":"peak","name":"Дракоша","lat":55.9186467,"lon":92.8425755,"elevationM":null},{"id":"node:13476131601","kind":"peak","name":"Скала-1","lat":55.9181431,"lon":92.84211,"elevationM":null},{"id":"node:13476131602","kind":"peak","name":"Загадка","lat":55.8794851,"lon":92.7696375,"elevationM":null},{"id":"node:13476131603","kind":"peak","name":"Золушкины скалы 2","lat":55.9299931,"lon":92.7743653,"elevationM":null},{"id":"node:13476131604","kind":"peak","name":"Зыряновка","lat":55.9108364,"lon":92.7621398,"elevationM":null},{"id":"node:13476131605","kind":"peak","name":"Игуана","lat":55.9060153,"lon":92.7601828,"elevationM":null},{"id":"node:13476131606","kind":"peak","name":"Йон","lat":55.8904955,"lon":92.7771293,"elevationM":null},{"id":"node:13476131621","kind":"peak","name":"Клюв","lat":55.9231897,"lon":92.7794374,"elevationM":null},{"id":"node:13476131622","kind":"peak","name":"Лягушонок","lat":55.9254497,"lon":92.7768723,"elevationM":null},{"id":"node:13476131623","kind":"peak","name":"Маг","lat":55.8856656,"lon":92.7701058,"elevationM":null},{"id":"node:13476131624","kind":"peak","name":"Бивачная","lat":55.8964073,"lon":92.8015601,"elevationM":null},{"id":"node:13476131625","kind":"peak","name":"Улитка","lat":55.8955578,"lon":92.8008934,"elevationM":null},{"id":"node:13476131626","kind":"peak","name":"Моховушка","lat":55.9252088,"lon":92.7610375,"elevationM":null},{"id":"node:13476131627","kind":"peak","name":"Наполеон","lat":55.9091662,"lon":92.7595583,"elevationM":null},{"id":"node:13476131632","kind":"peak","name":"Осьминог","lat":55.9235948,"lon":92.8143498,"elevationM":null},{"id":"node:13476131640","kind":"peak","name":"Тюдень","lat":55.9361841,"lon":92.7849714,"elevationM":null},{"id":"node:13476131641","kind":"peak","name":"Укромные","lat":55.9240771,"lon":92.755245,"elevationM":null}]}