{"tileKey":"la_p27_lo_p36","version":"v1-1775891056926","entries":[{"id":"node:4692127102","kind":"peak","name":"وتر","lat":27.7219895,"lon":36.7111238,"elevationM":null},{"id":"node:4692127953","kind":"peak","name":"شيبان","lat":27.6444278,"lon":36.7192348,"elevationM":null},{"id":"node:5931432182","kind":"peak","name":"عقبه ضربه","lat":27.3438852,"lon":36.72149,"elevationM":null},{"id":"node:7090625154","kind":"peak","name":"جبل شيبان","lat":27.583065,"lon":36.790638,"elevationM":null},{"id":"node:8866738135","kind":"peak","name":"أم جرد","lat":27.3705158,"lon":36.056839,"elevationM":null},{"id":"node:8866739970","kind":"peak","name":"أبو مروة","lat":27.3432858,"lon":36.0840109,"elevationM":null},{"id":"node:8866740748","kind":"peak","name":"أبو مراكب","lat":27.3119659,"lon":36.1138687,"elevationM":null},{"id":"node:8866845579","kind":"peak","name":"الحسنة","lat":27.1015287,"lon":36.5483932,"elevationM":null},{"id":"node:8866848419","kind":"peak","name":"حلوبية","lat":27.1480732,"lon":36.5023232,"elevationM":null},{"id":"node:9036875971","kind":"peak","name":"عقيربة","lat":27.9138477,"lon":36.4492922,"elevationM":null},{"id":"node:9036892241","kind":"peak","name":"هبيدان","lat":27.8895016,"lon":36.7816582,"elevationM":null},{"id":"node:11870048300","kind":"peak","name":"خشم لمّة","lat":27.3326468,"lon":36.8608305,"elevationM":null},{"id":"node:11870048394","kind":"peak","name":"جبل وتد","lat":27.1479171,"lon":36.7819742,"elevationM":null},{"id":"node:11870950457","kind":"peak","name":"جبل الريدان","lat":27.2809723,"lon":36.2558153,"elevationM":null},{"id":"node:11870950567","kind":"peak","name":"جبل شيبان","lat":27.6963681,"lon":36.6612176,"elevationM":null},{"id":"node:11870950941","kind":"peak","name":"التويمة","lat":27.6879978,"lon":36.2659685,"elevationM":null},{"id":"node:11870950966","kind":"peak","name":"جبل المتدان","lat":27.3319719,"lon":36.0188564,"elevationM":null},{"id":"node:11870951088","kind":"peak","name":"جبل أبو أذنين","lat":27.5172189,"lon":36.6179974,"elevationM":null},{"id":"node:11871306421","kind":"peak","name":"جبل الجولا","lat":27.0950214,"lon":36.8568982,"elevationM":null},{"id":"node:11871306435","kind":"peak","name":"جبل ابو تينة","lat":27.2859777,"lon":36.6177456,"elevationM":null},{"id":"node:11871539131","kind":"peak","name":"جبل لاية","lat":27.7347466,"lon":36.6540917,"elevationM":null},{"id":"node:11871539340","kind":"peak","name":"جبل الشديد","lat":27.8152937,"lon":36.1771725,"elevationM":null},{"id":"node:11871539440","kind":"peak","name":"جبل النغر","lat":27.3707383,"lon":36.560087,"elevationM":null},{"id":"node:11871651985","kind":"peak","name":"جبل زقلاب","lat":27.1826898,"lon":36.5583411,"elevationM":null},{"id":"node:11871652432","kind":"peak","name":"رويث","lat":27.6572041,"lon":36.125708,"elevationM":null},{"id":"node:11871768487","kind":"peak","name":"جبال أم رميث","lat":27.3292503,"lon":36.378567,"elevationM":null},{"id":"node:13021734038","kind":"peak","name":"جبل عاتر","lat":27.6345309,"lon":36.5310895,"elevationM":null}]}