{"tileKey":"la_p36_lo_p46","version":"v1-1775891056926","entries":[{"id":"node:3514689955","kind":"peak","name":"کنه کشک","lat":36.0628,"lon":46.8038,"elevationM":null},{"id":"node:3514689956","kind":"peak","name":"قلعه","lat":36.075696,"lon":46.7084375,"elevationM":null},{"id":"node:3514759235","kind":"peak","name":"سلطان","lat":36.2596,"lon":46.5328,"elevationM":null},{"id":"node:3514891573","kind":"peak","name":"شاه نشین","lat":36.3478,"lon":46.8292,"elevationM":2270},{"id":"node:3515028368","kind":"peak","name":"برده کوه","lat":36.3478,"lon":46.1705,"elevationM":1860},{"id":"node:3515028391","kind":"peak","name":"بالوقایه","lat":36.3527,"lon":46.1875,"elevationM":1890},{"id":"node:3515028392","kind":"peak","name":"بنفشه","lat":36.234,"lon":46.1577,"elevationM":null},{"id":"node:3515030793","kind":"peak","name":"گرده راحته","lat":36.2230403,"lon":46.0933878,"elevationM":null},{"id":"node:3515030794","kind":"peak","name":"هواره سعید","lat":36.2142008,"lon":46.0160662,"elevationM":null},{"id":"node:3515030797","kind":"peak","name":"کوه عزیز لیلا","lat":36.1527978,"lon":46.1271872,"elevationM":null},{"id":"node:3515030798","kind":"peak","name":"عمر آقا","lat":36.2397043,"lon":46.0741961,"elevationM":null},{"id":"node:6240289949","kind":"peak","name":"جان آغا","lat":36.9265156,"lon":46.4725374,"elevationM":1780},{"id":"node:10038689239","kind":"peak","name":"TEMP REF","lat":36.15934,"lon":46.80669,"elevationM":null},{"id":"node:12372176676","kind":"peak","name":"قانلی قجر","lat":36.8627325,"lon":46.8924082,"elevationM":2893},{"id":"node:12372176677","kind":"peak","name":"اوکوز اولن","lat":36.8568796,"lon":46.8925948,"elevationM":2898},{"id":"node:12372176678","kind":"peak","name":"یای قاری","lat":36.7535369,"lon":46.9587342,"elevationM":2929},{"id":"node:12372176679","kind":"peak","name":"جیندری ییر(بند دره)","lat":36.9094496,"lon":46.9000091,"elevationM":2814},{"id":"node:12376948989","kind":"peak","name":"سلیمان شاه داغی","lat":36.9505526,"lon":46.8868812,"elevationM":2756},{"id":"node:12755127204","kind":"peak","name":"پیرمحمد","lat":36.8399775,"lon":46.7091409,"elevationM":2678},{"id":"node:12755179775","kind":"peak","name":"قره داش","lat":36.703104,"lon":46.862757,"elevationM":2858}]}