{"tileKey":"la_p38_lo_m103","version":"v1-1775891056926","entries":[{"id":"node:358930483","kind":"peak","name":"Twin Buttes","lat":38.9564796,"lon":-102.7343481,"elevationM":1403},{"id":"node:358930501","kind":"peak","name":"Landsman Hill","lat":38.9475009,"lon":-102.5879744,"elevationM":1419},{"id":"node:358930506","kind":"peak","name":"Agate Mound","lat":38.8783443,"lon":-102.5538726,"elevationM":1372},{"id":"node:358930508","kind":"peak","name":"Eureka Hill","lat":38.9777757,"lon":-102.863817,"elevationM":1443},{"id":"node:358944319","kind":"peak","name":"Chivington Hill","lat":38.4611193,"lon":-102.614359,"elevationM":1235}]}