{"tileKey":"la_p45_lo_m86","version":"v1-1775891056926","entries":[{"id":"node:353914992","kind":"peak","name":"Avalanche Mountain","lat":45.1983416,"lon":-85.0114415,"elevationM":293},{"id":"node:353951255","kind":"peak","name":"McCort Hill","lat":45.6291754,"lon":-85.0686732,"elevationM":215},{"id":"node:353951832","kind":"peak","name":"Mount McSauba","lat":45.3344682,"lon":-85.2461155,"elevationM":198},{"id":"node:353953758","kind":"peak","name":"Mount Bliss","lat":45.1025069,"lon":-85.0794999,"elevationM":260},{"id":"node:353959555","kind":"peak","name":"Old Baldy Hill","lat":45.0641554,"lon":-85.9967582,"elevationM":239},{"id":"node:353962316","kind":"peak","name":"Richardson Hill","lat":45.1791743,"lon":-85.0950572,"elevationM":331},{"id":"node:353988901","kind":"peak","name":"Bramen Hill","lat":45.1308318,"lon":-85.6331398,"elevationM":238},{"id":"node:353993918","kind":"peak","name":"Island View Hill","lat":45.5900087,"lon":-85.0772837,"elevationM":330},{"id":"node:354009273","kind":"peak","name":"Bunker Hill","lat":45.0861111,"lon":-85.205,"elevationM":274},{"id":"node:354009322","kind":"peak","name":"Dingle Hill","lat":45.0280556,"lon":-85.1994444,"elevationM":223},{"id":"node:7177402178","kind":"peak","name":"Old Baldy","lat":45.0053545,"lon":-85.3272465,"elevationM":null},{"id":"node:7177436612","kind":"peak","name":"Dingle Hill","lat":45.0415031,"lon":-85.2039219,"elevationM":null},{"id":"node:12851172926","kind":"peak","name":"Johnson Hill","lat":45.5942781,"lon":-85.0144939,"elevationM":null}]}