{"tileKey":"la_p52_lo_m118","version":"v1-bootstrap","entries":[{"id":"CANADA_BRUSSELS_PEAK_525166_-1178222","kind":"peak","name":"Brussels Peak","lat":52.5166,"lon":-117.8222,"elevationM":3161},{"id":"CANADA_CASTLEGUARD_MOUNTAIN_521100_-1172540","kind":"peak","name":"Castleguard Mountain","lat":52.109984,"lon":-117.25399,"elevationM":3090},{"id":"CANADA_DIADEM_PEAK_523103_-1174221","kind":"peak","name":"Diadem Peak","lat":52.310315,"lon":-117.422132,"elevationM":3371},{"id":"CANADA_HILDA_PEAK_521911_-1171771","kind":"peak","name":"Hilda Peak","lat":52.191088,"lon":-117.177086,"elevationM":3060},{"id":"CANADA_MONKHEAD_525823_-1173920","kind":"peak","name":"Monkhead","lat":52.582296,"lon":-117.392006,"elevationM":3219},{"id":"CANADA_MOUNT_ALBERTA_522880_-1174765","kind":"peak","name":"Mount Alberta","lat":52.288008,"lon":-117.476463,"elevationM":3619},{"id":"CANADA_MOUNT_ANDROMEDA_521742_-1172388","kind":"peak","name":"Mount Andromeda","lat":52.174195,"lon":-117.238798,"elevationM":3450},{"id":"CANADA_MOUNT_ATHABASCA_521804_-1172015","kind":"peak","name":"Mount Athabasca","lat":52.180353,"lon":-117.201548,"elevationM":3491},{"id":"CANADA_MOUNT_BRYCE_520410_-1173298","kind":"peak","name":"Mount Bryce","lat":52.041036,"lon":-117.329779,"elevationM":3507},{"id":"CANADA_MOUNT_CLEMENCEAU_522482_-1179585","kind":"peak","name":"Mount Clemenceau","lat":52.248193,"lon":-117.958488,"elevationM":3658},{"id":"CANADA_MOUNT_COLUMBIA_521488_-1174362","kind":"peak","name":"Mount Columbia","lat":52.14879,"lon":-117.436209,"elevationM":3747},{"id":"CANADA_MOUNT_CROMWELL_522688_-1173936","kind":"peak","name":"Mount Cromwell","lat":52.268788,"lon":-117.393551,"elevationM":3330},{"id":"CANADA_MOUNT_KERKESLIN_526483_-1178267","kind":"peak","name":"Mount Kerkeslin","lat":52.6483,"lon":-117.8267,"elevationM":2984},{"id":"CANADA_MOUNT_KITCHENER_522157_-1173213","kind":"peak","name":"Mount Kitchener","lat":52.215706,"lon":-117.321281,"elevationM":3505},{"id":"CANADA_MOUNT_PAUL_526155_-1174308","kind":"peak","name":"Mount Paul","lat":52.6155,"lon":-117.4308,"elevationM":2875},{"id":"CANADA_MOUNT_SASKATCHEWAN_520993_-1170916","kind":"peak","name":"Mount Saskatchewan","lat":52.099256,"lon":-117.091556,"elevationM":3342},{"id":"CANADA_MOUNT_UNWIN_526097_-1175278","kind":"peak","name":"Mount Unwin","lat":52.6097,"lon":-117.5278,"elevationM":3268},{"id":"CANADA_MOUNT_WILCOX_522439_-1172415","kind":"peak","name":"Mount Wilcox","lat":52.243884,"lon":-117.241459,"elevationM":2884},{"id":"CANADA_MOUNT_WOOLLEY_522971_-1174262","kind":"peak","name":"Mount Woolley","lat":52.297142,"lon":-117.426167,"elevationM":3405},{"id":"CANADA_MUSHROOM_PEAK_523119_-1173973","kind":"peak","name":"Mushroom Peak","lat":52.311942,"lon":-117.397327,"elevationM":3210},{"id":"CANADA_NIGEL_PEAK_522390_-1171710","kind":"peak","name":"Nigel Peak","lat":52.239,"lon":-117.171,"elevationM":3211},{"id":"CANADA_NORTH_TWIN_522240_-1174347","kind":"peak","name":"North Twin","lat":52.223961,"lon":-117.434664,"elevationM":3719},{"id":"CANADA_SAMSON_PEAK_526801_-1175110","kind":"peak","name":"Samson Peak","lat":52.680129,"lon":-117.510967,"elevationM":3077},{"id":"CANADA_SNOW_DOME_521896_-1173172","kind":"peak","name":"Snow Dome","lat":52.189615,"lon":-117.317162,"elevationM":3520},{"id":"CANADA_SOUTH_TWIN_522039_-1174349","kind":"peak","name":"South Twin","lat":52.203872,"lon":-117.434921,"elevationM":3549},{"id":"CANADA_SUNWAPTA_PEAK_523495_-1172753","kind":"peak","name":"Sunwapta Peak","lat":52.349497,"lon":-117.275276,"elevationM":3315}]}