{"tileKey":"la_p19_lo_p109","version":"v1-1775891056926","entries":[{"id":"node:1711120213","kind":"peak","name":"雅加大岭","lat":19.0562469,"lon":109.1383249,"elevationM":null},{"id":"node:1711120220","kind":"peak","name":"东崩岭","lat":19.1855428,"lon":109.237262,"elevationM":null},{"id":"node:1711120226","kind":"peak","name":"保梅岭","lat":19.2986265,"lon":109.0989856,"elevationM":null},{"id":"node:2270150635","kind":"peak","name":"德义岭","lat":19.7863527,"lon":109.1938421,"elevationM":null},{"id":"node:3912788574","kind":"peak","name":"鸡母岭","lat":19.445996,"lon":109.9002328,"elevationM":null},{"id":"node:3912828640","kind":"peak","name":"鸡咀岭","lat":19.2530554,"lon":109.9394576,"elevationM":null},{"id":"node:3912911917","kind":"peak","name":"大岭","lat":19.4184528,"lon":109.7832642,"elevationM":null},{"id":"node:3913092374","kind":"peak","name":"横岭","lat":19.1129405,"lon":109.7599422,"elevationM":null},{"id":"node:3913092378","kind":"peak","name":"黎母山","lat":19.172773,"lon":109.775111,"elevationM":null},{"id":"node:3913984499","kind":"peak","name":"割菜岭","lat":19.1008673,"lon":109.6422996,"elevationM":null},{"id":"node:3913984504","kind":"peak","name":"鹦歌傲","lat":19.1750533,"lon":109.6812878,"elevationM":null},{"id":"node:3914164448","kind":"peak","name":"狮子岭","lat":19.5370615,"lon":109.4931677,"elevationM":null},{"id":"node:3914970502","kind":"peak","name":"仙婆岭","lat":19.1804942,"lon":109.318672,"elevationM":null},{"id":"node:3915104702","kind":"peak","name":"付俄岭","lat":19.3307058,"lon":109.085103,"elevationM":null},{"id":"node:3915760367","kind":"peak","name":"北同岭","lat":19.005,"lon":109.252222,"elevationM":null},{"id":"node:3915760368","kind":"peak","name":"冲向岭","lat":19.0656662,"lon":109.614719,"elevationM":null},{"id":"node:3915760369","kind":"peak","name":"峨渣岭","lat":19.029722,"lon":109.35,"elevationM":null},{"id":"node:3915760371","kind":"peak","name":"馒头山","lat":19.0533081,"lon":109.5866241,"elevationM":null},{"id":"node:3915760374","kind":"peak","name":"牵裤岭","lat":19.2433444,"lon":109.66809,"elevationM":null},{"id":"node:3915760376","kind":"peak","name":"鹦哥岭","lat":19.0363342,"lon":109.541978,"elevationM":1812},{"id":"node:3919300046","kind":"peak","name":"丁松岭","lat":19.4529478,"lon":109.7928623,"elevationM":null},{"id":"node:3929137793","kind":"peak","name":"黑岭","lat":19.0850363,"lon":109.1730653,"elevationM":null},{"id":"node:6038783116","kind":"peak","name":"路仟岭","lat":19.4335789,"lon":109.3502923,"elevationM":null},{"id":"node:6041801199","kind":"peak","name":"蚂蝗山","lat":19.3982294,"lon":109.3430024,"elevationM":200},{"id":"node:6042985157","kind":"peak","name":"长岭","lat":19.4600738,"lon":109.3099899,"elevationM":null},{"id":"node:13475795289","kind":"peak","name":"霸王岭","lat":19.0671994,"lon":109.1661228,"elevationM":null}]}