{"tileKey":"la_p2_lo_p125","version":"v1-1775891056926","entries":[{"id":"node:548631314","kind":"volcano","name":"Gunung Karangetang","lat":2.7775257,"lon":125.4060634,"elevationM":1827},{"id":"node:549710252","kind":"volcano","name":"Gunung Ruang","lat":2.304852,"lon":125.3665476,"elevationM":725},{"id":"node:1070155120","kind":"peak","name":"Bukiri Hingente","lat":2.3605,"lon":125.439,"elevationM":null},{"id":"node:1070156644","kind":"peak","name":"Wuluri Bukide","lat":2.0992,"lon":125.3843,"elevationM":null},{"id":"node:1070157912","kind":"peak","name":"Bukiri Walangake","lat":2.3674,"lon":125.4302,"elevationM":null},{"id":"node:1070159435","kind":"peak","name":"Bukiri Himbang","lat":2.0861,"lon":125.3576,"elevationM":null},{"id":"node:1070161262","kind":"peak","name":"Bulude Ginapati","lat":2.7476,"lon":125.3676,"elevationM":null},{"id":"node:1070161333","kind":"peak","name":"Bulude Bagangbalo","lat":2.6918,"lon":125.3773,"elevationM":null},{"id":"node:1070161804","kind":"peak","name":"Bukiri Wangkulang","lat":2.3379,"lon":125.4263,"elevationM":null},{"id":"node:1070163222","kind":"peak","name":"Wuluri Siwohi","lat":2.3526,"lon":125.4397,"elevationM":null},{"id":"node:1070164703","kind":"peak","name":"Bukiri Timbang","lat":2.372,"lon":125.4213,"elevationM":null},{"id":"node:1070165896","kind":"peak","name":"Bulude Papalumang","lat":2.6483,"lon":125.4101,"elevationM":null},{"id":"node:1070168672","kind":"peak","name":"Bukiri Kalongan","lat":2.3432,"lon":125.4375,"elevationM":null},{"id":"node:1070168927","kind":"peak","name":"Bukiri Tontongang","lat":2.0758,"lon":125.3536,"elevationM":null},{"id":"node:1070172243","kind":"peak","name":"Bukiri Palangka","lat":2.3626,"lon":125.4163,"elevationM":null},{"id":"node:1070173501","kind":"peak","name":"Bukiri Ta","lat":2.3542,"lon":125.4465,"elevationM":null},{"id":"node:1070174075","kind":"peak","name":"Bukiri Batumaitun","lat":2.3528,"lon":125.4021,"elevationM":null},{"id":"node:1070176511","kind":"peak","name":"Wuluri Balinge","lat":2.3535,"lon":125.4117,"elevationM":null},{"id":"node:1070180103","kind":"peak","name":"Bukiri Panentean","lat":2.3376,"lon":125.4158,"elevationM":null},{"id":"node:1070181427","kind":"peak","name":"Bukiri Kaloko","lat":2.3466,"lon":125.3931,"elevationM":null},{"id":"node:1070181683","kind":"peak","name":"Bukiri Bongkongkaka","lat":2.3703,"lon":125.4257,"elevationM":null},{"id":"node:1070183097","kind":"peak","name":"Awu Ruang","lat":2.3046733,"lon":125.3650316,"elevationM":null},{"id":"node:1070188738","kind":"peak","name":"Bulude Kalai","lat":2.7724,"lon":125.4303,"elevationM":null},{"id":"node:1070189529","kind":"peak","name":"Bukiri Bulo","lat":2.0774,"lon":125.3484,"elevationM":null},{"id":"node:12695721881","kind":"peak","name":"Bulude Tontonbulo","lat":2.6716523,"lon":125.3845075,"elevationM":null},{"id":"node:12695721891","kind":"peak","name":"Bulude Tamata","lat":2.7180058,"lon":125.3825753,"elevationM":null}]}