{"tileKey":"la_p48_lo_m74","version":"v1-1775891056926","entries":[{"id":"node:1227409649","kind":"peak","name":"Mont Haulain","lat":48.2114278,"lon":-73.9311083,"elevationM":563},{"id":"node:1951844361","kind":"peak","name":"Colline à l'Épervier","lat":48.9618368,"lon":-73.0375136,"elevationM":null},{"id":"node:2395346987","kind":"peak","name":"Mont Faveron","lat":48.2960274,"lon":-73.9682938,"elevationM":null},{"id":"node:2395346990","kind":"peak","name":"Mont Plagnol","lat":48.27867,"lon":-73.8950631,"elevationM":null},{"id":"node:2395362480","kind":"peak","name":"Mont Chatigny","lat":48.3583826,"lon":-73.9329398,"elevationM":null},{"id":"node:2395381741","kind":"peak","name":"Mont Bernecher","lat":48.2574705,"lon":-73.8711603,"elevationM":null},{"id":"node:2395415057","kind":"peak","name":"Mont Bériaux","lat":48.4668551,"lon":-73.9927284,"elevationM":null}]}