{"tileKey":"la_p48_lo_p11","version":"v1-1775891056926","entries":[{"id":"node:27236490","kind":"peak","name":"Perlacher Mugl","lat":48.0692044,"lon":11.5768294,"elevationM":587},{"id":"node:158712415","kind":"peak","name":"Olympiaberg","lat":48.1698523,"lon":11.5516289,"elevationM":564},{"id":"node:263833045","kind":"peak","name":"Fröttmaninger Berg","lat":48.21418,"lon":11.6304476,"elevationM":562},{"id":"node:265789014","kind":"peak","name":"Fuchsberg","lat":48.2937347,"lon":11.9166667,"elevationM":481},{"id":"node:279480848","kind":"peak","name":"Scherbelberg","lat":48.7620861,"lon":11.4183095,"elevationM":382},{"id":"node:311136775","kind":"peak","name":"Schöneberg","lat":48.107422,"lon":11.1040562,"elevationM":null},{"id":"node:313973935","kind":"peak","name":"Gollenberg","lat":48.1005434,"lon":11.0912709,"elevationM":613},{"id":"node:315090174","kind":"peak","name":"Steingassenberg","lat":48.1138393,"lon":11.0731757,"elevationM":null},{"id":"node:323216390","kind":"peak","name":"Roßkopf","lat":48.9873521,"lon":11.6236828,"elevationM":481},{"id":"node:331312920","kind":"peak","name":"Hypoberg","lat":48.2045138,"lon":11.6453693,"elevationM":517},{"id":"node:416928845","kind":"peak","name":"Galgenberg","lat":48.8257138,"lon":11.0978406,"elevationM":445},{"id":"node:427550768","kind":"peak","name":"Salzberg","lat":48.5051242,"lon":11.9424926,"elevationM":471},{"id":"node:427667587","kind":"peak","name":"Teufelsfelsen","lat":48.988786,"lon":11.6983999,"elevationM":null},{"id":"node:429344665","kind":"peak","name":"Ameisenberg","lat":48.5233406,"lon":11.9073832,"elevationM":485},{"id":"node:469925785","kind":"peak","name":"Teufelskanzel","lat":48.8914615,"lon":11.0070203,"elevationM":458},{"id":"node:474459694","kind":"peak","name":"Kreuzberg","lat":48.0805964,"lon":11.0099398,"elevationM":655},{"id":"node:662362296","kind":"peak","name":"Schuttberg","lat":48.2419822,"lon":11.4284392,"elevationM":null},{"id":"node:666304999","kind":"peak","name":"Luitpoldhügel","lat":48.1724218,"lon":11.5708975,"elevationM":539},{"id":"node:667441727","kind":"peak","name":"Rodelhügel Hochbrück","lat":48.2498383,"lon":11.609027,"elevationM":490},{"id":"node:802966781","kind":"peak","name":"Engelsberg","lat":48.1674804,"lon":11.2488415,"elevationM":560},{"id":"node:879138507","kind":"peak","name":"Kotiger Berg","lat":48.7171196,"lon":11.7419212,"elevationM":442},{"id":"node:919557438","kind":"peak","name":"Michelsberg","lat":48.9184881,"lon":11.859725,"elevationM":448},{"id":"node:1072560890","kind":"peak","name":"Klausbühl","lat":48.0589092,"lon":11.2552376,"elevationM":612},{"id":"node:1072579874","kind":"peak","name":"Höhenberg","lat":48.0217126,"lon":11.2376396,"elevationM":673},{"id":"node:1072579898","kind":"peak","name":"Osterberg","lat":48.0299482,"lon":11.2386765,"elevationM":null},{"id":"node:1072619069","kind":"peak","name":"Sonnenberg","lat":48.0242626,"lon":11.3877355,"elevationM":661},{"id":"node:1072619075","kind":"peak","name":"Karlsberg","lat":48.0348097,"lon":11.3606344,"elevationM":633},{"id":"node:1077245442","kind":"peak","name":"Klingelberg","lat":48.1196666,"lon":11.2718428,"elevationM":null},{"id":"node:1116082637","kind":"peak","name":"Wadelsberg","lat":48.0320399,"lon":11.3996428,"elevationM":627},{"id":"node:1116114885","kind":"peak","name":"Buchbichl","lat":48.0796833,"lon":11.3989572,"elevationM":556},{"id":"node:1125513188","kind":"peak","name":"Höllberg","lat":48.025969,"lon":11.3442836,"elevationM":650},{"id":"node:1125622034","kind":"peak","name":"Schönberg","lat":48.0277987,"lon":11.3577177,"elevationM":661},{"id":"node:1189018102","kind":"peak","name":"Fuchsberg","lat":48.7593789,"lon":11.8218747,"elevationM":411},{"id":"node:1189018163","kind":"peak","name":"Jägerberg","lat":48.7233174,"lon":11.700735,"elevationM":397},{"id":"node:1200491072","kind":"peak","name":"Parsberg","lat":48.1328453,"lon":11.3275765,"elevationM":569},{"id":"node:1205557463","kind":"peak","name":"Buchberg","lat":48.7266351,"lon":11.736451,"elevationM":null},{"id":"node:1205557551","kind":"peak","name":"Sandberg","lat":48.7437149,"lon":11.7091614,"elevationM":397},{"id":"node:1205621698","kind":"peak","name":"Nebelberg","lat":48.7434874,"lon":11.7321036,"elevationM":397},{"id":"node:1210263522","kind":"peak","name":"Oelbuckel","lat":48.9049407,"lon":11.4409002,"elevationM":529},{"id":"node:1210263535","kind":"peak","name":"Fuchsberg","lat":48.9138826,"lon":11.5039298,"elevationM":500},{"id":"node:1210263627","kind":"peak","name":"Teufelskopf","lat":48.9118409,"lon":11.534075,"elevationM":509},{"id":"node:1210263693","kind":"peak","name":"Buchhügel","lat":48.9109605,"lon":11.5160688,"elevationM":526},{"id":"node:1210263775","kind":"peak","name":"Hennenberg","lat":48.9337591,"lon":11.4850467,"elevationM":514},{"id":"node:1210263936","kind":"peak","name":"Steinbuckel","lat":48.8927079,"lon":11.4812032,"elevationM":508},{"id":"node:1210263966","kind":"peak","name":"Öchselberg","lat":48.9025974,"lon":11.5582813,"elevationM":505},{"id":"node:1210264154","kind":"peak","name":"Buchkopf","lat":48.9009225,"lon":11.4785082,"elevationM":516},{"id":"node:1211232769","kind":"peak","name":"Mühlthaler Leite","lat":48.036638,"lon":11.3701728,"elevationM":null},{"id":"node:1211232804","kind":"peak","name":"Schafsberg","lat":48.0382955,"lon":11.3865128,"elevationM":631},{"id":"node:1211232824","kind":"peak","name":"Schlossberg","lat":48.0431843,"lon":11.3693284,"elevationM":600},{"id":"node:1221396030","kind":"peak","name":"Muckenberg","lat":48.8924732,"lon":11.3829112,"elevationM":482},{"id":"node:1263958487","kind":"peak","name":"Dachsberg","lat":48.772738,"lon":11.3713074,"elevationM":385},{"id":"node:1267538601","kind":"peak","name":"Höhenberg","lat":48.0822237,"lon":11.2418886,"elevationM":638},{"id":"node:1272376668","kind":"peak","name":"Jaudesberg","lat":48.039174,"lon":11.1435871,"elevationM":617},{"id":"node:1366511795","kind":"peak","name":"Langeberg","lat":48.7464298,"lon":11.7542029,"elevationM":436},{"id":"node:1366511804","kind":"peak","name":"Lehmbuckel","lat":48.7551272,"lon":11.7588692,"elevationM":429},{"id":"node:1448586157","kind":"peak","name":"Teufelsberg","lat":48.1676006,"lon":11.3998305,"elevationM":542},{"id":"node:1471748138","kind":"peak","name":"Aussichtshügel Nord","lat":48.3661951,"lon":11.7687696,"elevationM":null},{"id":"node:1550047617","kind":"peak","name":"Engelsberg","lat":48.5385321,"lon":11.9779686,"elevationM":491},{"id":"node:1550061800","kind":"peak","name":"Geißberg","lat":48.5350628,"lon":11.9871388,"elevationM":505},{"id":"node:1611969088","kind":"peak","name":"Sandberg","lat":48.5695568,"lon":11.6223459,"elevationM":null},{"id":"node:1611969089","kind":"peak","name":"Schloßberg","lat":48.5773172,"lon":11.6275175,"elevationM":null},{"id":"node:1782334972","kind":"peak","name":"Fohrenbühl","lat":48.9115881,"lon":11.0263293,"elevationM":568},{"id":"node:2267511385","kind":"peak","name":"Fuchsberg","lat":48.4398155,"lon":11.8464846,"elevationM":469},{"id":"node:2268289128","kind":"peak","name":"Burgselberg","lat":48.0650672,"lon":11.2034417,"elevationM":625},{"id":"node:2279782173","kind":"peak","name":"Fuchsberg","lat":48.4401346,"lon":11.838152,"elevationM":485},{"id":"node:2410343757","kind":"peak","name":"Indorfer Berg","lat":48.2880631,"lon":11.9158806,"elevationM":485},{"id":"node:2472662560","kind":"peak","name":"Palmberg","lat":48.8476119,"lon":11.9029985,"elevationM":411},{"id":"node:2472752309","kind":"peak","name":"Kuchenberg","lat":48.8300005,"lon":11.9028614,"elevationM":374},{"id":"node:2529291805","kind":"peak","name":"Litzelberg","lat":48.940874,"lon":11.7921172,"elevationM":524},{"id":"node:2533220255","kind":"peak","name":"Kreuzfelsen","lat":48.9339953,"lon":11.7927065,"elevationM":null},{"id":"node:2591347670","kind":"peak","name":"Eichberg","lat":48.8928866,"lon":11.8568832,"elevationM":424},{"id":"node:2609378527","kind":"peak","name":"Birkel","lat":48.845578,"lon":11.9182548,"elevationM":414},{"id":"node:2629209052","kind":"peak","name":"Weinberg","lat":48.8648253,"lon":11.7915826,"elevationM":402},{"id":"node:2633880096","kind":"peak","name":"Schlossberg","lat":48.8214901,"lon":11.0783474,"elevationM":500},{"id":"node:2755691821","kind":"peak","name":"Kreuzelberg","lat":48.8155376,"lon":11.0764306,"elevationM":505},{"id":"node:2767485667","kind":"peak","name":"Schlossberg","lat":48.5655356,"lon":11.7517407,"elevationM":null},{"id":"node:2798785831","kind":"peak","name":"Kirchberg","lat":48.6065393,"lon":11.8780377,"elevationM":493},{"id":"node:2800814740","kind":"peak","name":"Rastberg","lat":48.4407717,"lon":11.8652585,"elevationM":465},{"id":"node:2816576099","kind":"peak","name":"Stürzerberg","lat":48.129579,"lon":11.8283743,"elevationM":558},{"id":"node:2816576100","kind":"peak","name":"Turmhügel","lat":48.1408291,"lon":11.8378928,"elevationM":561},{"id":"node:2891171787","kind":"peak","name":"Rothenberg","lat":48.8652999,"lon":11.3997929,"elevationM":487},{"id":"node:2891182898","kind":"peak","name":"Hohe Mandel","lat":48.8450934,"lon":11.409731,"elevationM":null},{"id":"node:2946724048","kind":"peak","name":"Pfleimberg","lat":48.9954014,"lon":11.202323,"elevationM":null},{"id":"node:2971102758","kind":"peak","name":"Thierkopf","lat":48.0269277,"lon":11.37643,"elevationM":null},{"id":"node:2974723075","kind":"peak","name":"Speckelsberg","lat":48.9833522,"lon":11.6782653,"elevationM":531},{"id":"node:3021830639","kind":"peak","name":"Dachsberg","lat":48.8196619,"lon":11.1050116,"elevationM":null},{"id":"node:3133879216","kind":"peak","name":"Ludwigshöhe","lat":48.0898652,"lon":11.9599436,"elevationM":618},{"id":"node:3149380906","kind":"peak","name":"Einberg","lat":48.4143807,"lon":11.9863814,"elevationM":null},{"id":"node:3150382430","kind":"peak","name":"Saubuckel","lat":48.7995552,"lon":11.9148787,"elevationM":405},{"id":"node:3169621269","kind":"peak","name":"Schlösselberg","lat":48.9196766,"lon":11.8113666,"elevationM":481},{"id":"node:3169621270","kind":"peak","name":"Hirschberg","lat":48.9129884,"lon":11.8331244,"elevationM":477},{"id":"node:3169624861","kind":"peak","name":"Buchberg","lat":48.9287778,"lon":11.7566695,"elevationM":480},{"id":"node:3169628161","kind":"peak","name":"Pfaffenkopf","lat":48.9362251,"lon":11.7640447,"elevationM":429},{"id":"node:3176743561","kind":"peak","name":"Kastlberg","lat":48.9341621,"lon":11.7546643,"elevationM":467},{"id":"node:3176746522","kind":"peak","name":"Staubinger Berg","lat":48.8741991,"lon":11.7894738,"elevationM":410},{"id":"node:3176755018","kind":"peak","name":"Hohenberg","lat":48.8451748,"lon":11.9430242,"elevationM":418},{"id":"node:3176766602","kind":"peak","name":"Rötelberg","lat":48.8416614,"lon":11.9392545,"elevationM":416},{"id":"node:3176772961","kind":"peak","name":"Geißkluppe","lat":48.7956456,"lon":11.9307016,"elevationM":427},{"id":"node:3176785161","kind":"peak","name":"Goldberg","lat":48.7888691,"lon":11.9417336,"elevationM":450},{"id":"node:3176795379","kind":"peak","name":"Schachtberg","lat":48.7740676,"lon":11.9130307,"elevationM":448},{"id":"node:3176800596","kind":"peak","name":"Zweifel","lat":48.831548,"lon":11.9153696,"elevationM":384},{"id":"node:3176811861","kind":"peak","name":"Kirschberg","lat":48.8011893,"lon":11.9903492,"elevationM":448},{"id":"node:3190032803","kind":"peak","name":"Feckinger Berg","lat":48.9021125,"lon":11.8718426,"elevationM":494},{"id":"node:3190117000","kind":"peak","name":"Jägerberg","lat":48.9650355,"lon":11.6766554,"elevationM":476},{"id":"node:3190120532","kind":"peak","name":"Dieterzhofener Berg","lat":48.9716325,"lon":11.6964454,"elevationM":509},{"id":"node:3190142179","kind":"peak","name":"Esterberg","lat":48.9630676,"lon":11.709276,"elevationM":515},{"id":"node:3190159411","kind":"peak","name":"Hinterberg","lat":48.8407156,"lon":11.8251598,"elevationM":414},{"id":"node:3244091068","kind":"peak","name":"Kirchbergbuckel","lat":48.7684874,"lon":11.9069778,"elevationM":425},{"id":"node:3244095414","kind":"peak","name":"Predigtstuhl","lat":48.7627769,"lon":11.9122795,"elevationM":442},{"id":"node:3244101333","kind":"peak","name":"Auf dem Galgenberg","lat":48.8264637,"lon":11.8514005,"elevationM":407},{"id":"node:3244105873","kind":"peak","name":"Linsberg","lat":48.8302964,"lon":11.8587132,"elevationM":407},{"id":"node:3244112970","kind":"peak","name":"Roter Peter","lat":48.8353668,"lon":11.8505635,"elevationM":410},{"id":"node:3244119714","kind":"peak","name":"Eichet","lat":48.8390236,"lon":11.855266,"elevationM":415},{"id":"node:3244120960","kind":"peak","name":"Zünderbuckel","lat":48.833793,"lon":11.8689839,"elevationM":398},{"id":"node:3244127560","kind":"peak","name":"Auf der Schwindgruben","lat":48.8407411,"lon":11.868632,"elevationM":404},{"id":"node:3244128740","kind":"peak","name":"Geisberg","lat":48.8577781,"lon":11.8776532,"elevationM":409},{"id":"node:3244130681","kind":"peak","name":"Heindelberg","lat":48.8550597,"lon":11.8632563,"elevationM":423},{"id":"node:3244133339","kind":"peak","name":"Kirmberg","lat":48.8648904,"lon":11.8771726,"elevationM":417},{"id":"node:3244138062","kind":"peak","name":"Steinbuckel","lat":48.8694496,"lon":11.8506155,"elevationM":457},{"id":"node:3244167692","kind":"peak","name":"Leitenberg","lat":48.8894466,"lon":11.873068,"elevationM":405},{"id":"node:3504520697","kind":"peak","name":"Buchhofer Höhe","lat":48.8567987,"lon":11.9241514,"elevationM":424},{"id":"node:3668635653","kind":"peak","name":"Fuchsberg","lat":48.5244364,"lon":11.5270723,"elevationM":484},{"id":"node:3692936392","kind":"peak","name":"Kühberg","lat":48.5504438,"lon":11.5501611,"elevationM":488},{"id":"node:3721560882","kind":"peak","name":"Georgshöhe","lat":48.5206968,"lon":11.514955,"elevationM":455},{"id":"node:3721583033","kind":"peak","name":"Annesberg","lat":48.5387249,"lon":11.5398827,"elevationM":497},{"id":"node:3721593286","kind":"peak","name":"Lettenberg","lat":48.5402217,"lon":11.5349563,"elevationM":null},{"id":"node:3721597013","kind":"peak","name":"Rieberg","lat":48.5428539,"lon":11.5390931,"elevationM":null},{"id":"node:3721601692","kind":"peak","name":"Lustberg","lat":48.5660032,"lon":11.5824333,"elevationM":null},{"id":"node:3721602660","kind":"peak","name":"Maderberg","lat":48.561726,"lon":11.5472455,"elevationM":null},{"id":"node:3721610338","kind":"peak","name":"Fuchsberg","lat":48.4966138,"lon":11.5678278,"elevationM":513},{"id":"node:3721611612","kind":"peak","name":"Schlagberg","lat":48.4968488,"lon":11.526093,"elevationM":490},{"id":"node:3721611644","kind":"peak","name":"Kreuzberg","lat":48.4924091,"lon":11.5398431,"elevationM":507},{"id":"node:3721611725","kind":"peak","name":"Schlossberg","lat":48.4932886,"lon":11.5458165,"elevationM":null},{"id":"node:3722861040","kind":"peak","name":"Prunner Wand","lat":48.9542413,"lon":11.7323485,"elevationM":null},{"id":"node:3722861051","kind":"peak","name":"Prunner Turm","lat":48.9544219,"lon":11.7318403,"elevationM":null},{"id":"node:3748750652","kind":"peak","name":"Nonnenstein","lat":48.919789,"lon":11.3631009,"elevationM":null},{"id":"node:3832654653","kind":"peak","name":"Lintlberg","lat":48.9526176,"lon":11.68812,"elevationM":464},{"id":"node:3835512940","kind":"peak","name":"Mühlberg","lat":48.3575306,"lon":11.0486425,"elevationM":507},{"id":"node:3835512942","kind":"peak","name":"Ulrichsberg","lat":48.3605326,"lon":11.0577286,"elevationM":501},{"id":"node:3850932575","kind":"peak","name":"Altenstadt","lat":48.5382886,"lon":11.501656,"elevationM":432},{"id":"node:3850958157","kind":"peak","name":"Bromberg","lat":48.5685951,"lon":11.4922639,"elevationM":473},{"id":"node:3850958294","kind":"peak","name":"Hagberg","lat":48.5093266,"lon":11.4997735,"elevationM":null},{"id":"node:3909392850","kind":"peak","name":"Betberg","lat":48.0215717,"lon":11.4774397,"elevationM":null},{"id":"node:4054778716","kind":"peak","name":"Pfaffelleiten","lat":48.5205015,"lon":11.5219328,"elevationM":482},{"id":"node:4127813486","kind":"peak","name":"Wurzberg","lat":48.8966393,"lon":11.8279424,"elevationM":447},{"id":"node:4127814901","kind":"peak","name":"Räuberfelsen","lat":48.907472,"lon":11.8529295,"elevationM":null},{"id":"node:4127817825","kind":"peak","name":"Peter-und-Paul-Felsen","lat":48.9043799,"lon":11.849653,"elevationM":null},{"id":"node:4127840232","kind":"peak","name":"Ochsenkopf","lat":48.8978629,"lon":11.7569891,"elevationM":447},{"id":"node:4127840821","kind":"peak","name":"Schönberg","lat":48.9025123,"lon":11.7583884,"elevationM":456},{"id":"node:4127861862","kind":"peak","name":"Etzerbichl","lat":48.9109517,"lon":11.7700374,"elevationM":461},{"id":"node:4127929616","kind":"peak","name":"Lichtenberg","lat":48.8189722,"lon":11.954848,"elevationM":428},{"id":"node:4159797212","kind":"peak","name":"Lohspitze","lat":48.949496,"lon":11.7179828,"elevationM":500},{"id":"node:4177733396","kind":"peak","name":"Lohberg","lat":48.8829923,"lon":11.891843,"elevationM":435},{"id":"node:4177734754","kind":"peak","name":"Igelsberg","lat":48.8827304,"lon":11.9252522,"elevationM":459},{"id":"node:4194154854","kind":"peak","name":"Ringberg","lat":48.9029264,"lon":11.9701587,"elevationM":425},{"id":"node:4194158399","kind":"peak","name":"Haselspitz","lat":48.8976684,"lon":11.9909682,"elevationM":444},{"id":"node:4194158754","kind":"peak","name":"Gabelberg","lat":48.8882746,"lon":11.9789498,"elevationM":443},{"id":"node:4194161056","kind":"peak","name":"Kirchenberg","lat":48.8859716,"lon":11.9698483,"elevationM":463},{"id":"node:4194162275","kind":"peak","name":"Lappersberg","lat":48.8769701,"lon":11.9645913,"elevationM":437},{"id":"node:4197137948","kind":"peak","name":"Koppenberg","lat":48.7157602,"lon":11.9321948,"elevationM":481},{"id":"node:4316006019","kind":"peak","name":"Kalvarienberg","lat":48.5672557,"lon":11.6288819,"elevationM":null},{"id":"node:4331186263","kind":"peak","name":"Weinberghöhe","lat":48.7994309,"lon":11.4337559,"elevationM":389},{"id":"node:4477353242","kind":"peak","name":"Stupberg","lat":48.8740554,"lon":11.0705076,"elevationM":null},{"id":"node:4646799722","kind":"peak","name":"Vogelberg","lat":48.0677774,"lon":11.9743609,"elevationM":562},{"id":"node:4668708798","kind":"peak","name":"Moosberg","lat":48.6275062,"lon":11.4232678,"elevationM":438},{"id":"node:4730692192","kind":"peak","name":"Geißberg","lat":48.6186266,"lon":11.403559,"elevationM":441},{"id":"node:4730692193","kind":"peak","name":"Dürrenberg","lat":48.6310124,"lon":11.3678171,"elevationM":462},{"id":"node:4918842178","kind":"peak","name":"Schweinsberg","lat":48.3363647,"lon":11.1992529,"elevationM":520},{"id":"node:4918842179","kind":"peak","name":"Fuchsberg","lat":48.3388074,"lon":11.2005668,"elevationM":518},{"id":"node:4918842180","kind":"peak","name":"Miegersberg","lat":48.3303534,"lon":11.1889475,"elevationM":null},{"id":"node:4918842181","kind":"peak","name":"Goldberg","lat":48.3320667,"lon":11.1848237,"elevationM":523},{"id":"node:4918842182","kind":"peak","name":"Taxaberg","lat":48.3333221,"lon":11.1737333,"elevationM":532},{"id":"node:4918908633","kind":"peak","name":"Salzberg","lat":48.3433598,"lon":11.2566992,"elevationM":520},{"id":"node:4918908642","kind":"peak","name":"Reitersberg","lat":48.2646408,"lon":11.201771,"elevationM":543},{"id":"node:4918908643","kind":"peak","name":"Mantelberg","lat":48.32832,"lon":11.1031389,"elevationM":524},{"id":"node:4919742323","kind":"peak","name":"Plattenberg","lat":48.4298957,"lon":11.1336121,"elevationM":502},{"id":"node:4919742324","kind":"peak","name":"Fuchsberg","lat":48.4507323,"lon":11.1606481,"elevationM":507},{"id":"node:4919742325","kind":"peak","name":"Mandelberg","lat":48.4032689,"lon":11.2928126,"elevationM":533},{"id":"node:4919742326","kind":"peak","name":"Kreuzberg","lat":48.3513467,"lon":11.5201593,"elevationM":498},{"id":"node:4919742327","kind":"peak","name":"Hofberg","lat":48.4638585,"lon":11.2545094,"elevationM":503},{"id":"node:4919742332","kind":"peak","name":"Badbichl","lat":48.0350889,"lon":11.2256561,"elevationM":648},{"id":"node:4920226650","kind":"peak","name":"Pfannenflickerberg","lat":48.332133,"lon":11.1100381,"elevationM":539},{"id":"node:4922565354","kind":"peak","name":"Bäckerberg","lat":48.3585716,"lon":11.1503111,"elevationM":515},{"id":"node:4922588530","kind":"peak","name":"Taubenbichl","lat":48.2358137,"lon":11.2525889,"elevationM":543},{"id":"node:4970989166","kind":"peak","name":"Michelsberg","lat":48.9465726,"lon":11.392719,"elevationM":null},{"id":"node:5044803490","kind":"peak","name":"Lorenziberg","lat":48.6307592,"lon":11.0841372,"elevationM":491},{"id":"node:5044803491","kind":"peak","name":"Reichenbichl","lat":48.621533,"lon":11.082736,"elevationM":null},{"id":"node:5044803492","kind":"peak","name":"Frauenberg","lat":48.6158295,"lon":11.0853229,"elevationM":null},{"id":"node:5164613745","kind":"peak","name":"Auf der Sandgrube","lat":48.8407512,"lon":11.8523012,"elevationM":415},{"id":"node:5238057059","kind":"peak","name":"Eichelberg","lat":48.8226362,"lon":11.7309709,"elevationM":403},{"id":"node:5324487981","kind":"peak","name":"Hieselberg","lat":48.8344192,"lon":11.9461118,"elevationM":412},{"id":"node:5502748082","kind":"peak","name":"Kitzenbichl","lat":48.9797576,"lon":11.4745623,"elevationM":510},{"id":"node:5502748083","kind":"peak","name":"Steinbühl","lat":48.9739319,"lon":11.4933463,"elevationM":528},{"id":"node:5502748085","kind":"peak","name":"Buchenbichel","lat":48.9723162,"lon":11.5730373,"elevationM":491},{"id":"node:5502748086","kind":"peak","name":"Dietfurter Höhe","lat":48.988089,"lon":11.5681116,"elevationM":514},{"id":"node:5502748088","kind":"peak","name":"Ofenplatte","lat":48.9933938,"lon":11.5792414,"elevationM":516},{"id":"node:5502748089","kind":"peak","name":"Arnbucher Höhe","lat":48.9750508,"lon":11.5451723,"elevationM":506},{"id":"node:5622332693","kind":"peak","name":"Wolfsberg","lat":48.5430079,"lon":11.4322533,"elevationM":532},{"id":"node:5626413590","kind":"peak","name":"Geißberg","lat":48.5715476,"lon":11.5021698,"elevationM":481},{"id":"node:5626424857","kind":"peak","name":"Brünnelberg","lat":48.5390742,"lon":11.592273,"elevationM":488},{"id":"node:5639737400","kind":"peak","name":"Buckelberg","lat":48.5004594,"lon":11.5904662,"elevationM":515},{"id":"node:5651641665","kind":"peak","name":"Kaiserberg","lat":48.5409719,"lon":11.4485788,"elevationM":null},{"id":"node:5748603511","kind":"peak","name":"Grob-Berg","lat":48.5589111,"lon":11.4771962,"elevationM":null},{"id":"node:5792676627","kind":"peak","name":"Gaschberg","lat":48.0363068,"lon":11.986609,"elevationM":560},{"id":"node:5812805842","kind":"peak","name":"Schloßberg","lat":48.062684,"lon":11.9865942,"elevationM":585},{"id":"node:5812805843","kind":"peak","name":"Eberberg","lat":48.0574226,"lon":11.9897746,"elevationM":581},{"id":"node:5812805844","kind":"peak","name":"Seemoosberg","lat":48.0575417,"lon":11.9997209,"elevationM":590},{"id":"node:5975776044","kind":"peak","name":"Steinberg","lat":48.89508,"lon":11.40904,"elevationM":520},{"id":"node:5977621429","kind":"peak","name":"Schmidberg","lat":48.7385215,"lon":11.7958531,"elevationM":397},{"id":"node:5977636359","kind":"peak","name":"Dachsberg","lat":48.7634239,"lon":11.781313,"elevationM":425},{"id":"node:6024364847","kind":"peak","name":"Kreuzleiten","lat":48.4623946,"lon":11.5220897,"elevationM":null},{"id":"node:6024366184","kind":"peak","name":"Leitenberg","lat":48.466586,"lon":11.5437712,"elevationM":null},{"id":"node:6024366285","kind":"peak","name":"Christelberg","lat":48.4709261,"lon":11.5472259,"elevationM":null},{"id":"node:6024367084","kind":"peak","name":"Lettenberg","lat":48.4797262,"lon":11.5432895,"elevationM":null},{"id":"node:6024367382","kind":"peak","name":"Eichberg","lat":48.4862906,"lon":11.5409966,"elevationM":null},{"id":"node:6024367772","kind":"peak","name":"Höllberg","lat":48.4856224,"lon":11.5653244,"elevationM":null},{"id":"node:6024369929","kind":"peak","name":"Steinberg","lat":48.4849095,"lon":11.5202525,"elevationM":null},{"id":"node:6024372755","kind":"peak","name":"Dürrenberg","lat":48.4742375,"lon":11.5354249,"elevationM":null},{"id":"node:6024682355","kind":"peak","name":"Kreutberg","lat":48.8945804,"lon":11.6728787,"elevationM":454},{"id":"node:6024694083","kind":"peak","name":"Kreutberg","lat":48.9008733,"lon":11.6747864,"elevationM":459},{"id":"node:6086142722","kind":"peak","name":"Schönthaler Berg","lat":48.5474134,"lon":11.4515611,"elevationM":null},{"id":"node:6086142723","kind":"peak","name":"Schneidberg","lat":48.5519529,"lon":11.4397512,"elevationM":null},{"id":"node:6086193963","kind":"peak","name":"Mühlberg","lat":48.4742222,"lon":11.4798976,"elevationM":null},{"id":"node:6086200428","kind":"peak","name":"Geißriegel","lat":48.477244,"lon":11.4722134,"elevationM":null},{"id":"node:6086206309","kind":"peak","name":"Kirchberg","lat":48.4738058,"lon":11.4940766,"elevationM":null},{"id":"node:6213028895","kind":"peak","name":"Mantelberg","lat":48.5609127,"lon":11.5987429,"elevationM":null},{"id":"node:6213035133","kind":"peak","name":"Füllberg","lat":48.5530754,"lon":11.6072134,"elevationM":null},{"id":"node:6938202421","kind":"peak","name":"Sauberg","lat":48.1188537,"lon":11.9884912,"elevationM":601},{"id":"node:6964834782","kind":"peak","name":"Reisberg","lat":48.8481358,"lon":11.3707773,"elevationM":508},{"id":"node:6992466345","kind":"peak","name":"Martinsberg","lat":48.0879731,"lon":11.1693813,"elevationM":612},{"id":"node:6992466346","kind":"peak","name":"Dachsberg","lat":48.0814532,"lon":11.1707238,"elevationM":610},{"id":"node:7232819120","kind":"peak","name":"Schellenberg","lat":48.9953673,"lon":11.3695535,"elevationM":null},{"id":"node:7617434023","kind":"peak","name":"Spielberg","lat":48.2671778,"lon":11.0207316,"elevationM":555},{"id":"node:7686984944","kind":"peak","name":"Schloßberg","lat":48.0053418,"lon":11.3922679,"elevationM":656},{"id":"node:7781604724","kind":"peak","name":"Baldehöhe","lat":48.0659317,"lon":11.5092524,"elevationM":580},{"id":"node:7943499327","kind":"peak","name":"Beinberg","lat":48.5081217,"lon":11.2409422,"elevationM":501},{"id":"node:7962560485","kind":"peak","name":"Leitlhöhe","lat":48.5058822,"lon":11.6000688,"elevationM":520},{"id":"node:8016601432","kind":"peak","name":"Mantelberg","lat":48.9823317,"lon":11.7461128,"elevationM":532},{"id":"node:8016601437","kind":"peak","name":"Wildbuckel","lat":48.9955609,"lon":11.8494661,"elevationM":521},{"id":"node:8016601470","kind":"peak","name":"Schlößlberg","lat":48.9759644,"lon":11.8616288,"elevationM":514},{"id":"node:8016601471","kind":"peak","name":"Rehberg","lat":48.9567675,"lon":11.8411574,"elevationM":525},{"id":"node:8016735936","kind":"peak","name":"Kröpflbuckel","lat":48.9550815,"lon":11.8829324,"elevationM":468},{"id":"node:8016735938","kind":"peak","name":"Stockenberg","lat":48.9772308,"lon":11.9216072,"elevationM":496},{"id":"node:8016736790","kind":"peak","name":"Steinbuckel","lat":48.9710219,"lon":11.9102676,"elevationM":467},{"id":"node:8016736796","kind":"peak","name":"504","lat":48.9698618,"lon":11.9336868,"elevationM":null},{"id":"node:8016736801","kind":"peak","name":"Dachsberg","lat":48.9505544,"lon":11.9660278,"elevationM":461},{"id":"node:8016736803","kind":"peak","name":"Langberg","lat":48.9398516,"lon":11.9748045,"elevationM":430},{"id":"node:8016736822","kind":"peak","name":"Kapflberg","lat":48.9264294,"lon":11.9691145,"elevationM":450},{"id":"node:8016736823","kind":"peak","name":"Bichel","lat":48.9348002,"lon":11.9900533,"elevationM":405},{"id":"node:8016736824","kind":"peak","name":"Hellerberg","lat":48.9608257,"lon":11.9762904,"elevationM":460},{"id":"node:8016736825","kind":"peak","name":"Heindelberg","lat":48.9253508,"lon":11.9373129,"elevationM":411},{"id":"node:8016736826","kind":"peak","name":"Winzerberg","lat":48.9221327,"lon":11.911691,"elevationM":462},{"id":"node:8016736827","kind":"peak","name":"Etzenberg","lat":48.938619,"lon":11.9159892,"elevationM":460},{"id":"node:8016736828","kind":"peak","name":"Sulzberg","lat":48.9365554,"lon":11.8899505,"elevationM":482},{"id":"node:8016736829","kind":"peak","name":"Wullerbuckel","lat":48.9436134,"lon":11.8799151,"elevationM":450},{"id":"node:8022880216","kind":"peak","name":"Nussberg","lat":48.7985955,"lon":11.7977871,"elevationM":null},{"id":"node:8027573777","kind":"peak","name":"Sandberg","lat":48.8527038,"lon":11.7970662,"elevationM":391},{"id":"node:8027573778","kind":"peak","name":"Schönberg","lat":48.8559112,"lon":11.8477872,"elevationM":447},{"id":"node:8027573781","kind":"peak","name":"Aschenbuckel","lat":48.8618454,"lon":11.8863252,"elevationM":420},{"id":"node:8057490448","kind":"peak","name":"Himmelberg","lat":48.8340513,"lon":11.2121618,"elevationM":457},{"id":"node:8129422708","kind":"peak","name":"Rastplatz","lat":48.5643871,"lon":11.6753444,"elevationM":528},{"id":"node:8170621076","kind":"peak","name":"Galgenbühl","lat":48.0016994,"lon":11.207823,"elevationM":681},{"id":"node:8346173878","kind":"peak","name":"Hallberg","lat":48.2622245,"lon":11.053495,"elevationM":551},{"id":"node:8661451033","kind":"peak","name":"Veitsberg","lat":48.3975957,"lon":11.7379457,"elevationM":null},{"id":"node:8669299839","kind":"peak","name":"Krebsenberg","lat":48.2193566,"lon":11.8234806,"elevationM":524},{"id":"node:8685489200","kind":"peak","name":"Kreuzberg","lat":48.247922,"lon":11.8593977,"elevationM":522},{"id":"node:8688162373","kind":"peak","name":"Moosberg","lat":48.2846225,"lon":11.8514912,"elevationM":490},{"id":"node:8688188812","kind":"peak","name":"Adelberg","lat":48.2806301,"lon":11.8481649,"elevationM":501},{"id":"node:8688237018","kind":"peak","name":"Braunberg","lat":48.2900855,"lon":11.8537725,"elevationM":null},{"id":"node:8903761297","kind":"peak","name":"Mausberg","lat":48.6114366,"lon":11.4572484,"elevationM":null},{"id":"node:8903761298","kind":"peak","name":"Eichberg","lat":48.6059318,"lon":11.4617474,"elevationM":432},{"id":"node:8903761299","kind":"peak","name":"Grober Berg","lat":48.6010726,"lon":11.4698522,"elevationM":453},{"id":"node:8903761300","kind":"peak","name":"Rotenberg","lat":48.6024887,"lon":11.4740347,"elevationM":null},{"id":"node:8903761301","kind":"peak","name":"Geißberg","lat":48.610396,"lon":11.4774655,"elevationM":438},{"id":"node:8930273950","kind":"peak","name":"Bellerberg","lat":48.8570542,"lon":11.6608824,"elevationM":436},{"id":"node:9101943888","kind":"peak","name":"Reisenbühl","lat":48.0337951,"lon":11.0864882,"elevationM":576},{"id":"node:9386501587","kind":"peak","name":"Birkelberg","lat":48.1967474,"lon":11.8229429,"elevationM":529},{"id":"node:9486275552","kind":"peak","name":"Haselberg","lat":48.4939495,"lon":11.5009236,"elevationM":null},{"id":"node:9552508730","kind":"peak","name":"Schindberg","lat":48.794896,"lon":11.9994441,"elevationM":439},{"id":"node:9566863714","kind":"peak","name":"Vogelbuck","lat":48.8267856,"lon":11.1588424,"elevationM":null},{"id":"node:9655582767","kind":"peak","name":"Sauberg","lat":48.9244258,"lon":11.6994379,"elevationM":443},{"id":"node:9801917517","kind":"peak","name":"Untere Fischleite","lat":48.0568501,"lon":11.1453627,"elevationM":590},{"id":"node:9801917518","kind":"peak","name":"Obere Fischleite","lat":48.0533965,"lon":11.1461217,"elevationM":591},{"id":"node:10103318114","kind":"peak","name":"Brunnenberg","lat":48.9875404,"lon":11.2637278,"elevationM":522},{"id":"node:10314410313","kind":"peak","name":"Hierberg","lat":48.9164098,"lon":11.4578026,"elevationM":534},{"id":"node:10554364935","kind":"peak","name":"Nonnenstein","lat":48.9165625,"lon":11.351807,"elevationM":480},{"id":"node:10559669103","kind":"peak","name":"Steinplatte","lat":48.9921807,"lon":11.0428311,"elevationM":577},{"id":"node:10665839525","kind":"peak","name":"Kirchberg","lat":48.2644614,"lon":11.0109031,"elevationM":542},{"id":"node:10692474734","kind":"peak","name":"Hainberg","lat":48.7746058,"lon":11.1015747,"elevationM":null},{"id":"node:10959244958","kind":"peak","name":"Dachsberg","lat":48.0643998,"lon":11.8852047,"elevationM":612},{"id":"node:10959258368","kind":"peak","name":"Taubenberg","lat":48.0617397,"lon":11.8798779,"elevationM":618},{"id":"node:10959285547","kind":"peak","name":"Kollmannsbrunnberg","lat":48.0532098,"lon":11.877716,"elevationM":600},{"id":"node:11015393598","kind":"peak","name":"Steinberg","lat":48.2102271,"lon":11.81403,"elevationM":518},{"id":"node:11015406855","kind":"peak","name":"Sauriaßl","lat":48.2143584,"lon":11.8100282,"elevationM":null},{"id":"node:11047654543","kind":"peak","name":"Windschaufel","lat":48.2189894,"lon":11.8347842,"elevationM":532},{"id":"node:11051834990","kind":"peak","name":"Schneckenberg","lat":48.8712409,"lon":11.1660486,"elevationM":492},{"id":"node:11134675043","kind":"peak","name":"Steinberg","lat":48.9314329,"lon":11.7208117,"elevationM":480},{"id":"node:11134675044","kind":"peak","name":"Sebastianshöhe","lat":48.9274169,"lon":11.7222396,"elevationM":482},{"id":"node:11134675045","kind":"peak","name":"Jägerbuckel","lat":48.9361724,"lon":11.724839,"elevationM":476},{"id":"node:11432263279","kind":"peak","name":"Kreuzberg","lat":48.0205642,"lon":11.9523497,"elevationM":572},{"id":"node:11458924722","kind":"peak","name":"Horn","lat":48.003638,"lon":11.4861783,"elevationM":635},{"id":"node:11464779169","kind":"peak","name":"Schönberg","lat":48.0042849,"lon":11.5427678,"elevationM":637},{"id":"node:12065117194","kind":"peak","name":"Riebberg","lat":48.8928919,"lon":11.7040894,"elevationM":474},{"id":"node:12284965770","kind":"peak","name":"Neuhofener Berg","lat":48.1101384,"lon":11.5418907,"elevationM":null},{"id":"node:12578497925","kind":"peak","name":"Königsberg","lat":48.8986998,"lon":11.5348291,"elevationM":539},{"id":"node:12797408038","kind":"peak","name":"Nesselberg","lat":48.8326234,"lon":11.5665365,"elevationM":460},{"id":"node:12814115252","kind":"peak","name":"Höchster Punkt der Hallertau","lat":48.5647181,"lon":11.6726631,"elevationM":534},{"id":"node:12873147335","kind":"peak","name":"Poppenberg","lat":48.8898823,"lon":11.7163512,"elevationM":459},{"id":"node:12951834106","kind":"peak","name":"Pfanderling","lat":48.3199443,"lon":11.5658867,"elevationM":499},{"id":"node:12990116801","kind":"peak","name":"Fuchsberg","lat":48.3732678,"lon":11.5535769,"elevationM":493},{"id":"node:12990116802","kind":"peak","name":"Steinberg","lat":48.3811672,"lon":11.617301,"elevationM":486},{"id":"node:12997976003","kind":"peak","name":"Geißberg","lat":48.3842485,"lon":11.5373716,"elevationM":500},{"id":"node:12997976004","kind":"peak","name":"Ziegelberg","lat":48.3874874,"lon":11.5191171,"elevationM":507},{"id":"node:12997976005","kind":"peak","name":"Schneiderberg","lat":48.3762144,"lon":11.570146,"elevationM":484},{"id":"node:12997976006","kind":"peak","name":"Fuchsberg","lat":48.3260001,"lon":11.6112914,"elevationM":486},{"id":"node:12997976007","kind":"peak","name":"Taxberg","lat":48.319422,"lon":11.5232286,"elevationM":497},{"id":"node:13092226863","kind":"peak","name":"Eichberg","lat":48.3318267,"lon":11.5921443,"elevationM":499},{"id":"node:13105269921","kind":"peak","name":"Aberlberg","lat":48.9365168,"lon":11.661342,"elevationM":505},{"id":"node:13118817067","kind":"peak","name":"Hanelberg","lat":48.9323899,"lon":11.694673,"elevationM":430},{"id":"node:13118817068","kind":"peak","name":"Broselberg","lat":48.9355828,"lon":11.6911853,"elevationM":429},{"id":"node:13118817071","kind":"peak","name":"Scherm","lat":48.9285488,"lon":11.6996225,"elevationM":444},{"id":"node:13119067324","kind":"peak","name":"Zahler","lat":48.9433142,"lon":11.6908034,"elevationM":452},{"id":"node:13128324599","kind":"peak","name":"Rehbuckel","lat":48.4058894,"lon":11.6547825,"elevationM":517},{"id":"node:13133380318","kind":"peak","name":"Sauberg","lat":48.4100587,"lon":11.6264191,"elevationM":522},{"id":"node:13133380319","kind":"peak","name":"Schneiderberg","lat":48.3733627,"lon":11.5667437,"elevationM":484},{"id":"node:13133380320","kind":"peak","name":"Fuchsberg","lat":48.3736641,"lon":11.5595121,"elevationM":493},{"id":"node:13133380321","kind":"peak","name":"Hummelberg","lat":48.2811331,"lon":11.4373233,"elevationM":516},{"id":"node:13133380322","kind":"peak","name":"Hoher Berg","lat":48.2785071,"lon":11.4326928,"elevationM":526},{"id":"node:13133380323","kind":"peak","name":"Fraunberg","lat":48.2937647,"lon":11.6632197,"elevationM":468},{"id":"node:13136722721","kind":"peak","name":"Hackenberg","lat":48.3944422,"lon":11.5116362,"elevationM":508},{"id":"node:13175380535","kind":"peak","name":"Bockmülerberg","lat":48.896753,"lon":11.9326998,"elevationM":402},{"id":"node:13175380536","kind":"peak","name":"Weinberg","lat":48.8948801,"lon":11.9353022,"elevationM":419},{"id":"node:13175380539","kind":"peak","name":"Buchenberg","lat":48.901141,"lon":11.953022,"elevationM":425},{"id":"node:13175380540","kind":"peak","name":"Spitzmülerberg","lat":48.9000715,"lon":11.9451727,"elevationM":435},{"id":"node:13175380541","kind":"peak","name":"Schönberg","lat":48.9723326,"lon":11.9837049,"elevationM":486},{"id":"node:13178985591","kind":"peak","name":"Adelberg","lat":48.072701,"lon":11.2584217,"elevationM":627},{"id":"node:13327850622","kind":"peak","name":"Lohberg","lat":48.3895639,"lon":11.4896913,"elevationM":499},{"id":"node:13369087390","kind":"peak","name":"Eichelsberg","lat":48.4107153,"lon":11.8172393,"elevationM":473},{"id":"node:13391079563","kind":"peak","name":"Kuglberg","lat":48.5215267,"lon":11.5310012,"elevationM":null},{"id":"node:13718228408","kind":"peak","name":"Monopteros","lat":48.1498803,"lon":11.5909208,"elevationM":null}]}