{"tileKey":"la_p24_lo_p7","version":"v1-1775891056926","entries":[{"id":"node:5600235841","kind":"peak","name":"Toukmâtîne","lat":24.8749807,"lon":7.0540595,"elevationM":1720},{"id":"node:7122571900","kind":"volcano","name":"Imesserredjene","lat":24.8700282,"lon":7.6637675,"elevationM":1480},{"id":"node:7392523300","kind":"peak","name":"Gara Tiklatine","lat":24.5956266,"lon":7.7073973,"elevationM":1160},{"id":"node:7392523325","kind":"peak","name":"Pilier","lat":24.5152262,"lon":7.9335344,"elevationM":1135},{"id":"node:7392523326","kind":"peak","name":"Tessalit","lat":24.4918546,"lon":7.8570861,"elevationM":1130},{"id":"node:7392611122","kind":"peak","name":"Repere","lat":24.7144882,"lon":7.6374078,"elevationM":1300},{"id":"node:7392833441","kind":"peak","name":"Amadel-n-Anir","lat":24.8661862,"lon":7.544437,"elevationM":1390},{"id":"node:7392840372","kind":"peak","name":"Ti-n-Akala","lat":24.5579944,"lon":7.2413206,"elevationM":1450},{"id":"node:7392901287","kind":"peak","name":"Tisselliline","lat":24.9583589,"lon":7.2047031,"elevationM":1700}]}