{"tileKey":"la_p67_lo_m165","version":"v1-1775891056926","entries":[{"id":"node:4450048054","kind":"peak","name":"Mound","lat":67.8284245,"lon":-164.7893348,"elevationM":13},{"id":"node:11660845559","kind":"peak","name":"Umagatsaiak Mountain","lat":67.9633267,"lon":-164.5732206,"elevationM":316},{"id":"node:11660913575","kind":"peak","name":"Avenak Mountain","lat":67.8088678,"lon":-164.1744277,"elevationM":216},{"id":"node:11660913579","kind":"peak","name":"Kisemaraktuk Mountain","lat":67.9936769,"lon":-164.6396594,"elevationM":441},{"id":"node:11660913585","kind":"peak","name":"Pusaluk Mountain","lat":67.9206066,"lon":-164.9515813,"elevationM":138},{"id":"node:11660913589","kind":"peak","name":"Asikpak Mountain","lat":67.8619986,"lon":-164.7230611,"elevationM":104},{"id":"node:11660913590","kind":"peak","name":"Sivuchek Mountain","lat":67.8200686,"lon":-164.5379724,"elevationM":84},{"id":"node:11660913591","kind":"peak","name":"Kisaymaruktuk Mountain","lat":67.8576053,"lon":-164.5559411,"elevationM":215},{"id":"node:11660913607","kind":"peak","name":"Mount Jarvis","lat":67.9246938,"lon":-164.0140459,"elevationM":445},{"id":"node:11660913637","kind":"peak","name":"Umarachek Peak","lat":67.8807851,"lon":-164.777987,"elevationM":181},{"id":"node:12033764675","kind":"peak","name":"Company Mountain","lat":67.8684708,"lon":-164.6308194,"elevationM":159}]}