{"tileKey":"la_p52_lo_m175","version":"v1-1775891056926","entries":[{"id":"node:11657370749","kind":"peak","name":"Chunuguusis","lat":52.2278315,"lon":-174.2020525,"elevationM":57},{"id":"node:11657370754","kind":"peak","name":"Mount Kliuchef","lat":52.3299343,"lon":-174.1425435,"elevationM":1458},{"id":"node:11657370756","kind":"peak","name":"Imachalux","lat":52.1289123,"lon":-174.0371031,"elevationM":127},{"id":"node:11657370759","kind":"peak","name":"Sidixsam-kiiguucha","lat":52.3108353,"lon":-174.0321997,"elevationM":1037},{"id":"node:11657370760","kind":"peak","name":"Inglum-kiiguucha","lat":52.0791602,"lon":-174.9541731,"elevationM":352},{"id":"node:11657370764","kind":"peak","name":"Amdagan Qayaa","lat":52.1270136,"lon":-174.1435381,"elevationM":112},{"id":"node:11657370768","kind":"peak","name":"Agignax","lat":52.3871646,"lon":-174.263507,"elevationM":588},{"id":"node:11657409271","kind":"volcano","name":"Sarichef Volcano","lat":52.322424,"lon":-174.0475267,"elevationM":824},{"id":"node:11657409272","kind":"peak","name":"Qigayax","lat":52.0241243,"lon":-174.9794509,"elevationM":366},{"id":"node:11657409276","kind":"volcano","name":"Korovin Volcano","lat":52.3813795,"lon":-174.1659455,"elevationM":1543},{"id":"node:11657409278","kind":"peak","name":"Tagalam Angtaa","lat":52.2895131,"lon":-174.2424411,"elevationM":525},{"id":"node:11657409281","kind":"peak","name":"Axsigis Kiiguucha","lat":52.0899579,"lon":-174.805631,"elevationM":455},{"id":"node:11657409282","kind":"peak","name":"Mount Sergief","lat":52.0537484,"lon":-174.9520538,"elevationM":552},{"id":"node:11657409284","kind":"volcano","name":"Conical Volcano","lat":52.35319,"lon":-174.2912932,"elevationM":689},{"id":"node:11657409285","kind":"peak","name":"Kiiguchaadax","lat":52.3570604,"lon":-174.0524095,"elevationM":578}]}