{"tileKey":"la_p38_lo_p16","version":"v1-1775891056926","entries":[{"id":"node:26863923","kind":"peak","name":"Monte Pecoraro","lat":38.5248522,"lon":16.345302,"elevationM":1423},{"id":"node:1677779276","kind":"peak","name":"Monte Stella","lat":38.4662712,"lon":16.4412483,"elevationM":832},{"id":"node:1677780422","kind":"peak","name":"Monte Consolino","lat":38.4793795,"lon":16.4619199,"elevationM":701},{"id":"node:1834086461","kind":"peak","name":"Monte Campanaro","lat":38.465115,"lon":16.4201552,"elevationM":957},{"id":"node:1834095914","kind":"peak","name":"Monte Corvo","lat":38.4871795,"lon":16.3841257,"elevationM":1168},{"id":"node:1834095915","kind":"peak","name":"Monte Mammicomito","lat":38.4607815,"lon":16.4248631,"elevationM":1047},{"id":"node:1834126943","kind":"peak","name":"Pietra del Boaro","lat":38.5089521,"lon":16.3591814,"elevationM":1280},{"id":"node:1907703148","kind":"peak","name":"Timpa Cacari","lat":38.489153,"lon":16.4719768,"elevationM":406},{"id":"node:1907726315","kind":"peak","name":"Monte Pietra Sambrase","lat":38.4821834,"lon":16.3654019,"elevationM":1218},{"id":"node:1907730987","kind":"peak","name":"Monte Napi","lat":38.4550509,"lon":16.477051,"elevationM":432},{"id":"node:1916794387","kind":"peak","name":"Pellicciano","lat":38.4846018,"lon":16.4899642,"elevationM":423},{"id":"node:1916797673","kind":"peak","name":"Monte Palamandrea","lat":38.4883725,"lon":16.4820774,"elevationM":409},{"id":"node:1917114603","kind":"peak","name":"Monte del Ladro","lat":38.5059646,"lon":16.4499447,"elevationM":656},{"id":"node:1917114607","kind":"peak","name":"Timpone di Coda del Ladro","lat":38.5039975,"lon":16.4602583,"elevationM":402},{"id":"node:1917212005","kind":"peak","name":"Monte Cucolìa","lat":38.516484,"lon":16.4037699,"elevationM":1129},{"id":"node:1917243598","kind":"peak","name":"Monte San Pietro","lat":38.5243429,"lon":16.392732,"elevationM":1124},{"id":"node:2385380127","kind":"peak","name":"Monte Cervaro","lat":38.5619799,"lon":16.4399328,"elevationM":1196},{"id":"node:2385380128","kind":"peak","name":"Monte San Nicola","lat":38.5695969,"lon":16.4268007,"elevationM":1260},{"id":"node:2385389307","kind":"peak","name":"Monte Cocuczzi","lat":38.5168114,"lon":16.4722781,"elevationM":580},{"id":"node:2420749154","kind":"peak","name":"Pietra Cappa","lat":38.1785867,"lon":16.0334847,"elevationM":829},{"id":"node:2497058362","kind":"peak","name":"Gotieri","lat":38.5006327,"lon":16.4464578,"elevationM":757},{"id":"node:2536226191","kind":"peak","name":"Monte dell'Impiccato","lat":38.6328822,"lon":16.3096081,"elevationM":903},{"id":"node:2536227513","kind":"peak","name":"Monte Mazzuccolo","lat":38.6265443,"lon":16.3093967,"elevationM":923},{"id":"node:2536227883","kind":"peak","name":"Monte Pietre Bianche","lat":38.6284066,"lon":16.3299714,"elevationM":818},{"id":"node:2536229228","kind":"peak","name":"Paladina","lat":38.620033,"lon":16.2942766,"elevationM":887},{"id":"node:2536231526","kind":"peak","name":"Colle Umbra","lat":38.6044835,"lon":16.2824684,"elevationM":926},{"id":"node:2536239184","kind":"peak","name":"Tre Croci","lat":38.6514671,"lon":16.3108333,"elevationM":805},{"id":"node:2536241661","kind":"peak","name":"Monte Cucco","lat":38.6481087,"lon":16.3326987,"elevationM":959},{"id":"node:2536248468","kind":"peak","name":"Monte Pizzini","lat":38.6792893,"lon":16.3277505,"elevationM":918},{"id":"node:2536248965","kind":"peak","name":"Monte Coppari","lat":38.709393,"lon":16.3224827,"elevationM":951},{"id":"node:2536382190","kind":"peak","name":"Monte dell'Argiata","lat":38.1876003,"lon":16.04206,"elevationM":603},{"id":"node:2536386902","kind":"peak","name":"Monte Pietra Castello","lat":38.1552804,"lon":16.0286275,"elevationM":943},{"id":"node:2536387481","kind":"peak","name":"Monte Pietra di Febo","lat":38.1555183,"lon":16.0325757,"elevationM":870},{"id":"node:2536391351","kind":"peak","name":"Monte Fernia","lat":38.12298,"lon":16.014208,"elevationM":1204},{"id":"node:2536391893","kind":"peak","name":"Punta Casteglia","lat":38.112819,"lon":16.0354103,"elevationM":959},{"id":"node:2536393197","kind":"peak","name":"Serra di Gullo","lat":38.101743,"lon":16.0565246,"elevationM":789},{"id":"node:2536399624","kind":"peak","name":"Puntone dei Campi","lat":38.0863402,"lon":16.0415021,"elevationM":832},{"id":"node:2536401542","kind":"peak","name":"Portella d'Orgaro","lat":38.0833998,"lon":16.0367385,"elevationM":918},{"id":"node:2536402108","kind":"peak","name":"Monte Rudini","lat":38.0852593,"lon":16.0551921,"elevationM":672},{"id":"node:2536402973","kind":"peak","name":"Monte Iofri","lat":38.0825643,"lon":16.0129935,"elevationM":1128},{"id":"node:2536407669","kind":"peak","name":"Puntone di Puntore","lat":38.0719815,"lon":16.0287992,"elevationM":697},{"id":"node:2536410544","kind":"peak","name":"Serro Schiavone","lat":38.0567786,"lon":16.0453645,"elevationM":627},{"id":"node:2536413352","kind":"peak","name":"Monte Scapparone","lat":38.0492427,"lon":16.0241643,"elevationM":1058},{"id":"node:2536422381","kind":"peak","name":"Poggio Ledera","lat":38.0188191,"lon":16.0245098,"elevationM":614},{"id":"node:2536426418","kind":"peak","name":"Serro Carditano","lat":38.0102345,"lon":16.000048,"elevationM":984},{"id":"node:2536430108","kind":"peak","name":"Rocca Giambatore","lat":38.0036711,"lon":16.0324899,"elevationM":681},{"id":"node:3159531563","kind":"peak","name":"Monte Contessa","lat":38.8113858,"lon":16.3674738,"elevationM":881},{"id":"node:3669000899","kind":"peak","name":"M.te S. Junio","lat":38.2864731,"lon":16.1987588,"elevationM":null},{"id":"node:3803747849","kind":"peak","name":"Monte Tre Pizzi","lat":38.2560198,"lon":16.1494276,"elevationM":711},{"id":"node:4460908836","kind":"peak","name":"Monte Gremi","lat":38.4290849,"lon":16.3141208,"elevationM":null},{"id":"node:4769789649","kind":"peak","name":"Serro Alto","lat":38.1851322,"lon":16.0143972,"elevationM":1054},{"id":"node:4769789651","kind":"peak","name":"Pietra Lunga","lat":38.1664168,"lon":16.0249812,"elevationM":835},{"id":"node:4769789666","kind":"peak","name":"Monte Misafumera","lat":38.2175995,"lon":16.0055654,"elevationM":1390},{"id":"node:4770256923","kind":"peak","name":"Monte Morrone","lat":38.5993714,"lon":16.309271,"elevationM":925},{"id":"node:4770256924","kind":"peak","name":"Colle Morrone","lat":38.5962353,"lon":16.3067176,"elevationM":963},{"id":"node:4770256951","kind":"peak","name":"Monte Cresta","lat":38.4167929,"lon":16.1985886,"elevationM":1006},{"id":"node:4770256952","kind":"peak","name":"Monte Ferro","lat":38.4199787,"lon":16.2131798,"elevationM":1068},{"id":"node:4770256953","kind":"peak","name":"Monte Seduto","lat":38.4356959,"lon":16.233114,"elevationM":1143},{"id":"node:4770256954","kind":"peak","name":"Monte Limina","lat":38.3898376,"lon":16.1876395,"elevationM":888},{"id":"node:4771951525","kind":"peak","name":"Monte Pompulello","lat":38.7632873,"lon":16.3920504,"elevationM":880},{"id":"node:4771951549","kind":"peak","name":"Monte Covello","lat":38.8034544,"lon":16.3971801,"elevationM":848},{"id":"node:4771951550","kind":"peak","name":"Serra Pelata","lat":38.8014393,"lon":16.3620754,"elevationM":911},{"id":"node:4771951551","kind":"peak","name":"Timpone del Monaco","lat":38.7954023,"lon":16.3606109,"elevationM":916},{"id":"node:4771951552","kind":"peak","name":"Serra del Gelo","lat":38.7843679,"lon":16.3714591,"elevationM":883},{"id":"node:4771951553","kind":"peak","name":"Monte Andrea","lat":38.7726249,"lon":16.3939253,"elevationM":842},{"id":"node:4771952918","kind":"peak","name":"Serralta di San Vito","lat":38.7487488,"lon":16.3680252,"elevationM":1023},{"id":"node:4771953062","kind":"peak","name":"Monte Acido","lat":38.7266449,"lon":16.3692195,"elevationM":956},{"id":"node:4771953063","kind":"peak","name":"Monte Perrone","lat":38.7106062,"lon":16.3570101,"elevationM":921},{"id":"node:4771953640","kind":"peak","name":"Monte Santa Agnese","lat":38.6560712,"lon":16.3423346,"elevationM":903},{"id":"node:4789042569","kind":"peak","name":"Monte Trearie","lat":38.9901835,"lon":16.5032004,"elevationM":992},{"id":"node:4789042570","kind":"peak","name":"Monte Farinella","lat":38.9633184,"lon":16.5212329,"elevationM":802},{"id":"node:4789042571","kind":"peak","name":"Monte Tiriolo","lat":38.9509746,"lon":16.5161075,"elevationM":834},{"id":"node:5869371436","kind":"peak","name":"Monte Tramazza","lat":38.594902,"lon":16.3897111,"elevationM":1125},{"id":"node:8582780539","kind":"peak","name":"Monte Mitoio","lat":38.9898419,"lon":16.2346407,"elevationM":986},{"id":"node:8761971495","kind":"peak","name":"Monte Muzzari","lat":38.9711124,"lon":16.2621823,"elevationM":327},{"id":"node:9444378365","kind":"peak","name":"Monte Crocco","lat":38.4906492,"lon":16.2468864,"elevationM":1294},{"id":"node:10197299537","kind":"peak","name":"Monte Cuculo","lat":38.3516859,"lon":16.1056917,"elevationM":822},{"id":"node:11043767782","kind":"peak","name":"Monte Pietra Cavallera","lat":38.5870536,"lon":16.4431265,"elevationM":1224},{"id":"node:11091455559","kind":"peak","name":"Monte Trematerra","lat":38.6119445,"lon":16.4397504,"elevationM":1228},{"id":"node:11365136550","kind":"peak","name":"Rocce di San Pietro","lat":38.1831763,"lon":16.0404361,"elevationM":null},{"id":"node:11365136551","kind":"peak","name":"Pietra Tonda","lat":38.1830208,"lon":16.0419625,"elevationM":null},{"id":"node:11582070689","kind":"peak","name":"Monte Mutolo","lat":38.3051058,"lon":16.1993312,"elevationM":738},{"id":"node:12152090837","kind":"peak","name":"Serro Carra'","lat":38.0482563,"lon":16.0022209,"elevationM":1048},{"id":"node:12951487410","kind":"peak","name":"Monte Petina","lat":38.5930791,"lon":16.5411686,"elevationM":217},{"id":"node:13668678614","kind":"peak","name":"Timpone San Francesco","lat":38.8757529,"lon":16.6148203,"elevationM":189},{"id":"node:13668678615","kind":"peak","name":"Monte Savuco","lat":38.878317,"lon":16.612224,"elevationM":207},{"id":"node:13668678616","kind":"peak","name":"Timpone Comunere","lat":38.8769179,"lon":16.6244455,"elevationM":173},{"id":"node:13668678617","kind":"peak","name":"Timpone Stella","lat":38.8732816,"lon":16.6259912,"elevationM":157},{"id":"node:13669168584","kind":"peak","name":"Colle Barone","lat":38.8560593,"lon":16.6379276,"elevationM":138},{"id":"node:13669169529","kind":"peak","name":"Monte Tiriolello","lat":38.8624489,"lon":16.6161365,"elevationM":184},{"id":"node:13669178389","kind":"peak","name":"Monte Pistoia","lat":38.853455,"lon":16.6208149,"elevationM":180},{"id":"node:13669179969","kind":"peak","name":"Monte Ragazzano","lat":38.8864289,"lon":16.6127137,"elevationM":229},{"id":"node:13669179970","kind":"peak","name":"Colle Antenna","lat":38.8949854,"lon":16.6080756,"elevationM":230},{"id":"node:13669179971","kind":"peak","name":"Monte Scavo","lat":38.9004022,"lon":16.6096692,"elevationM":283},{"id":"node:13669183109","kind":"peak","name":"Colle Marpe","lat":38.8745179,"lon":16.6415929,"elevationM":178},{"id":"node:13669183110","kind":"peak","name":"Colle Bellino","lat":38.8635125,"lon":16.6518353,"elevationM":146},{"id":"node:13669208606","kind":"peak","name":"Monte Mosofolo","lat":38.9316658,"lon":16.5943459,"elevationM":506},{"id":"node:13669208607","kind":"peak","name":"Timpone I Comuni","lat":38.9330092,"lon":16.6032447,"elevationM":576},{"id":"node:13687246317","kind":"peak","name":"Colle Santa Maria","lat":38.8603833,"lon":16.5969928,"elevationM":208},{"id":"node:13687246318","kind":"peak","name":"Punta dei Briganti","lat":38.8639844,"lon":16.5999497,"elevationM":188}]}