{"tileKey":"la_p47_lo_p152","version":"v1-1775891056926","entries":[{"id":"node:281907079","kind":"volcano","name":"Палласа","lat":47.3419987,"lon":152.4778932,"elevationM":993},{"id":"node:281915827","kind":"volcano","name":"Ушишир","lat":47.5150468,"lon":152.8021653,"elevationM":401},{"id":"node:283566907","kind":"volcano","name":"Прево","lat":47.0110509,"lon":152.1152115,"elevationM":1360},{"id":"node:6665187648","kind":"volcano","name":"Уратман","lat":47.121045,"lon":152.2488785,"elevationM":676},{"id":"node:8123975579","kind":"volcano","name":"Кетой","lat":47.3507444,"lon":152.4478327,"elevationM":1172},{"id":"node:8208996885","kind":"volcano","name":"Кетой","lat":47.3373256,"lon":152.4359222,"elevationM":1172},{"id":"node:11170072338","kind":"peak","name":"Серп","lat":47.7106197,"lon":152.9792395,"elevationM":495},{"id":"node:11170214878","kind":"peak","name":"Голая","lat":47.1021751,"lon":152.1590975,"elevationM":377},{"id":"node:11170225276","kind":"peak","name":"Оленья","lat":47.0341268,"lon":152.1057766,"elevationM":616}]}