{"tileKey":"la_p61_lo_p151","version":"v1-1775891056926","entries":[{"id":"node:9024059191","kind":"peak","name":"Нетчэн-Хая","lat":61.7524079,"lon":151.7435242,"elevationM":1487},{"id":"node:9024124758","kind":"peak","name":"Центральная","lat":61.3571524,"lon":151.8809132,"elevationM":1278},{"id":"node:10600811915","kind":"peak","name":"Умара","lat":61.6299502,"lon":151.4850296,"elevationM":1400},{"id":"node:10600811916","kind":"peak","name":"Хетинская","lat":61.6521985,"lon":151.0633777,"elevationM":2031},{"id":"node:10607524320","kind":"peak","name":"Медвежий","lat":61.2374103,"lon":151.7978082,"elevationM":1447},{"id":"node:11850252957","kind":"peak","name":"Хета","lat":61.0651766,"lon":151.5876559,"elevationM":1278},{"id":"node:13197912819","kind":"peak","name":"Белая","lat":61.129971,"lon":151.7948954,"elevationM":1170}]}