{"tileKey":"la_p51_lo_p179","version":"v1-1775891056926","entries":[{"id":"node:1020076779","kind":"volcano","name":"Mount Young","lat":51.9268081,"lon":179.5914394,"elevationM":774},{"id":"node:1020076827","kind":"volcano","name":"Anvil Peak","lat":51.9846698,"lon":179.6008808,"elevationM":1221},{"id":"node:1020076863","kind":"volcano","name":"Semisopochnoi Volcano","lat":51.935694,"lon":179.5856029,"elevationM":800},{"id":"node:1020076876","kind":"volcano","name":"Sugarloaf Peak","lat":51.8930267,"lon":179.6382944,"elevationM":855},{"id":"node:1020076908","kind":"peak","name":"Ragged Top","lat":51.92276,"lon":179.6846603,"elevationM":885},{"id":"node:1020076914","kind":"volcano","name":"Lakeshore Cone","lat":51.9680868,"lon":179.6740386,"elevationM":797},{"id":"node:11657336093","kind":"peak","name":"Threequarter Cone","lat":51.9472623,"lon":179.5586162,"elevationM":539},{"id":"node:13394352125","kind":"peak","name":"Perret Ridge","lat":51.970059,"lon":179.6687247,"elevationM":null}]}