{"tileKey":"la_p20_lo_m102","version":"v1-1775891056926","entries":[{"id":"node:4084353303","kind":"volcano","name":"Rincon de Parangueo","lat":20.4314662,"lon":-101.2487775,"elevationM":null},{"id":"node:4084358991","kind":"volcano","name":"Crater La Alberca","lat":20.3891285,"lon":-101.2013545,"elevationM":1859},{"id":"node:5825971625","kind":"peak","name":"Cerro Prieto de Uriangato","lat":20.1636126,"lon":-101.2084778,"elevationM":null},{"id":"node:5852372108","kind":"peak","name":"Cerro del Capulín Uriangato","lat":20.1648892,"lon":-101.1327574,"elevationM":null},{"id":"node:5852372109","kind":"peak","name":"Cerro del Comal Uriangato","lat":20.122121,"lon":-101.1347744,"elevationM":null},{"id":"node:6257075085","kind":"peak","name":"Cerro de la Bufa","lat":20.9929998,"lon":-101.2521789,"elevationM":null},{"id":"node:7696200819","kind":"peak","name":"Cerro Blanco de Uriangato","lat":20.1187269,"lon":-101.1037111,"elevationM":null},{"id":"node:10179194182","kind":"peak","name":"Cerrito del Diablo","lat":20.9681174,"lon":-101.5106018,"elevationM":null},{"id":"node:10261431461","kind":"peak","name":"LAS VIBORAS","lat":20.9704228,"lon":-101.3575069,"elevationM":null},{"id":"node:10283957716","kind":"peak","name":"LA CAMPANA","lat":20.9375162,"lon":-101.5265062,"elevationM":null},{"id":"node:11068091642","kind":"peak","name":"Cerro de San José","lat":20.9818531,"lon":-101.255026,"elevationM":2380},{"id":"node:12193695376","kind":"volcano","name":"Hoya de Cintora","lat":20.3564095,"lon":-101.213336,"elevationM":null}]}