{"tileKey":"la_p47_lo_p1","version":"v1-1775891056926","entries":[{"id":"node:9467912899","kind":"peak","name":"Butte à Sainton","lat":47.8320863,"lon":1.7218064,"elevationM":null},{"id":"node:9467938962","kind":"peak","name":"Butte d'Isy","lat":47.7691887,"lon":1.5168166,"elevationM":null},{"id":"node:9468177230","kind":"peak","name":"Le Mont d'Aunay","lat":47.6120047,"lon":1.9827679,"elevationM":141},{"id":"node:9468268632","kind":"peak","name":"Les Châtillons","lat":47.4452006,"lon":1.0710306,"elevationM":null},{"id":"node:9468295391","kind":"peak","name":"La Butte","lat":47.6252716,"lon":1.926257,"elevationM":136},{"id":"node:9468310380","kind":"peak","name":"Les Buttes","lat":47.5129621,"lon":1.8113531,"elevationM":99},{"id":"node:9468328844","kind":"peak","name":"Grand Peu","lat":47.5642394,"lon":1.8326773,"elevationM":126},{"id":"node:9468328845","kind":"peak","name":"Petit Peu","lat":47.566444,"lon":1.8425252,"elevationM":125},{"id":"node:9470833032","kind":"peak","name":"Le Tertre","lat":47.4058107,"lon":1.5180585,"elevationM":113},{"id":"node:9471478548","kind":"peak","name":"Le Tertre","lat":47.3514685,"lon":1.7887262,"elevationM":105},{"id":"node:9505151197","kind":"peak","name":"Les Buttes","lat":47.2555621,"lon":1.0146904,"elevationM":null},{"id":"node:12016657887","kind":"peak","name":"Le Mont Vansy","lat":47.9801857,"lon":1.7708489,"elevationM":129}]}