{"tileKey":"la_p18_lo_p42","version":"v1-1775891056926","entries":[{"id":"node:1236688823","kind":"peak","name":"جبل الحيلة","lat":18.5157284,"lon":42.0492434,"elevationM":null},{"id":"node:1237755104","kind":"peak","name":"جبل السوده","lat":18.2655929,"lon":42.3675594,"elevationM":2985},{"id":"node:1237960392","kind":"peak","name":"جبل ضمك","lat":18.1954665,"lon":42.7843996,"elevationM":2300},{"id":"node:1237960578","kind":"peak","name":"جبل لبيبا","lat":18.0275,"lon":42.032222,"elevationM":null},{"id":"node:3633221035","kind":"peak","name":"جبال السودة","lat":18.2927043,"lon":42.3610411,"elevationM":null},{"id":"node:6787292904","kind":"peak","name":"جبل الحيلة","lat":18.023415,"lon":42.092292,"elevationM":null},{"id":"node:6925257172","kind":"peak","name":"جبل صلب","lat":18.1175405,"lon":42.2821512,"elevationM":null},{"id":"node:6970756197","kind":"peak","name":"جبال نهب","lat":18.1766911,"lon":42.0098152,"elevationM":null},{"id":"node:8613171333","kind":"peak","name":"ربَّه","lat":18.7661491,"lon":42.7407474,"elevationM":null},{"id":"node:8613186275","kind":"peak","name":"ضور الضريسَه","lat":18.9473,"lon":42.9976807,"elevationM":null},{"id":"node:8615317964","kind":"peak","name":"جبال عدنه","lat":18.4210744,"lon":42.5973965,"elevationM":null},{"id":"node:8726272537","kind":"peak","name":"هضبة رزنة","lat":18.1572864,"lon":42.9021172,"elevationM":null},{"id":"node:8780365667","kind":"peak","name":"Soudah","lat":18.2753069,"lon":42.367068,"elevationM":3015},{"id":"node:8788737220","kind":"peak","name":"مدي","lat":18.2942371,"lon":42.0377235,"elevationM":null},{"id":"node:8918891371","kind":"peak","name":"جبل الصهلاء","lat":18.6995324,"lon":42.2299801,"elevationM":2837},{"id":"node:8918906609","kind":"peak","name":"منعاء","lat":18.9775822,"lon":42.1872994,"elevationM":2782},{"id":"node:8951985462","kind":"peak","name":"الغلفقه","lat":18.4304762,"lon":42.9300275,"elevationM":null},{"id":"node:8956480542","kind":"peak","name":"الصحن","lat":18.0417862,"lon":42.7980728,"elevationM":null},{"id":"node:8968269923","kind":"peak","name":"الغَبّر","lat":18.143707,"lon":42.8578591,"elevationM":null},{"id":"node:9039840194","kind":"peak","name":"حقو القرو","lat":18.4495606,"lon":42.0394305,"elevationM":null},{"id":"node:9039941372","kind":"peak","name":"صعبان","lat":18.3531069,"lon":42.0606748,"elevationM":null},{"id":"node:9039987276","kind":"peak","name":"المنيصبه","lat":18.3397522,"lon":42.0358734,"elevationM":null},{"id":"node:9055036722","kind":"peak","name":"فخر","lat":18.2910822,"lon":42.174082,"elevationM":null},{"id":"node:9055106925","kind":"peak","name":"لقمان","lat":18.7252026,"lon":42.1425171,"elevationM":null},{"id":"node:9100473260","kind":"peak","name":"تُوَسِّي","lat":18.6197573,"lon":42.7167808,"elevationM":null},{"id":"node:9100485458","kind":"peak","name":"إبن معيّد","lat":18.5825787,"lon":42.6831703,"elevationM":null},{"id":"node:9100490441","kind":"peak","name":"جبال الضغابيس","lat":18.5727768,"lon":42.7990036,"elevationM":null},{"id":"node:9100497129","kind":"peak","name":"أبو عصيدة","lat":18.6135426,"lon":42.7461166,"elevationM":null},{"id":"node:9100505585","kind":"peak","name":"البدوة","lat":18.617129,"lon":42.7537821,"elevationM":null},{"id":"node:9100529029","kind":"peak","name":"عِترية","lat":18.7341747,"lon":42.7096634,"elevationM":null},{"id":"node:9100584180","kind":"peak","name":"ضور المخنَّق","lat":18.6003761,"lon":42.6006889,"elevationM":null},{"id":"node:9104002674","kind":"peak","name":"جبال الكهف","lat":18.555843,"lon":42.8893973,"elevationM":null},{"id":"node:9104137008","kind":"peak","name":"الراكبة","lat":18.9492994,"lon":42.6640733,"elevationM":null},{"id":"node:9144507808","kind":"peak","name":"جبل المحالف","lat":18.3490083,"lon":42.3686672,"elevationM":2800},{"id":"node:9191237111","kind":"peak","name":"قَعَف","lat":18.0225391,"lon":42.8707924,"elevationM":null},{"id":"node:9379424481","kind":"peak","name":"هدّاجه","lat":18.9586141,"lon":42.9742763,"elevationM":null},{"id":"node:9395203758","kind":"peak","name":"القرحاء","lat":18.8895388,"lon":42.6595888,"elevationM":null},{"id":"node:9395234492","kind":"peak","name":"ضور المعزَب","lat":18.8354239,"lon":42.8396321,"elevationM":null},{"id":"node:9395243534","kind":"peak","name":"أم فرقين","lat":18.8736458,"lon":42.8335953,"elevationM":null},{"id":"node:9512828649","kind":"peak","name":"الغرمول","lat":18.6278934,"lon":42.5287819,"elevationM":null},{"id":"node:9512908195","kind":"peak","name":"ظُبي","lat":18.5347767,"lon":42.3784218,"elevationM":null},{"id":"node:9521390064","kind":"peak","name":"المنَقل","lat":18.5724474,"lon":42.4207756,"elevationM":null},{"id":"node:9521391250","kind":"peak","name":"العُعمار","lat":18.7050056,"lon":42.5282059,"elevationM":null},{"id":"node:9521398242","kind":"peak","name":"دمادم","lat":18.681943,"lon":42.3934228,"elevationM":null},{"id":"node:9521403837","kind":"peak","name":"الحمرا","lat":18.6694431,"lon":42.4230232,"elevationM":null},{"id":"node:9521429916","kind":"peak","name":"السُعيلية","lat":18.6166821,"lon":42.6043549,"elevationM":null},{"id":"node:9521469608","kind":"peak","name":"الحبَاء","lat":18.725996,"lon":42.5607758,"elevationM":null},{"id":"node:9521482653","kind":"peak","name":"عُوَيجان","lat":18.7159061,"lon":42.5551186,"elevationM":null},{"id":"node:9521490634","kind":"peak","name":"ضور بن عيسى","lat":18.5771008,"lon":42.6706467,"elevationM":null},{"id":"node:9524910539","kind":"peak","name":"المصْقع","lat":18.8557379,"lon":42.8360587,"elevationM":null},{"id":"node:9595709361","kind":"peak","name":"الجمرة","lat":18.835743,"lon":42.7951851,"elevationM":null},{"id":"node:9672729560","kind":"peak","name":"الصَرماء","lat":18.0195498,"lon":42.7215306,"elevationM":null},{"id":"node:9682370430","kind":"peak","name":"الشارة","lat":18.5427246,"lon":42.1374655,"elevationM":null},{"id":"node:9707717694","kind":"peak","name":"حلَوان","lat":18.0793144,"lon":42.4052273,"elevationM":null},{"id":"node:9757138967","kind":"peak","name":"ضور الجمرة","lat":18.8172239,"lon":42.7692872,"elevationM":null},{"id":"node:9757140325","kind":"peak","name":"عبل الجصة","lat":18.7713518,"lon":42.7530127,"elevationM":null},{"id":"node:9760911581","kind":"peak","name":"عرق الضعن","lat":18.5979263,"lon":42.6324214,"elevationM":null},{"id":"node:9789403921","kind":"peak","name":"المشرف","lat":18.3439844,"lon":42.3761417,"elevationM":null},{"id":"node:9794567132","kind":"peak","name":"عرف","lat":18.8206692,"lon":42.0470314,"elevationM":null},{"id":"node:9802219657","kind":"peak","name":"عِبَدا","lat":18.9441179,"lon":42.1756603,"elevationM":null},{"id":"node:9802263646","kind":"peak","name":"الثنايا","lat":18.9645596,"lon":42.1285166,"elevationM":null},{"id":"node:9802352695","kind":"peak","name":"أم قرن","lat":18.85304,"lon":42.02936,"elevationM":null},{"id":"node:9802394992","kind":"peak","name":"المكيمل","lat":18.845726,"lon":42.189733,"elevationM":null},{"id":"node:9802898876","kind":"peak","name":"الوصيل","lat":18.334423,"lon":42.6427446,"elevationM":null},{"id":"node:9802914995","kind":"peak","name":"المسلع","lat":18.5861045,"lon":42.6364621,"elevationM":null},{"id":"node:9803929318","kind":"peak","name":"مرثد","lat":18.646001,"lon":42.6414021,"elevationM":null},{"id":"node:9813114780","kind":"peak","name":"شيحاط","lat":18.6445599,"lon":42.8792,"elevationM":null},{"id":"node:9880114864","kind":"peak","name":"البدْلة","lat":18.239567,"lon":42.4350865,"elevationM":null},{"id":"node:10091220509","kind":"peak","name":"الأخذع","lat":18.8859062,"lon":42.0110227,"elevationM":null},{"id":"node:10118945331","kind":"peak","name":"الصُفر","lat":18.6697268,"lon":42.8904529,"elevationM":null},{"id":"node:10795929228","kind":"peak","name":"الحميِل","lat":18.8888342,"lon":42.7964246,"elevationM":null},{"id":"node:10878020544","kind":"peak","name":"غثير","lat":18.761043,"lon":42.8154915,"elevationM":null},{"id":"node:11311397318","kind":"peak","name":"عبدالله","lat":18.9517021,"lon":42.1521416,"elevationM":null},{"id":"node:11324748981","kind":"peak","name":"بلمعزاء","lat":18.8523879,"lon":42.5449128,"elevationM":null},{"id":"node:11870047991","kind":"peak","name":"جبل شاع","lat":18.7432443,"lon":42.8697039,"elevationM":null},{"id":"node:11870048431","kind":"peak","name":"الجبل الأبيض","lat":18.7609806,"lon":42.4691105,"elevationM":null},{"id":"node:11870232249","kind":"peak","name":"جبل بداع","lat":18.8274839,"lon":42.0121451,"elevationM":null},{"id":"node:11870238415","kind":"peak","name":"جبل عرمز","lat":18.5733064,"lon":42.1151403,"elevationM":null},{"id":"node:11870240997","kind":"peak","name":"جبل مير","lat":18.1150776,"lon":42.5835275,"elevationM":null},{"id":"node:11870275385","kind":"peak","name":"جبل القرن","lat":18.3988228,"lon":42.9052764,"elevationM":null},{"id":"node:11870737900","kind":"peak","name":"جبل قارض","lat":18.3860788,"lon":42.6667671,"elevationM":null},{"id":"node:11870738554","kind":"peak","name":"جبل آية","lat":18.8512643,"lon":42.2794727,"elevationM":null},{"id":"node:11870950414","kind":"peak","name":"جبل سليعة","lat":18.7614494,"lon":42.0400615,"elevationM":null},{"id":"node:11871306293","kind":"peak","name":"جبل سلب","lat":18.1391976,"lon":42.2065087,"elevationM":null},{"id":"node:11871306551","kind":"peak","name":"جبل حضحض","lat":18.0190025,"lon":42.1786416,"elevationM":null},{"id":"node:11871306661","kind":"peak","name":"جبل بركوك","lat":18.7884675,"lon":42.1001704,"elevationM":null},{"id":"node:11871306884","kind":"peak","name":"جبل حمومة","lat":18.2021685,"lon":42.8346698,"elevationM":null},{"id":"node:11871651989","kind":"peak","name":"هريان","lat":18.6417881,"lon":42.1974957,"elevationM":null},{"id":"node:11871652506","kind":"peak","name":"جبال صِهلِل","lat":18.0594408,"lon":42.8957812,"elevationM":null},{"id":"node:11871768164","kind":"peak","name":"جبل أثرب","lat":18.9722629,"lon":42.015151,"elevationM":null},{"id":"node:11871883769","kind":"peak","name":"جبل ضهياء","lat":18.8843861,"lon":42.5184251,"elevationM":null},{"id":"node:11932202830","kind":"peak","name":"هضيبة بن شرهان","lat":18.7791923,"lon":42.8289171,"elevationM":null},{"id":"node:11933150505","kind":"peak","name":"كنَّى","lat":18.8180694,"lon":42.7191484,"elevationM":null},{"id":"node:12049414595","kind":"peak","name":"راكبة العطيفة","lat":18.9241706,"lon":42.7296138,"elevationM":null},{"id":"node:12855534144","kind":"peak","name":"رمانة","lat":18.3916616,"lon":42.8965287,"elevationM":null},{"id":"node:12855582706","kind":"peak","name":"قنة المشقوق","lat":18.3091515,"lon":42.9990315,"elevationM":null},{"id":"node:12861799860","kind":"peak","name":"قمع الحامضة","lat":18.659034,"lon":42.1213889,"elevationM":null}]}