{"tileKey":"la_p21_lo_p37","version":"v1-1775891056926","entries":[{"id":"node:7731289246","kind":"peak","name":"Jabal Amāwēb","lat":21.2571,"lon":37.0149,"elevationM":null},{"id":"node:7731289251","kind":"peak","name":"Jabal Kalāl Awēb","lat":21.0313,"lon":37.2807,"elevationM":null},{"id":"node:7731290039","kind":"peak","name":"Jabal Abū Shajarah","lat":21.033333,"lon":37.233333,"elevationM":null},{"id":"node:7731290042","kind":"peak","name":"Jabal Hamamit","lat":21.3,"lon":37.066667,"elevationM":null},{"id":"node:7731290065","kind":"peak","name":"Jebel Hokeb","lat":21.016667,"lon":37.016667,"elevationM":null},{"id":"node:7731291660","kind":"peak","name":"جبال تميكيت","lat":21.3539,"lon":37.002,"elevationM":null},{"id":"node:7731291661","kind":"peak","name":"Jibāl Lāwēb","lat":21.377,"lon":37.0113,"elevationM":null},{"id":"node:7731291678","kind":"peak","name":"جبل مغأد","lat":21.0864,"lon":37.1078,"elevationM":null},{"id":"node:7731293135","kind":"peak","name":"Jabal Tītāwēb","lat":21.169,"lon":37.1912,"elevationM":null}]}