{"tileKey":"la_p40_lo_p17","version":"v1-1775891056926","entries":[{"id":"node:1865605912","kind":"peak","name":"Monteferraro","lat":40.9147028,"lon":17.0617186,"elevationM":280},{"id":"node:3089162587","kind":"peak","name":"Monte dei Diavoli","lat":40.3438279,"lon":17.6692805,"elevationM":117},{"id":"node:3469787516","kind":"peak","name":"Monte dell'Olmo","lat":40.6597999,"lon":17.4422739,"elevationM":371},{"id":"node:3469787517","kind":"peak","name":"Monte d'Oro","lat":40.6798392,"lon":17.4222721,"elevationM":375},{"id":"node:3472995608","kind":"peak","name":"Monte Calvo","lat":40.6555635,"lon":17.5647121,"elevationM":233},{"id":"node:3993419451","kind":"peak","name":"Monte Sant'Elia","lat":40.6523901,"lon":17.1127431,"elevationM":450},{"id":"node:4924208188","kind":"peak","name":"monte ciminiello","lat":40.4888635,"lon":17.5865,"elevationM":null},{"id":"node:5510169329","kind":"peak","name":"bagnolo","lat":40.3539591,"lon":17.5831255,"elevationM":null},{"id":"node:5555314741","kind":"peak","name":"Montecalvo","lat":40.8199799,"lon":17.0682494,"elevationM":402},{"id":"node:5555319786","kind":"peak","name":"Monte Cucco","lat":40.8150989,"lon":17.0273448,"elevationM":367},{"id":"node:5792637769","kind":"peak","name":"Monte Angiulli","lat":40.719104,"lon":17.0630987,"elevationM":440},{"id":"node:5792637966","kind":"peak","name":"Monte Imperatore","lat":40.7246631,"lon":17.0490817,"elevationM":431},{"id":"node:5955758085","kind":"peak","name":"Monte Serio","lat":40.8177298,"lon":17.1504673,"elevationM":441},{"id":"node:5955758099","kind":"peak","name":"Monte Orsetti","lat":40.67692,"lon":17.0888993,"elevationM":461},{"id":"node:5955758861","kind":"peak","name":"Monte Carello","lat":40.7644196,"lon":17.2003247,"elevationM":470},{"id":"node:5962093280","kind":"peak","name":"Monte Casarone","lat":40.6869027,"lon":17.6146245,"elevationM":191},{"id":"node:5962093281","kind":"peak","name":"Monte Torto","lat":40.6985029,"lon":17.6016748,"elevationM":219},{"id":"node:5962093282","kind":"peak","name":"Monte Caruso","lat":40.7094667,"lon":17.6115346,"elevationM":218},{"id":"node:5962093283","kind":"peak","name":"Monte la Corfergola","lat":40.7161027,"lon":17.6128757,"elevationM":216},{"id":"node:5962093284","kind":"peak","name":"Monte La Concezione","lat":40.7299911,"lon":17.6115645,"elevationM":202},{"id":"node:5962093785","kind":"peak","name":"Monte Trazzonara","lat":40.6245963,"lon":17.3924732,"elevationM":425},{"id":"node:5962093786","kind":"peak","name":"Monte Papa Ciro","lat":40.6143189,"lon":17.3731935,"elevationM":366},{"id":"node:5962093787","kind":"peak","name":"Monte Piccoli","lat":40.611672,"lon":17.3260081,"elevationM":294},{"id":"node:5962093788","kind":"peak","name":"Monte Basile","lat":40.6303451,"lon":17.3019004,"elevationM":426},{"id":"node:5962093789","kind":"peak","name":"Monte Piantella","lat":40.7567256,"lon":17.466985,"elevationM":333},{"id":"node:5962093790","kind":"peak","name":"Monte le Fergole","lat":40.7588792,"lon":17.4582195,"elevationM":341},{"id":"node:5962093791","kind":"peak","name":"Monte Pizzuto","lat":40.7790629,"lon":17.4271059,"elevationM":372},{"id":"node:5962093792","kind":"peak","name":"Monte Giannecchia","lat":40.7831411,"lon":17.4129009,"elevationM":381},{"id":"node:5962093793","kind":"peak","name":"Monte Signora Pulita","lat":40.7862768,"lon":17.3865294,"elevationM":400},{"id":"node:5962093794","kind":"peak","name":"Monte Rizzo","lat":40.7857081,"lon":17.3773885,"elevationM":400},{"id":"node:5962093795","kind":"peak","name":"Monte Castel Pagano","lat":40.730828,"lon":17.395767,"elevationM":366},{"id":"node:5962093796","kind":"peak","name":"Monticello","lat":40.6850803,"lon":17.3855531,"elevationM":407},{"id":"node:5962093797","kind":"peak","name":"Monte Paretone","lat":40.684283,"lon":17.3725927,"elevationM":430},{"id":"node:5962093798","kind":"peak","name":"Corno della Strega","lat":40.6581863,"lon":17.1777677,"elevationM":435},{"id":"node:5962093799","kind":"peak","name":"Monte Scopa","lat":40.8392362,"lon":17.2414112,"elevationM":376},{"id":"node:5962093800","kind":"peak","name":"Monte Tondo","lat":40.8092132,"lon":17.2938108,"elevationM":400},{"id":"node:5962093801","kind":"peak","name":"Monte del Sale","lat":40.804227,"lon":17.2297382,"elevationM":426},{"id":"node:5964915934","kind":"peak","name":"Monte San Nicola","lat":40.8952189,"lon":17.2839618,"elevationM":290},{"id":"node:6849389233","kind":"peak","name":"Monte Masciulo","lat":40.3417026,"lon":17.5396322,"elevationM":null},{"id":"node:6849407165","kind":"peak","name":"Monte Magalastro","lat":40.3751075,"lon":17.5126922,"elevationM":null},{"id":"node:7593470094","kind":"peak","name":"Monte Fellone","lat":40.5929651,"lon":17.4567926,"elevationM":400},{"id":"node:11392366859","kind":"peak","name":"Decollo MB","lat":40.8556475,"lon":17.3041649,"elevationM":null}]}