{"tileKey":"la_p20_lo_m99","version":"v1-1775891056926","entries":[{"id":"node:6089243281","kind":"peak","name":"Cerro del Tezontle","lat":20.0807424,"lon":-98.3613356,"elevationM":2200},{"id":"node:6316769936","kind":"peak","name":"Los Frailes","lat":20.2282033,"lon":-98.8540059,"elevationM":null},{"id":"node:6321411891","kind":"peak","name":"Peñas Las Ventanas","lat":20.1850981,"lon":-98.7349789,"elevationM":3035},{"id":"node:6396452026","kind":"peak","name":"Cerro La Cantera","lat":20.1899695,"lon":-98.9173954,"elevationM":2495},{"id":"node:6399636000","kind":"peak","name":"VIVORILLAS","lat":20.164089,"lon":-98.9835242,"elevationM":null},{"id":"node:6399636001","kind":"peak","name":"LA BANDERA","lat":20.1842101,"lon":-98.9891675,"elevationM":null},{"id":"node:6401239580","kind":"peak","name":"EL PILON","lat":20.1735686,"lon":-98.9693256,"elevationM":null},{"id":"node:6417186581","kind":"peak","name":"Cerro de la Cruz Alta","lat":20.1653054,"lon":-98.8555723,"elevationM":null},{"id":"node:6476292817","kind":"peak","name":"Peña de Coyula","lat":20.9210224,"lon":-98.4721085,"elevationM":null},{"id":"node:6481076903","kind":"peak","name":"Cerro de la Aguja","lat":20.8778974,"lon":-98.593487,"elevationM":null},{"id":"node:6512287298","kind":"peak","name":"Cerro Verde","lat":20.0527169,"lon":-98.2825453,"elevationM":2563},{"id":"node:6512297708","kind":"peak","name":"Cerro El Yolo","lat":20.0881054,"lon":-98.2790727,"elevationM":2760},{"id":"node:6603996535","kind":"peak","name":"Cerro del Agua Fría","lat":20.74166,"lon":-98.7696591,"elevationM":2610},{"id":"node:6612293131","kind":"peak","name":"Lomas los Montieles","lat":20.0024242,"lon":-98.6849334,"elevationM":2507},{"id":"node:6612918226","kind":"peak","name":"El Balcón","lat":20.0868431,"lon":-98.6377039,"elevationM":2776},{"id":"node:6612918230","kind":"peak","name":"Cerro La Tejolota","lat":20.1020222,"lon":-98.662466,"elevationM":3019},{"id":"node:6617556411","kind":"peak","name":"Cerro Grande","lat":20.0379117,"lon":-98.6485055,"elevationM":2666},{"id":"node:6617556412","kind":"peak","name":"Tezontle","lat":20.0349483,"lon":-98.6384418,"elevationM":2577},{"id":"node:6635728957","kind":"peak","name":"La Mesa","lat":20.0691163,"lon":-98.5899039,"elevationM":2864},{"id":"node:6635794584","kind":"peak","name":"El Tanque","lat":20.0896822,"lon":-98.6063922,"elevationM":2761},{"id":"node:6635798412","kind":"peak","name":"El Aire","lat":20.1047635,"lon":-98.6112891,"elevationM":2880},{"id":"node:6856176350","kind":"peak","name":"INDIANILLA","lat":20.0998974,"lon":-98.9445443,"elevationM":null},{"id":"node:6856176351","kind":"peak","name":"CHINIGA","lat":20.1368416,"lon":-98.926843,"elevationM":null},{"id":"node:6856176352","kind":"peak","name":"PEROTE","lat":20.1394805,"lon":-98.9189656,"elevationM":null},{"id":"node:6856176353","kind":"peak","name":"LOS MUERTOS","lat":20.1408105,"lon":-98.9127782,"elevationM":null},{"id":"node:6856176354","kind":"peak","name":"EL LEON","lat":20.145634,"lon":-98.8990072,"elevationM":null},{"id":"node:6856176355","kind":"peak","name":"LA MESA REDONDA","lat":20.0844139,"lon":-98.9470808,"elevationM":null},{"id":"node:6856176356","kind":"peak","name":"CERRO COLORADO","lat":20.0647694,"lon":-98.9529112,"elevationM":null},{"id":"node:6856176357","kind":"peak","name":"EL RAMILLETE","lat":20.0644052,"lon":-98.9659852,"elevationM":null},{"id":"node:6856176358","kind":"peak","name":"Catarina","lat":20.0645529,"lon":-98.9937245,"elevationM":null},{"id":"node:6856176359","kind":"peak","name":"El Caracol","lat":20.070964,"lon":-98.9918963,"elevationM":null},{"id":"node:6856176360","kind":"peak","name":"La Mesa","lat":20.0881269,"lon":-98.9997581,"elevationM":null},{"id":"node:6856211628","kind":"peak","name":"EL GANI","lat":20.1005949,"lon":-98.9353501,"elevationM":null},{"id":"node:6856211629","kind":"peak","name":"EL COMITE","lat":20.0926977,"lon":-98.9269552,"elevationM":null},{"id":"node:6856211630","kind":"peak","name":"EL CERRO ALTO","lat":20.0797337,"lon":-98.9318906,"elevationM":null},{"id":"node:6856211631","kind":"peak","name":"LA CALABACILLA","lat":20.0955553,"lon":-98.9144339,"elevationM":null},{"id":"node:6856211632","kind":"peak","name":"CERRO VIEJO","lat":20.1044317,"lon":-98.9263144,"elevationM":null},{"id":"node:6856211633","kind":"peak","name":"EL ZAPOTE","lat":20.0947132,"lon":-98.9440977,"elevationM":null},{"id":"node:6858704166","kind":"peak","name":"Cerro Gordo","lat":20.0707483,"lon":-98.863691,"elevationM":2724},{"id":"node:6858704167","kind":"peak","name":"Cerro Grande","lat":20.084473,"lon":-98.8602363,"elevationM":2853},{"id":"node:6903834191","kind":"peak","name":"LAS SABILAS","lat":20.082136,"lon":-98.9251439,"elevationM":null},{"id":"node:6903834192","kind":"peak","name":"PEÑAS DEL ZORRILLO","lat":20.0736092,"lon":-98.9242285,"elevationM":null},{"id":"node:6903834193","kind":"peak","name":"MESA DEL CORONEO","lat":20.0498584,"lon":-98.9427656,"elevationM":null},{"id":"node:6903834194","kind":"peak","name":"LA VACA","lat":20.0119743,"lon":-98.9341324,"elevationM":null},{"id":"node:6903849273","kind":"peak","name":"LA CRUZ","lat":20.1774577,"lon":-98.9583327,"elevationM":null},{"id":"node:7438961026","kind":"peak","name":"La Muela","lat":20.2019775,"lon":-98.7122557,"elevationM":null},{"id":"node:8252459419","kind":"peak","name":"Peñas Cargadas","lat":20.1129977,"lon":-98.6260529,"elevationM":2903},{"id":"node:8258492298","kind":"peak","name":"Cerro Tepenacasco","lat":20.1258719,"lon":-98.4316736,"elevationM":2244},{"id":"node:8258492299","kind":"peak","name":"Cerro Aguatepec","lat":20.1841354,"lon":-98.4858384,"elevationM":2311},{"id":"node:8282297201","kind":"peak","name":"El Campanario","lat":20.0082327,"lon":-98.3814501,"elevationM":2490},{"id":"node:8328770589","kind":"peak","name":"Cerro La Esperanza","lat":20.0848614,"lon":-98.328332,"elevationM":2484},{"id":"node:8328770590","kind":"peak","name":"Cerro Napateco","lat":20.135847,"lon":-98.3219843,"elevationM":2666},{"id":"node:8328770591","kind":"peak","name":"Loma Chica","lat":20.1016718,"lon":-98.4835938,"elevationM":2589},{"id":"node:8328770592","kind":"peak","name":"Loma Larga","lat":20.1077178,"lon":-98.4625112,"elevationM":2412},{"id":"node:8439464975","kind":"peak","name":"Cerro Flojo","lat":20.282789,"lon":-98.2414232,"elevationM":2298},{"id":"node:8439526874","kind":"peak","name":"El Voladero","lat":20.1191043,"lon":-98.6167438,"elevationM":2994},{"id":"node:8439526875","kind":"peak","name":"El Castillo","lat":20.0857618,"lon":-98.6149557,"elevationM":2709},{"id":"node:8439526876","kind":"peak","name":"Las Colmenas","lat":20.0852933,"lon":-98.6720582,"elevationM":2651},{"id":"node:8439526877","kind":"peak","name":"La Sotolera","lat":20.0862073,"lon":-98.6890887,"elevationM":2668},{"id":"node:8439526878","kind":"peak","name":"La Crucita","lat":20.0895709,"lon":-98.6845289,"elevationM":2675},{"id":"node:8439526879","kind":"peak","name":"Cerro Grande","lat":20.0988415,"lon":-98.6718775,"elevationM":2892},{"id":"node:8439526880","kind":"peak","name":"La Loma","lat":20.1090104,"lon":-98.6655746,"elevationM":2869},{"id":"node:8439526881","kind":"peak","name":"Ahuizote","lat":20.117473,"lon":-98.6659769,"elevationM":3026},{"id":"node:8439526882","kind":"peak","name":"La Cantera","lat":20.1208982,"lon":-98.6683373,"elevationM":2952},{"id":"node:8439526883","kind":"peak","name":"El Águila","lat":20.1175989,"lon":-98.6514125,"elevationM":2995},{"id":"node:8439526884","kind":"peak","name":"El Picacho","lat":20.1156426,"lon":-98.6427465,"elevationM":2992},{"id":"node:8439526885","kind":"peak","name":"Cerro Las Quebrachas","lat":20.1319827,"lon":-98.6840132,"elevationM":2938},{"id":"node:8439553556","kind":"peak","name":"Cerro Pelado","lat":20.0838317,"lon":-98.550199,"elevationM":3152},{"id":"node:8443067202","kind":"peak","name":"La Paila","lat":20.0377971,"lon":-98.5090091,"elevationM":2647},{"id":"node:8443067203","kind":"peak","name":"Molcajete","lat":20.0266894,"lon":-98.5305315,"elevationM":2684},{"id":"node:8443067204","kind":"peak","name":"La Cantera","lat":20.0238035,"lon":-98.5392259,"elevationM":2809},{"id":"node:8443067205","kind":"peak","name":"El Varal","lat":20.0123259,"lon":-98.53494,"elevationM":2823},{"id":"node:8443067206","kind":"peak","name":"Cuyamaloya","lat":20.0331079,"lon":-98.5340544,"elevationM":2574},{"id":"node:8562190587","kind":"peak","name":"Cerro Jaguey Chico","lat":20.1197274,"lon":-98.3583045,"elevationM":2338},{"id":"node:8564454069","kind":"peak","name":"Cerro Los Ermitaños","lat":20.0876716,"lon":-98.2919989,"elevationM":2681},{"id":"node:8592654279","kind":"peak","name":"Cerro Toxtla","lat":20.2629326,"lon":-98.1786166,"elevationM":1887},{"id":"node:8592654281","kind":"peak","name":"Cerro Xocotepec","lat":20.1352907,"lon":-98.2724134,"elevationM":2439},{"id":"node:8595628609","kind":"peak","name":"Cerro La Cumbre","lat":20.0889445,"lon":-98.2552769,"elevationM":2625},{"id":"node:8620168506","kind":"peak","name":"Cerro El Molino","lat":20.1468381,"lon":-98.1316999,"elevationM":2311},{"id":"node:8627581361","kind":"peak","name":"El Chilelete","lat":20.0268166,"lon":-98.6903256,"elevationM":2570},{"id":"node:8629305528","kind":"peak","name":"Cerro de Santa Gertrudis","lat":20.0895774,"lon":-98.8129719,"elevationM":2571},{"id":"node:8629305529","kind":"peak","name":"Cerro de Pitayas","lat":20.0680463,"lon":-98.8046589,"elevationM":2430},{"id":"node:8691871586","kind":"peak","name":"Las Navajas","lat":20.0843107,"lon":-98.5508898,"elevationM":3143},{"id":"node:8691871587","kind":"peak","name":"El Milagro","lat":20.0956421,"lon":-98.5237422,"elevationM":2993},{"id":"node:8691871588","kind":"peak","name":"La Providencia","lat":20.1052579,"lon":-98.5134717,"elevationM":2995},{"id":"node:8691871589","kind":"peak","name":"Cerro Prieto","lat":20.13525,"lon":-98.490251,"elevationM":2565},{"id":"node:8691871590","kind":"peak","name":"Encinal","lat":20.1335833,"lon":-98.5347037,"elevationM":2742},{"id":"node:8691871591","kind":"peak","name":"El Horcón","lat":20.1188947,"lon":-98.5488809,"elevationM":2923},{"id":"node:8692021027","kind":"peak","name":"Cerro Cubitos","lat":20.106632,"lon":-98.7372092,"elevationM":2590},{"id":"node:8692021028","kind":"peak","name":"Cerro Saucillo","lat":20.1025055,"lon":-98.7324529,"elevationM":2610},{"id":"node:8695237908","kind":"peak","name":"Cerro Pelón","lat":20.0133447,"lon":-98.56163,"elevationM":2805},{"id":"node:8751366426","kind":"peak","name":"El Gallo","lat":20.1898105,"lon":-98.6182058,"elevationM":2597},{"id":"node:8751366427","kind":"peak","name":"Cerro Gordo","lat":20.1627691,"lon":-98.6015387,"elevationM":2766},{"id":"node:8751366428","kind":"peak","name":"Cerro Tepezalá","lat":20.1843803,"lon":-98.5519902,"elevationM":2220},{"id":"node:8751366429","kind":"peak","name":"Cerro Verde","lat":20.173499,"lon":-98.5328759,"elevationM":2345},{"id":"node:8829916637","kind":"peak","name":"Cerro del Huixmí","lat":20.0714543,"lon":-98.8381084,"elevationM":2613},{"id":"node:8829916638","kind":"peak","name":"Cerro de San Pedro Nopancalco","lat":20.0904847,"lon":-98.794232,"elevationM":2459},{"id":"node:8829916639","kind":"peak","name":"Cerro del Tablón","lat":20.0882361,"lon":-98.8278598,"elevationM":2643},{"id":"node:8829928679","kind":"peak","name":"Cerro del Arco","lat":20.0782191,"lon":-98.8482466,"elevationM":2715},{"id":"node:8829928680","kind":"peak","name":"Cerro Guerra","lat":20.1180626,"lon":-98.8543308,"elevationM":2623},{"id":"node:8829928681","kind":"peak","name":"Cerro de Tlapacoya","lat":20.1124622,"lon":-98.8361939,"elevationM":2568},{"id":"node:8829955309","kind":"peak","name":"Cerro del Niño","lat":20.0946764,"lon":-98.8460235,"elevationM":2757},{"id":"node:8829955310","kind":"peak","name":"Cerro la Bandera","lat":20.0885024,"lon":-98.8418651,"elevationM":2718},{"id":"node:8829955311","kind":"peak","name":"Cerro de Santa Matilde","lat":20.0427102,"lon":-98.8144908,"elevationM":2516},{"id":"node:8830914704","kind":"peak","name":"Cerro del Judío","lat":20.1343219,"lon":-98.8230198,"elevationM":null},{"id":"node:8830914705","kind":"peak","name":"Cerro Redondo","lat":20.1349223,"lon":-98.7878753,"elevationM":2742},{"id":"node:8830914706","kind":"peak","name":"Cerro de la Cruz","lat":20.1343026,"lon":-98.7601647,"elevationM":2620},{"id":"node:8830914707","kind":"peak","name":"Cerro Mogote","lat":20.1485451,"lon":-98.774136,"elevationM":2736},{"id":"node:8830914708","kind":"peak","name":"Cerro de Espíndola","lat":20.1465956,"lon":-98.7760704,"elevationM":2682},{"id":"node:8830914709","kind":"peak","name":"Cumbres de las Tres Marías","lat":20.150186,"lon":-98.7666992,"elevationM":null},{"id":"node:8830914710","kind":"peak","name":"Cerro de la Platosa","lat":20.1466532,"lon":-98.7546726,"elevationM":2950},{"id":"node:8830914711","kind":"peak","name":"Cerro del Confesor","lat":20.1614386,"lon":-98.7561612,"elevationM":2820},{"id":"node:8830914712","kind":"peak","name":"Cerro del Venado","lat":20.1712669,"lon":-98.7440755,"elevationM":3019},{"id":"node:8830914713","kind":"peak","name":"Cerro de la Cruz del Sotol","lat":20.1629074,"lon":-98.7484425,"elevationM":2870},{"id":"node:8830914714","kind":"peak","name":"Cerro de las Maravillas","lat":20.1430668,"lon":-98.7284399,"elevationM":2707},{"id":"node:8830951158","kind":"peak","name":"Cerro de San Cristóbal","lat":20.1423687,"lon":-98.7427044,"elevationM":2908},{"id":"node:8830951159","kind":"peak","name":"Cerro del Cuixi","lat":20.1309686,"lon":-98.737406,"elevationM":null},{"id":"node:8830983680","kind":"peak","name":"Cerro del Lobo","lat":20.123004,"lon":-98.7250614,"elevationM":2560},{"id":"node:8830983681","kind":"peak","name":"Cerro de Santa Apolonia","lat":20.128974,"lon":-98.722928,"elevationM":2737},{"id":"node:8830983682","kind":"peak","name":"Cerro de la Mesa","lat":20.1459558,"lon":-98.7187582,"elevationM":2689},{"id":"node:8830983683","kind":"peak","name":"La Peña","lat":20.1580448,"lon":-98.7277055,"elevationM":2787},{"id":"node:8830983684","kind":"peak","name":"Cerro del Bordo","lat":20.1475939,"lon":-98.7357423,"elevationM":2760},{"id":"node:8830983685","kind":"peak","name":"Cerro de las Brujas","lat":20.1277077,"lon":-98.7045084,"elevationM":2782},{"id":"node:8830983686","kind":"peak","name":"Cerro del Zopilote","lat":20.0895974,"lon":-98.7282056,"elevationM":2723},{"id":"node:8830983687","kind":"peak","name":"Cerro del Saucillo","lat":20.0756731,"lon":-98.720532,"elevationM":2522},{"id":"node:8832810186","kind":"peak","name":"Cerro Buenavista","lat":20.1738823,"lon":-98.7103437,"elevationM":3053},{"id":"node:8832810187","kind":"peak","name":"Cerro de las Palmas","lat":20.1665149,"lon":-98.7122241,"elevationM":3047},{"id":"node:8846242407","kind":"peak","name":"Monte Copado","lat":20.183664,"lon":-98.707278,"elevationM":3045},{"id":"node:8846242408","kind":"peak","name":"El Azúcar","lat":20.1866828,"lon":-98.7141703,"elevationM":3039},{"id":"node:8846332878","kind":"peak","name":"Peña León Alado","lat":20.1978369,"lon":-98.7431302,"elevationM":2871},{"id":"node:8846332879","kind":"peak","name":"Cerro Donuchi","lat":20.1935302,"lon":-98.7596584,"elevationM":3014},{"id":"node:8846332880","kind":"peak","name":"Cerro Revuelta de María Antonia","lat":20.2079957,"lon":-98.7106139,"elevationM":2917},{"id":"node:8846332881","kind":"peak","name":"Cerro Alto","lat":20.2163788,"lon":-98.7189599,"elevationM":2620},{"id":"node:8846332883","kind":"peak","name":"San Antonio","lat":20.2223345,"lon":-98.7417302,"elevationM":2463},{"id":"node:8846332884","kind":"peak","name":"La Mesa","lat":20.2284554,"lon":-98.7625012,"elevationM":2620},{"id":"node:8846332885","kind":"peak","name":"Las Mesillas","lat":20.2301668,"lon":-98.7807832,"elevationM":2885},{"id":"node:8846332886","kind":"peak","name":"Cerro Jazpes","lat":20.2338731,"lon":-98.7833623,"elevationM":2819},{"id":"node:8846332887","kind":"peak","name":"El Letrero","lat":20.2351527,"lon":-98.7883816,"elevationM":2743},{"id":"node:8846332888","kind":"peak","name":"Cerro Alto","lat":20.2369654,"lon":-98.7954844,"elevationM":2678},{"id":"node:8846332890","kind":"peak","name":"Peñas Las Monjas","lat":20.2076348,"lon":-98.7550576,"elevationM":2960},{"id":"node:8846332891","kind":"peak","name":"Peña de la Barbacoa","lat":20.191058,"lon":-98.7959377,"elevationM":2921},{"id":"node:8846332892","kind":"peak","name":"Cerro Peña Redonda","lat":20.179095,"lon":-98.7966887,"elevationM":2969},{"id":"node:8846332893","kind":"peak","name":"Cerro Peña Alta","lat":20.1833647,"lon":-98.7773983,"elevationM":3120},{"id":"node:8907849198","kind":"peak","name":"Cerro La Campana","lat":20.2128098,"lon":-98.2818897,"elevationM":2264},{"id":"node:8907849199","kind":"peak","name":"Cerro Zopilote","lat":20.2013095,"lon":-98.2568104,"elevationM":2296},{"id":"node:8907849200","kind":"peak","name":"Cerro Chalma","lat":20.2346138,"lon":-98.2689769,"elevationM":2360},{"id":"node:8907849201","kind":"peak","name":"Cerro Cuarco","lat":20.2934217,"lon":-98.2523407,"elevationM":2448},{"id":"node:8907849202","kind":"peak","name":"Cerro Estribo","lat":20.310551,"lon":-98.2533207,"elevationM":2440},{"id":"node:8907849203","kind":"peak","name":"Cerro Brujo","lat":20.3182976,"lon":-98.2312256,"elevationM":2236},{"id":"node:8907849204","kind":"peak","name":"Cerro Iglesia Vieja","lat":20.3122833,"lon":-98.2335206,"elevationM":2197},{"id":"node:8907849205","kind":"peak","name":"Cerro El Cirio","lat":20.3168586,"lon":-98.1980787,"elevationM":1968},{"id":"node:8907849206","kind":"peak","name":"Cerro Brujo","lat":20.3367811,"lon":-98.1815177,"elevationM":2142},{"id":"node:8907849207","kind":"peak","name":"Cerro Debosda","lat":20.3402542,"lon":-98.1584935,"elevationM":2053},{"id":"node:8907849208","kind":"peak","name":"Cerro La Cuchilla","lat":20.4013912,"lon":-98.1218602,"elevationM":1064},{"id":"node:8907849209","kind":"peak","name":"Cerro La Luna","lat":20.4526268,"lon":-98.0530019,"elevationM":1249},{"id":"node:8907849210","kind":"peak","name":"Cerro El Caliche","lat":20.5155454,"lon":-98.0541329,"elevationM":981},{"id":"node:8907849211","kind":"peak","name":"Cerro Palo Blanco","lat":20.510571,"lon":-98.0613941,"elevationM":979},{"id":"node:8907849212","kind":"peak","name":"Cerro San Esteban","lat":20.5360534,"lon":-98.0671062,"elevationM":1093},{"id":"node:9129637050","kind":"peak","name":"Mesa Cima de Togo","lat":20.0300239,"lon":-98.2196357,"elevationM":2549},{"id":"node:9146786268","kind":"peak","name":"Pico Ixcacuatitla","lat":20.9086176,"lon":-98.0306862,"elevationM":720},{"id":"node:9202835123","kind":"peak","name":"Cerro Chato","lat":20.1423223,"lon":-98.4900375,"elevationM":null},{"id":"node:9203563593","kind":"peak","name":"Cerro La Gruta","lat":20.4111353,"lon":-98.2087845,"elevationM":1587},{"id":"node:9203618338","kind":"peak","name":"Cerro Viejo","lat":20.3026179,"lon":-98.2944841,"elevationM":2750},{"id":"node:9203618339","kind":"peak","name":"Cerro Macho","lat":20.3712894,"lon":-98.2656019,"elevationM":1919},{"id":"node:9482669691","kind":"peak","name":"Mesa Chica","lat":20.0214701,"lon":-98.1812626,"elevationM":2559},{"id":"node:10112417296","kind":"peak","name":"Tompeatillo","lat":20.0157787,"lon":-98.6211557,"elevationM":2692},{"id":"node:10112417297","kind":"peak","name":"Picacho","lat":20.0216456,"lon":-98.6192674,"elevationM":2648},{"id":"node:10112417298","kind":"peak","name":"Tecolote","lat":20.0271091,"lon":-98.6146755,"elevationM":2680},{"id":"node:10112417299","kind":"peak","name":"Cerro Jalapilla","lat":20.0111414,"lon":-98.5914798,"elevationM":2742},{"id":"node:10112417300","kind":"peak","name":"Cerros Cuates","lat":20.0304524,"lon":-98.7008542,"elevationM":2416},{"id":"node:10652175201","kind":"peak","name":"Punta Airosa","lat":20.1425828,"lon":-98.8620594,"elevationM":null}]}