{"tileKey":"la_p12_lo_m8","version":"v1-1775891056926","entries":[{"id":"node:2521858794","kind":"peak","name":"Toubabougoukoulou","lat":12.4250129,"lon":-7.3511278,"elevationM":413},{"id":"node:8039080654","kind":"peak","name":"Sirabala","lat":12.8980965,"lon":-7.7957664,"elevationM":484},{"id":"node:8041710594","kind":"peak","name":"Koulikoro","lat":12.8796642,"lon":-7.5498683,"elevationM":390},{"id":"node:8041710809","kind":"peak","name":"Siratiguila","lat":12.8130459,"lon":-7.5097628,"elevationM":428},{"id":"node:8070746497","kind":"peak","name":"Djadjan","lat":12.4784726,"lon":-7.7299128,"elevationM":457},{"id":"node:8573909649","kind":"peak","name":"Kélé Koulou","lat":12.9309935,"lon":-7.618388,"elevationM":null},{"id":"node:10902254968","kind":"peak","name":"Dgila","lat":12.6143444,"lon":-7.3726898,"elevationM":510},{"id":"node:10902254996","kind":"peak","name":"Falako","lat":12.5523643,"lon":-7.3109036,"elevationM":398},{"id":"node:10902306491","kind":"peak","name":"Kouroukoroni","lat":12.1133518,"lon":-7.0296488,"elevationM":533}]}