{"tileKey":"la_p39_lo_m6","version":"v1-1775891056926","entries":[{"id":"node:26862670","kind":"peak","name":"Cervales","lat":39.5515079,"lon":-5.3043842,"elevationM":1441},{"id":"node:26864602","kind":"peak","name":"Riscos Altos","lat":39.5686567,"lon":-5.1722209,"elevationM":1324},{"id":"node:26865092","kind":"peak","name":"Villuercas","lat":39.4694467,"lon":-5.4026712,"elevationM":1595},{"id":"node:947067553","kind":"peak","name":"Pico Sierra de Viejas","lat":39.4893575,"lon":-5.3856955,"elevationM":1379},{"id":"node:948327319","kind":"peak","name":"Pico Miravete","lat":39.7135092,"lon":-5.7461705,"elevationM":839},{"id":"node:1241267290","kind":"peak","name":"Cerro del Pilancón","lat":39.2795776,"lon":-5.2489443,"elevationM":575},{"id":"node:1241272804","kind":"peak","name":"Cerro de la Barca;Barca","lat":39.0182895,"lon":-5.8048951,"elevationM":303},{"id":"node:1241273672","kind":"peak","name":"Cerro Casco","lat":39.015008,"lon":-5.7771816,"elevationM":277},{"id":"node:1241274539","kind":"peak","name":"Cerro Morra del Peco","lat":39.2872153,"lon":-5.2967027,"elevationM":551},{"id":"node:1241277273","kind":"peak","name":"Cerro de la Silla","lat":39.0307792,"lon":-5.779804,"elevationM":303},{"id":"node:1241281955","kind":"peak","name":"Cerro de los Cabos Negros","lat":39.1979187,"lon":-5.5451958,"elevationM":424},{"id":"node:1241288619","kind":"peak","name":"Cerro la Horca","lat":39.0615508,"lon":-5.8155447,"elevationM":384},{"id":"node:1241291287","kind":"peak","name":"Serrezuela","lat":39.0127133,"lon":-5.7610674,"elevationM":341},{"id":"node:1241293160","kind":"peak","name":"Perolito","lat":39.078156,"lon":-5.8688009,"elevationM":306},{"id":"node:1241301948","kind":"peak","name":"Cerro del Acebuchal","lat":39.024861,"lon":-5.7822887,"elevationM":341},{"id":"node:1241304389","kind":"peak","name":"Cerro de la Morra","lat":39.092562,"lon":-5.8474405,"elevationM":304},{"id":"node:1241305283","kind":"peak","name":"Morra de Vivares","lat":39.0728999,"lon":-5.8830079,"elevationM":327},{"id":"node:1241592888","kind":"peak","name":"Canchal de la Peñuela","lat":39.7027027,"lon":-5.7070219,"elevationM":729},{"id":"node:1241593190","kind":"peak","name":"Riofrío","lat":39.7177007,"lon":-5.7601743,"elevationM":774},{"id":"node:1241593208","kind":"peak","name":"Cerro Turma del Conejo","lat":39.8121638,"lon":-5.5682683,"elevationM":434},{"id":"node:1241593223","kind":"peak","name":"Cerro de Pozo Soso","lat":39.7152973,"lon":-5.9509193,"elevationM":459},{"id":"node:1241594871","kind":"peak","name":"Cabezo Manzanares","lat":39.8207698,"lon":-5.8561806,"elevationM":346},{"id":"node:1241594928","kind":"peak","name":"Cerro de los Borregos","lat":39.7610327,"lon":-5.7259738,"elevationM":378},{"id":"node:1241594961","kind":"peak","name":"Cerro Madroñal","lat":39.867746,"lon":-5.9656157,"elevationM":289},{"id":"node:1241595195","kind":"peak","name":"Cerro de las Navezuelas","lat":39.6827891,"lon":-5.6695596,"elevationM":855},{"id":"node:1241595214","kind":"peak","name":"Cerro Alto","lat":39.7024577,"lon":-5.8679784,"elevationM":462},{"id":"node:1241595261","kind":"peak","name":"Cerro Peral","lat":39.7138599,"lon":-5.53964,"elevationM":528},{"id":"node:1241595279","kind":"peak","name":"Las Zurraneras","lat":39.7902696,"lon":-5.5475175,"elevationM":434},{"id":"node:1241596311","kind":"peak","name":"Cerro Redondo","lat":39.7475102,"lon":-5.7446335,"elevationM":338},{"id":"node:1241596434","kind":"peak","name":"Cerro Granillo","lat":39.7646107,"lon":-5.7646068,"elevationM":336},{"id":"node:1241596827","kind":"peak","name":"Los Guijos","lat":39.7849343,"lon":-5.568487,"elevationM":468},{"id":"node:1241597782","kind":"peak","name":"Canchal del Rebozo","lat":39.7097431,"lon":-5.6061614,"elevationM":802},{"id":"node:1241597801","kind":"peak","name":"Cerro del Pimpollar Chico","lat":39.726125,"lon":-5.5356193,"elevationM":759},{"id":"node:1241597819","kind":"peak","name":"Cerro Verde","lat":39.8121336,"lon":-5.9119583,"elevationM":288},{"id":"node:1241597934","kind":"peak","name":"Cerro de la Alcornocosa","lat":39.788298,"lon":-5.773188,"elevationM":365},{"id":"node:1241597999","kind":"peak","name":"Cerro de la Atalaya","lat":39.7039782,"lon":-5.8983222,"elevationM":465},{"id":"node:1241598229","kind":"peak","name":"Cerro de la Aceña","lat":39.7816336,"lon":-5.6893535,"elevationM":322},{"id":"node:1241599285","kind":"peak","name":"La Cabeza","lat":39.8017555,"lon":-5.5512268,"elevationM":432},{"id":"node:1241599865","kind":"peak","name":"Risco Gordo","lat":39.6676115,"lon":-5.6779225,"elevationM":824},{"id":"node:1241600107","kind":"peak","name":"Loma Vega Fernández","lat":39.7401425,"lon":-5.8384354,"elevationM":397},{"id":"node:1241600181","kind":"peak","name":"Cancho Valdemortero","lat":39.7706692,"lon":-5.6965147,"elevationM":324},{"id":"node:1241600753","kind":"peak","name":"Cerro Pelado","lat":39.7082871,"lon":-5.5829759,"elevationM":533},{"id":"node:1241601095","kind":"peak","name":"Cerro del Hoyo","lat":39.7373408,"lon":-5.6480683,"elevationM":473},{"id":"node:1241601302","kind":"peak","name":"Cerro Caganido","lat":39.7058496,"lon":-5.7844405,"elevationM":737},{"id":"node:1241601364","kind":"peak","name":"Risco Camorro del Portezuelo","lat":39.6698492,"lon":-5.6015438,"elevationM":746},{"id":"node:1241601502","kind":"peak","name":"Canchal de la Cierva","lat":39.7100653,"lon":-5.7277328,"elevationM":738},{"id":"node:1241601561","kind":"peak","name":"Cancho de la Cabra","lat":39.8039137,"lon":-5.5614996,"elevationM":403},{"id":"node:1241602021","kind":"peak","name":"Cerro Molino","lat":39.7695286,"lon":-5.7258887,"elevationM":318},{"id":"node:1241602157","kind":"peak","name":"Risco Amarillo","lat":39.7986796,"lon":-5.532671,"elevationM":422},{"id":"node:1241603139","kind":"peak","name":"Cerro de las Veredas","lat":39.7720532,"lon":-5.5224564,"elevationM":405},{"id":"node:1241604085","kind":"peak","name":"Risco del Milanillo","lat":39.7682383,"lon":-5.6033074,"elevationM":647},{"id":"node:1241605950","kind":"peak","name":"Cerro de la Parrilla","lat":39.7001437,"lon":-5.6454962,"elevationM":777},{"id":"node:1241606029","kind":"peak","name":"Risco Gordo","lat":39.7695568,"lon":-5.6067674,"elevationM":624},{"id":"node:1241606184","kind":"peak","name":"Cerro del Frontón","lat":39.7502273,"lon":-5.8777734,"elevationM":476},{"id":"node:1241606287","kind":"peak","name":"Canchal del Yerbero","lat":39.7253974,"lon":-5.7593909,"elevationM":763},{"id":"node:1241606463","kind":"peak","name":"Cerro del Alto Majal","lat":39.7417803,"lon":-5.587608,"elevationM":504},{"id":"node:1241606503","kind":"peak","name":"Cancho Gordo","lat":39.7865962,"lon":-5.5369239,"elevationM":417},{"id":"node:1241606777","kind":"peak","name":"Jimona","lat":39.7335427,"lon":-5.7196681,"elevationM":442},{"id":"node:1241607033","kind":"peak","name":"Cancho del Fraile","lat":39.7987745,"lon":-5.5753659,"elevationM":417},{"id":"node:1241607054","kind":"peak","name":"Cerro del Barrerón","lat":39.7835919,"lon":-5.5903025,"elevationM":447},{"id":"node:1241608738","kind":"peak","name":"Cerro de la Olivilla","lat":39.692041,"lon":-5.5715247,"elevationM":711},{"id":"node:1241609085","kind":"peak","name":"El Cotorro","lat":39.7282097,"lon":-5.6866271,"elevationM":763},{"id":"node:1241609133","kind":"peak","name":"El Pibor","lat":39.8003679,"lon":-5.5290277,"elevationM":422},{"id":"node:1241610072","kind":"peak","name":"Canchera de Valdehierro","lat":39.7872019,"lon":-5.5728917,"elevationM":435},{"id":"node:1241610106","kind":"peak","name":"El Cornicabral","lat":39.8294427,"lon":-5.8670664,"elevationM":363},{"id":"node:1241610315","kind":"peak","name":"Cerro de la Aliseda","lat":39.7182452,"lon":-5.5822405,"elevationM":459},{"id":"node:1241610350","kind":"peak","name":"Canchos Blancos","lat":39.7879884,"lon":-5.5796403,"elevationM":447},{"id":"node:1241610353","kind":"peak","name":"Cerros de Tintera","lat":39.7389598,"lon":-5.5418716,"elevationM":497},{"id":"node:1241610856","kind":"peak","name":"Los Pertegones","lat":39.7557285,"lon":-5.8330914,"elevationM":576},{"id":"node:1241611103","kind":"peak","name":"Cerro de la Silleta Grande","lat":39.732513,"lon":-5.7916778,"elevationM":656},{"id":"node:1241612091","kind":"peak","name":"Morro Grande","lat":39.7122723,"lon":-5.8070581,"elevationM":546},{"id":"node:1241612272","kind":"peak","name":"Cerro Calero","lat":39.7657625,"lon":-5.6932979,"elevationM":381},{"id":"node:1241612382","kind":"peak","name":"Cabeza de Juan Martín","lat":39.7962789,"lon":-5.9977804,"elevationM":313},{"id":"node:1241613204","kind":"peak","name":"Cerro de Corralejos","lat":39.6919139,"lon":-5.8559592,"elevationM":537},{"id":"node:1241613457","kind":"peak","name":"Cerro de los Terragueros","lat":39.7811964,"lon":-5.6134731,"elevationM":397},{"id":"node:1241614548","kind":"peak","name":"Frontal I","lat":39.7050553,"lon":-5.7149728,"elevationM":713},{"id":"node:1241614597","kind":"peak","name":"Cerro de la Cabecilla","lat":39.7758689,"lon":-5.5265794,"elevationM":464},{"id":"node:1241615105","kind":"peak","name":"Cerro Mahillo","lat":39.7649019,"lon":-5.5969775,"elevationM":632},{"id":"node:1241615392","kind":"peak","name":"Cerro de la Varajudía","lat":39.7077587,"lon":-5.6560353,"elevationM":709},{"id":"node:1241615862","kind":"peak","name":"Cerro de las Moratas","lat":39.6971948,"lon":-5.7632116,"elevationM":622},{"id":"node:1241616115","kind":"peak","name":"Cancho del Portalón","lat":39.7263484,"lon":-5.7646575,"elevationM":746},{"id":"node:1241617078","kind":"peak","name":"Cerro de la Fuente","lat":39.7383275,"lon":-5.7020921,"elevationM":433},{"id":"node:1241617179","kind":"peak","name":"Cerro Castejón","lat":39.7831845,"lon":-5.7451786,"elevationM":293},{"id":"node:1241618154","kind":"peak","name":"Cerro Alto","lat":39.7658759,"lon":-5.9936575,"elevationM":340},{"id":"node:1241618773","kind":"peak","name":"Cerromolino","lat":39.7433859,"lon":-5.7188957,"elevationM":433},{"id":"node:1241619053","kind":"peak","name":"Frontal II","lat":39.6987977,"lon":-5.7106159,"elevationM":744},{"id":"node:1241619240","kind":"peak","name":"El Aeropuerto","lat":39.6807558,"lon":-5.6422244,"elevationM":824},{"id":"node:1241620945","kind":"peak","name":"Cerro del Castaño","lat":39.70327,"lon":-5.5931179,"elevationM":762},{"id":"node:1241622113","kind":"peak","name":"Morrón del Sevellar","lat":39.7132987,"lon":-5.8251943,"elevationM":532},{"id":"node:1241623150","kind":"peak","name":"Las Encrucijadas","lat":39.7303345,"lon":-5.7155579,"elevationM":437},{"id":"node:1241623317","kind":"peak","name":"El Acarreón","lat":39.6725327,"lon":-5.538145,"elevationM":776},{"id":"node:1241623364","kind":"peak","name":"Risco de la Junta","lat":39.8084372,"lon":-5.5571785,"elevationM":335},{"id":"node:1241624678","kind":"peak","name":"Cerro de la Lobera","lat":39.7999925,"lon":-5.5441513,"elevationM":381},{"id":"node:1241625484","kind":"peak","name":"Sevellares de la Paloma","lat":39.7244178,"lon":-5.8225835,"elevationM":433},{"id":"node:1241625870","kind":"peak","name":"Cerro Cártamo","lat":39.7145549,"lon":-5.7942273,"elevationM":539},{"id":"node:1241627867","kind":"peak","name":"El Quejigo","lat":39.825316,"lon":-5.9776417,"elevationM":381},{"id":"node:1241628120","kind":"peak","name":"Cerro del Águila","lat":39.7692988,"lon":-5.7566257,"elevationM":353},{"id":"node:1241630346","kind":"peak","name":"Cerro del Rano","lat":39.8199601,"lon":-5.910737,"elevationM":288},{"id":"node:1241630545","kind":"peak","name":"El Sierro","lat":39.7545094,"lon":-5.5554931,"elevationM":516},{"id":"node:1241630726","kind":"peak","name":"Cerro de la Silleta Chica","lat":39.7356114,"lon":-5.7988023,"elevationM":633},{"id":"node:1241630748","kind":"peak","name":"Cerro del Cesto","lat":39.7755422,"lon":-5.7341087,"elevationM":319},{"id":"node:1241632241","kind":"peak","name":"Cerro Horno de la Cal","lat":39.7369793,"lon":-5.7323129,"elevationM":394},{"id":"node:1241633183","kind":"peak","name":"Cerro de Valdezorreras","lat":39.747469,"lon":-5.6812077,"elevationM":401},{"id":"node:1241633213","kind":"peak","name":"Cerro de la Ermita","lat":39.7746653,"lon":-5.5918287,"elevationM":383},{"id":"node:1241634093","kind":"peak","name":"Cerro de las Lagunillas","lat":39.722758,"lon":-5.756989,"elevationM":768},{"id":"node:1241634756","kind":"peak","name":"Cantaelgallo","lat":39.7025351,"lon":-5.7794483,"elevationM":703},{"id":"node:1241634781","kind":"peak","name":"Cancho del Guarro","lat":39.8158306,"lon":-5.8288637,"elevationM":511},{"id":"node:1241635452","kind":"peak","name":"Cabezo Alto","lat":39.768377,"lon":-5.5386519,"elevationM":555},{"id":"node:1241636612","kind":"peak","name":"Morro Chico","lat":39.707565,"lon":-5.8046618,"elevationM":549},{"id":"node:1241636662","kind":"peak","name":"Cerro de la Cantera","lat":39.7516065,"lon":-5.7305791,"elevationM":457},{"id":"node:1241638578","kind":"peak","name":"Cerro de la Cabreriza","lat":39.8007235,"lon":-5.8621379,"elevationM":413},{"id":"node:1241640256","kind":"peak","name":"Cerro de los Morenos","lat":39.6955513,"lon":-5.7567785,"elevationM":619},{"id":"node:1241640596","kind":"peak","name":"Cerro del Tesoro","lat":39.7757988,"lon":-5.7100737,"elevationM":308},{"id":"node:1241640684","kind":"peak","name":"Alto de las Majadillas","lat":39.7039901,"lon":-5.601226,"elevationM":827},{"id":"node:1241641250","kind":"peak","name":"El Cabezo","lat":39.7417918,"lon":-5.7236049,"elevationM":437},{"id":"node:1241641972","kind":"peak","name":"Cabeza de la Bolona","lat":39.7296692,"lon":-5.8869661,"elevationM":466},{"id":"node:1241642428","kind":"peak","name":"Cerro Maluéñez","lat":39.7124694,"lon":-5.8412556,"elevationM":471},{"id":"node:1241642502","kind":"peak","name":"Cerro de la Peña","lat":39.6822606,"lon":-5.6236848,"elevationM":787},{"id":"node:1241642613","kind":"peak","name":"Cerro Jabalí","lat":39.7730938,"lon":-5.6235443,"elevationM":388},{"id":"node:1241643232","kind":"peak","name":"Valdeobispo Chico","lat":39.7770505,"lon":-5.6556813,"elevationM":381},{"id":"node:1241643255","kind":"peak","name":"Cerro de los Montesinos","lat":39.8116113,"lon":-5.8753736,"elevationM":378},{"id":"node:1241643313","kind":"peak","name":"La Jara","lat":39.8024369,"lon":-5.5928954,"elevationM":352},{"id":"node:1241643335","kind":"peak","name":"Cerro Aullador de Lobos","lat":39.7841557,"lon":-5.7799186,"elevationM":365},{"id":"node:1241644347","kind":"peak","name":"Cerro Lenguo","lat":39.7463999,"lon":-5.7529738,"elevationM":341},{"id":"node:1241646099","kind":"peak","name":"Las Almenillas","lat":39.7941138,"lon":-5.8683912,"elevationM":405},{"id":"node:1241646282","kind":"peak","name":"Cerro del Pimpollar Grande","lat":39.7220376,"lon":-5.522986,"elevationM":733},{"id":"node:1241647219","kind":"peak","name":"El Cabezo","lat":39.8272258,"lon":-5.8922561,"elevationM":339},{"id":"node:1241655213","kind":"peak","name":"Cerro del Rebozo","lat":39.7245975,"lon":-5.6829467,"elevationM":742},{"id":"node:1241655278","kind":"peak","name":"Cerro de Roble Vardera","lat":39.3586246,"lon":-5.6354479,"elevationM":954},{"id":"node:1241655412","kind":"peak","name":"Risco Gordo","lat":39.3692609,"lon":-5.3727992,"elevationM":841},{"id":"node:1241655434","kind":"peak","name":"Cerro Mirasivanse","lat":39.3575456,"lon":-5.5882072,"elevationM":659},{"id":"node:1241656013","kind":"peak","name":"Cerro del Zarzal","lat":39.4443847,"lon":-5.5817551,"elevationM":804},{"id":"node:1241656115","kind":"peak","name":"Risco de los Goterones","lat":39.5496798,"lon":-5.4110819,"elevationM":1139},{"id":"node:1241656233","kind":"peak","name":"Risco de Palancarejo","lat":39.5621663,"lon":-5.4561869,"elevationM":1184},{"id":"node:1241656335","kind":"peak","name":"Risco de la Majada Vieja","lat":39.5698106,"lon":-5.4277459,"elevationM":1058},{"id":"node:1241656477","kind":"peak","name":"Cuchillo del Romeral","lat":39.4668409,"lon":-5.1169974,"elevationM":587},{"id":"node:1241656482","kind":"peak","name":"Cerro de las Navezuelas","lat":39.7074212,"lon":-5.3894459,"elevationM":738},{"id":"node:1241656518","kind":"peak","name":"Cerro Cabezo","lat":39.6412562,"lon":-5.5164185,"elevationM":621},{"id":"node:1241656610","kind":"peak","name":"El Camorro","lat":39.5951087,"lon":-5.4897207,"elevationM":1009},{"id":"node:1241656661","kind":"peak","name":"Cerro Valhondo","lat":39.4383778,"lon":-5.5044368,"elevationM":837},{"id":"node:1241656662","kind":"peak","name":"El Castañarejo","lat":39.6146666,"lon":-5.3770564,"elevationM":1172},{"id":"node:1241656665","kind":"peak","name":"Cerro Pedrera de Rico Hoyo","lat":39.7158261,"lon":-5.6824334,"elevationM":695},{"id":"node:1241656692","kind":"peak","name":"Toconal de Arriba","lat":39.5405886,"lon":-5.5732475,"elevationM":552},{"id":"node:1241656791","kind":"peak","name":"Cerro del Fresno","lat":39.3850573,"lon":-5.5732957,"elevationM":1102},{"id":"node:1241656931","kind":"peak","name":"Cerro del Guijarral","lat":39.7351319,"lon":-5.6040794,"elevationM":419},{"id":"node:1241657658","kind":"peak","name":"El Horcado","lat":39.5436559,"lon":-5.4848853,"elevationM":1032},{"id":"node:1241657740","kind":"peak","name":"Cerro de la Mimbre","lat":39.7509534,"lon":-5.5153561,"elevationM":404},{"id":"node:1241657764","kind":"peak","name":"Cerro Cuclillo","lat":39.678388,"lon":-5.5029147,"elevationM":572},{"id":"node:1241657767","kind":"peak","name":"Alto de Matavacas","lat":39.3244097,"lon":-5.7074824,"elevationM":705},{"id":"node:1241657792","kind":"peak","name":"Cerro Buen Amigo","lat":39.5845956,"lon":-5.3045866,"elevationM":744},{"id":"node:1241657959","kind":"peak","name":"Cerro de Torreherrera","lat":39.476183,"lon":-5.7661998,"elevationM":631},{"id":"node:1241658003","kind":"peak","name":"Rincón de Arriba","lat":39.6476151,"lon":-5.4018525,"elevationM":911},{"id":"node:1241658159","kind":"peak","name":"Cerro del Arroyo Moral","lat":39.6852995,"lon":-5.4905663,"elevationM":563},{"id":"node:1241658276","kind":"peak","name":"Risco Viejo","lat":39.4191356,"lon":-5.4146902,"elevationM":1113},{"id":"node:1241658285","kind":"peak","name":"Cerro de Casasola","lat":39.6312535,"lon":-5.2795605,"elevationM":723},{"id":"node:1241658529","kind":"peak","name":"El Rosalejo","lat":39.4187226,"lon":-5.4678129,"elevationM":735},{"id":"node:1241658530","kind":"peak","name":"Cerro del Arrascadero","lat":39.5895277,"lon":-5.2309491,"elevationM":901},{"id":"node:1241658563","kind":"peak","name":"Cerro de Berezosa","lat":39.3771743,"lon":-5.6244766,"elevationM":823},{"id":"node:1241658735","kind":"peak","name":"Cerro de los Gatos","lat":39.4047987,"lon":-5.6244191,"elevationM":758},{"id":"node:1241658798","kind":"peak","name":"Navaldestajo","lat":39.5713128,"lon":-5.2393049,"elevationM":685},{"id":"node:1241658822","kind":"peak","name":"Cerro Lobera","lat":39.6960764,"lon":-5.5120357,"elevationM":575},{"id":"node:1241658828","kind":"peak","name":"El Endrinal","lat":39.6554605,"lon":-5.3553285,"elevationM":651},{"id":"node:1241658839","kind":"peak","name":"Cerro del Puerto","lat":39.3722627,"lon":-5.3267111,"elevationM":747},{"id":"node:1241658954","kind":"peak","name":"Cerro de la Breña","lat":39.4568812,"lon":-5.536012,"elevationM":713},{"id":"node:1241659037","kind":"peak","name":"Cerro de la Zorrera","lat":39.3648719,"lon":-5.5801733,"elevationM":709},{"id":"node:1241659084","kind":"peak","name":"Cerro de las Chozas","lat":39.6792743,"lon":-5.5237781,"elevationM":501},{"id":"node:1241659243","kind":"peak","name":"Cerro de los Lobos","lat":39.6242716,"lon":-5.3216172,"elevationM":662},{"id":"node:1241659440","kind":"peak","name":"Cerro del Castillejo","lat":39.1500351,"lon":-5.6681597,"elevationM":353},{"id":"node:1241659590","kind":"peak","name":"Malviento","lat":39.626848,"lon":-5.441445,"elevationM":611},{"id":"node:1241659614","kind":"peak","name":"Cerro del Retamar","lat":39.207238,"lon":-5.7455129,"elevationM":301},{"id":"node:1241659678","kind":"peak","name":"Risco Matacabras","lat":39.4217784,"lon":-5.4171418,"elevationM":1133},{"id":"node:1241659701","kind":"peak","name":"Cerro de las Cabrerizas","lat":39.3888088,"lon":-5.6069684,"elevationM":932},{"id":"node:1241659726","kind":"peak","name":"Cerro Callejón de Gil","lat":39.6082355,"lon":-5.3261041,"elevationM":798},{"id":"node:1241659778","kind":"peak","name":"Cerro Colorado","lat":39.6700257,"lon":-5.5326435,"elevationM":709},{"id":"node:1241659804","kind":"peak","name":"Cabecilla Baja","lat":39.7683826,"lon":-5.5055406,"elevationM":489},{"id":"node:1241659808","kind":"peak","name":"Cerro de los Linares","lat":39.651971,"lon":-5.6041344,"elevationM":633},{"id":"node:1241659942","kind":"peak","name":"Cerro de los Portugueses","lat":39.7211968,"lon":-5.6787207,"elevationM":718},{"id":"node:1241659977","kind":"peak","name":"Cerro de Hoya Loba","lat":39.6496226,"lon":-5.4927019,"elevationM":691},{"id":"node:1241660380","kind":"peak","name":"Risco de la Sierra","lat":39.5402862,"lon":-5.4089068,"elevationM":1239},{"id":"node:1241660594","kind":"peak","name":"Cerro Tomelloso","lat":39.3818213,"lon":-5.4032778,"elevationM":731},{"id":"node:1241660757","kind":"peak","name":"El Corchito","lat":39.6192233,"lon":-5.4710706,"elevationM":912},{"id":"node:1241660981","kind":"peak","name":"Cerro de la Breña","lat":39.7064122,"lon":-5.3648266,"elevationM":845},{"id":"node:1241661196","kind":"peak","name":"Cabeza Encinosa","lat":39.3579637,"lon":-5.5309261,"elevationM":605},{"id":"node:1241661203","kind":"peak","name":"Risco Redondo","lat":39.5510988,"lon":-5.4480753,"elevationM":1287},{"id":"node:1241661249","kind":"peak","name":"Cerro de Roblepimiento","lat":39.4277089,"lon":-5.6314016,"elevationM":721},{"id":"node:1241661444","kind":"peak","name":"Cerro Boceda","lat":39.6019222,"lon":-5.5399328,"elevationM":698},{"id":"node:1241661506","kind":"peak","name":"Cerro de la Cardosa","lat":39.4241597,"lon":-5.5335495,"elevationM":909},{"id":"node:1241661599","kind":"peak","name":"Cerro Fortificado","lat":39.5728575,"lon":-5.3388289,"elevationM":1283},{"id":"node:1241662183","kind":"peak","name":"Cerro de los Machos","lat":39.6705246,"lon":-5.4311569,"elevationM":796},{"id":"node:1241662191","kind":"peak","name":"Cerro de la Pedrera","lat":39.5250915,"lon":-5.4255684,"elevationM":1029},{"id":"node:1241662539","kind":"peak","name":"Cerro Perdiguero","lat":39.5663211,"lon":-5.2527438,"elevationM":669},{"id":"node:1241662545","kind":"peak","name":"Cerro de las Juntas","lat":39.6322494,"lon":-5.2953006,"elevationM":675},{"id":"node:1241662555","kind":"peak","name":"Risco de las Tres Lindes","lat":39.4434126,"lon":-5.4332321,"elevationM":1253},{"id":"node:1241662560","kind":"peak","name":"El Membrillo","lat":39.7497943,"lon":-5.5080822,"elevationM":415},{"id":"node:1241662704","kind":"peak","name":"Cerro de Vallinajarro","lat":39.4416906,"lon":-5.6845264,"elevationM":829},{"id":"node:1241662747","kind":"peak","name":"Cerro el Potrón","lat":39.344312,"lon":-5.570446,"elevationM":498},{"id":"node:1241662752","kind":"peak","name":"Cerro de los Piloncillos","lat":39.682511,"lon":-5.4492573,"elevationM":723},{"id":"node:1241662849","kind":"peak","name":"Cerro del Águila","lat":39.5813525,"lon":-5.2588898,"elevationM":695},{"id":"node:1241662913","kind":"peak","name":"Risco de la Reyerta","lat":39.6101391,"lon":-5.4883571,"elevationM":909},{"id":"node:1241662929","kind":"peak","name":"Cerro del Corono de Juana","lat":39.3709184,"lon":-5.547885,"elevationM":877},{"id":"node:1241662985","kind":"peak","name":"Risco del Telégrafo","lat":39.5503464,"lon":-5.302045,"elevationM":1431},{"id":"node:1241663001","kind":"peak","name":"Cancho de las Sábanas","lat":39.4424523,"lon":-5.4421841,"elevationM":1154},{"id":"node:1241663002","kind":"peak","name":"Risco de las Banderillas","lat":39.634788,"lon":-5.2587717,"elevationM":1001},{"id":"node:1241663027","kind":"peak","name":"Cerro de Cabeza Rebollosa","lat":39.5592193,"lon":-5.3505303,"elevationM":1014},{"id":"node:1241663055","kind":"peak","name":"Cerrón de la Hoya","lat":39.4099151,"lon":-5.686755,"elevationM":835},{"id":"node:1241663094","kind":"peak","name":"Cerro de Castillejo del Castañar","lat":39.6375312,"lon":-5.4157014,"elevationM":835},{"id":"node:1241663096","kind":"peak","name":"Cerro Mariante","lat":39.377436,"lon":-5.4671163,"elevationM":876},{"id":"node:1241663180","kind":"peak","name":"Cerro de las Higueras del Tío Cobres","lat":39.701867,"lon":-5.3579688,"elevationM":811},{"id":"node:1241663181","kind":"peak","name":"Cerro de Trujillo","lat":39.4444582,"lon":-5.7719504,"elevationM":679},{"id":"node:1241663232","kind":"peak","name":"Cerros del Picadero","lat":39.7173633,"lon":-5.6160701,"elevationM":606},{"id":"node:1241665398","kind":"peak","name":"Cerro de Fuentarrón","lat":39.56967,"lon":-5.2064081,"elevationM":941},{"id":"node:1241665436","kind":"peak","name":"Cerro de la Coguta","lat":39.3125239,"lon":-5.7074902,"elevationM":657},{"id":"node:1241666649","kind":"peak","name":"Cerro de Pelacillo","lat":39.6693571,"lon":-5.4138413,"elevationM":615},{"id":"node:1241666718","kind":"peak","name":"Cerros de Castillejos","lat":39.3779922,"lon":-5.7036822,"elevationM":718},{"id":"node:1241666927","kind":"peak","name":"Alto de los Noques","lat":39.7808744,"lon":-5.5084137,"elevationM":421},{"id":"node:1241666928","kind":"peak","name":"Cerro de los Herreros","lat":39.4441913,"lon":-5.482073,"elevationM":676},{"id":"node:1241667099","kind":"peak","name":"Cerro Redondo","lat":39.7662818,"lon":-5.5184778,"elevationM":392},{"id":"node:1241667102","kind":"peak","name":"Cerro del Cogorro","lat":39.4301127,"lon":-5.4638523,"elevationM":882},{"id":"node:1241667104","kind":"peak","name":"Peñas del Campanario","lat":39.6604056,"lon":-5.3318641,"elevationM":605},{"id":"node:1241667124","kind":"peak","name":"Cerro de Valdeagudo","lat":39.4724294,"lon":-5.6067712,"elevationM":792},{"id":"node:1241667259","kind":"peak","name":"Cerro de la Venta","lat":39.4463528,"lon":-5.1084546,"elevationM":584},{"id":"node:1241667285","kind":"peak","name":"Cerro de los Caballeros","lat":39.6433288,"lon":-5.4485493,"elevationM":623},{"id":"node:1241667938","kind":"peak","name":"Cerro de Gambonita","lat":39.4356477,"lon":-5.5893717,"elevationM":889},{"id":"node:1241668118","kind":"peak","name":"Cerro del Burro","lat":39.4380996,"lon":-5.2574954,"elevationM":622},{"id":"node:1241668298","kind":"peak","name":"Risco Sabino","lat":39.7097943,"lon":-5.3817052,"elevationM":797},{"id":"node:1241668317","kind":"peak","name":"Pedrero de Clemente","lat":39.6420811,"lon":-5.4994374,"elevationM":795},{"id":"node:1241668417","kind":"peak","name":"El Castillo","lat":39.3761427,"lon":-5.3808865,"elevationM":786},{"id":"node:1241668451","kind":"peak","name":"Risco de las Tres Lindes","lat":39.5302589,"lon":-5.403711,"elevationM":1159},{"id":"node:1241668515","kind":"peak","name":"Colinas de los Collados del Fresno","lat":39.7311195,"lon":-5.5742487,"elevationM":483},{"id":"node:1241668617","kind":"peak","name":"Cerro Talayón","lat":39.59986,"lon":-5.6946311,"elevationM":511},{"id":"node:1241668703","kind":"peak","name":"Cabeza del Fresno","lat":39.381008,"lon":-5.581271,"elevationM":1128},{"id":"node:1241669337","kind":"peak","name":"Las Llanas","lat":39.6505179,"lon":-5.4272526,"elevationM":707},{"id":"node:1241669540","kind":"peak","name":"Cerro de la Abertura","lat":39.424054,"lon":-5.4515413,"elevationM":858},{"id":"node:1241669542","kind":"peak","name":"Risco Pelado","lat":39.609264,"lon":-5.226892,"elevationM":1109},{"id":"node:1241669605","kind":"peak","name":"La Artesa","lat":39.5133745,"lon":-5.457117,"elevationM":1101},{"id":"node:1241669653","kind":"peak","name":"El Ridero","lat":39.7574546,"lon":-5.518699,"elevationM":435},{"id":"node:1241669724","kind":"peak","name":"Risco del Cabrero","lat":39.5158792,"lon":-5.1937155,"elevationM":663},{"id":"node:1241669763","kind":"peak","name":"El Risco de Paulino","lat":39.4259818,"lon":-5.4276924,"elevationM":1002},{"id":"node:1241669848","kind":"peak","name":"Cerro del Águila","lat":39.4516493,"lon":-5.2672044,"elevationM":768},{"id":"node:1241669911","kind":"peak","name":"Canchal del Águila","lat":39.7175038,"lon":-5.6746008,"elevationM":709},{"id":"node:1241669940","kind":"peak","name":"Cerro del Valle Blanco","lat":39.7173303,"lon":-5.4574537,"elevationM":646},{"id":"node:1241670197","kind":"peak","name":"Cerro Horadado","lat":39.462671,"lon":-5.3588703,"elevationM":942},{"id":"node:1241670500","kind":"peak","name":"San Gregorio","lat":39.2522132,"lon":-5.7341371,"elevationM":394},{"id":"node:1241670574","kind":"peak","name":"Riscos de la Cueva","lat":39.6423386,"lon":-5.2671197,"elevationM":992},{"id":"node:1241670676","kind":"peak","name":"Cerro del Arrejanal","lat":39.5875281,"lon":-5.227307,"elevationM":914},{"id":"node:1241671222","kind":"peak","name":"Cerro del Yelmo","lat":39.5666322,"lon":-5.2113219,"elevationM":918},{"id":"node:1241671234","kind":"peak","name":"Cerro de la Mina","lat":39.632098,"lon":-5.4472325,"elevationM":587},{"id":"node:1241671249","kind":"peak","name":"Ruedalasmozas","lat":39.7315563,"lon":-5.4705604,"elevationM":634},{"id":"node:1241671357","kind":"peak","name":"Risco de la Cueva de la Muñana","lat":39.4684445,"lon":-5.0394966,"elevationM":888},{"id":"node:1241671464","kind":"peak","name":"Cerro de la Muela","lat":39.7415072,"lon":-5.6503844,"elevationM":471},{"id":"node:1241671707","kind":"peak","name":"El Portezuelo","lat":39.3893239,"lon":-5.6495245,"elevationM":665},{"id":"node:1241671734","kind":"peak","name":"Risco Recado","lat":39.5166791,"lon":-5.4609106,"elevationM":1051},{"id":"node:1241671815","kind":"peak","name":"Alcornocalejos","lat":39.3859296,"lon":-5.6906278,"elevationM":701},{"id":"node:1241672141","kind":"peak","name":"Cerro Herrumbre","lat":39.6253218,"lon":-5.2911858,"elevationM":721},{"id":"node:1241672387","kind":"peak","name":"Risco de la Bandera","lat":39.7127089,"lon":-5.3923503,"elevationM":761},{"id":"node:1241672464","kind":"peak","name":"El Castillejo","lat":39.4319142,"lon":-5.6416921,"elevationM":731},{"id":"node:1241672534","kind":"peak","name":"Cerro de Valtravieso","lat":39.4855999,"lon":-5.5173729,"elevationM":747},{"id":"node:1241672780","kind":"peak","name":"Cerro de la Garganta","lat":39.617458,"lon":-5.2103251,"elevationM":827},{"id":"node:1241672868","kind":"peak","name":"Riscos Landrino","lat":39.5204765,"lon":-5.4352609,"elevationM":1264},{"id":"node:1241673089","kind":"peak","name":"Cancho de la Linde","lat":39.7147485,"lon":-5.5137207,"elevationM":673},{"id":"node:1241673126","kind":"peak","name":"Cerro de la Garganta","lat":39.7186668,"lon":-5.6624091,"elevationM":523},{"id":"node:1241673258","kind":"peak","name":"Cerro de Sujorni","lat":39.448209,"lon":-5.5330107,"elevationM":865},{"id":"node:1241673390","kind":"peak","name":"Cerro del Avellano","lat":39.6020534,"lon":-5.4503333,"elevationM":956},{"id":"node:1241673673","kind":"peak","name":"Muñiguero","lat":39.376444,"lon":-5.693047,"elevationM":696},{"id":"node:1241673675","kind":"peak","name":"Risco de los Goteros","lat":39.5466587,"lon":-5.4100862,"elevationM":1191},{"id":"node:1241673849","kind":"peak","name":"Cerro de San Lucas","lat":39.678358,"lon":-5.6175177,"elevationM":786},{"id":"node:1241673981","kind":"peak","name":"Cerro de la Torvisca","lat":39.3642935,"lon":-5.5404422,"elevationM":null},{"id":"node:1241673995","kind":"peak","name":"Canchos del Vadillo","lat":39.7039993,"lon":-5.4144244,"elevationM":481},{"id":"node:1241674093","kind":"peak","name":"La Mora","lat":39.4168651,"lon":-5.7521547,"elevationM":721},{"id":"node:1241674254","kind":"peak","name":"Cerro de Caramuta","lat":39.4510593,"lon":-5.450923,"elevationM":1058},{"id":"node:1241674453","kind":"peak","name":"Cerro de las Mojoneras","lat":39.7729428,"lon":-5.5036892,"elevationM":432},{"id":"node:1241674455","kind":"peak","name":"Cerro del Valle del Colmenar","lat":39.4199813,"lon":-5.4026334,"elevationM":795},{"id":"node:1241674469","kind":"peak","name":"Cerro de los Vallejuelos","lat":39.4189973,"lon":-5.6702854,"elevationM":747},{"id":"node:1241674475","kind":"peak","name":"El Aguijoncillo","lat":39.4954711,"lon":-5.580993,"elevationM":575},{"id":"node:1241674855","kind":"peak","name":"Cerros de Santo Tomé","lat":39.6542808,"lon":-5.3204253,"elevationM":661},{"id":"node:1241674942","kind":"peak","name":"Cerro Alcornocoso","lat":39.6185926,"lon":-5.3404747,"elevationM":799},{"id":"node:1241674988","kind":"peak","name":"Cerros del Puente","lat":39.7082949,"lon":-5.5532961,"elevationM":462},{"id":"node:1241675260","kind":"peak","name":"Cerro de Valdesordillo","lat":39.4187864,"lon":-5.5335893,"elevationM":931},{"id":"node:1241675473","kind":"peak","name":"El Romeral","lat":39.4615821,"lon":-5.1043279,"elevationM":634},{"id":"node:1241676549","kind":"peak","name":"Cerro del Zorro","lat":39.346624,"lon":-5.6070496,"elevationM":577},{"id":"node:1241676635","kind":"peak","name":"Risco Marruecos","lat":39.6409566,"lon":-5.3998382,"elevationM":973},{"id":"node:1241677075","kind":"peak","name":"Cerro Bonilla","lat":39.4356292,"lon":-5.0739283,"elevationM":573},{"id":"node:1241677213","kind":"peak","name":"La Bandera","lat":39.5507764,"lon":-5.4917005,"elevationM":977},{"id":"node:1241677270","kind":"peak","name":"Cerro del Pastor","lat":39.7697066,"lon":-5.5125993,"elevationM":428},{"id":"node:1241677462","kind":"peak","name":"Cerro Alto","lat":39.1327684,"lon":-5.6264802,"elevationM":332},{"id":"node:1241677543","kind":"peak","name":"Cerro del Castillejo","lat":39.6897939,"lon":-5.4859322,"elevationM":493},{"id":"node:1241677573","kind":"peak","name":"Cerro Cabrero","lat":39.4040235,"lon":-5.4308014,"elevationM":951},{"id":"node:1241677585","kind":"peak","name":"Cerro de Paraíso","lat":39.5295703,"lon":-5.2727548,"elevationM":1318},{"id":"node:1241677701","kind":"peak","name":"Cogorro del Rostro","lat":39.4987844,"lon":-5.5419222,"elevationM":662},{"id":"node:1241677889","kind":"peak","name":"Risco de la Villuerca Chica","lat":39.4629939,"lon":-5.4049672,"elevationM":1512},{"id":"node:1241678380","kind":"peak","name":"Peña de la Cierva","lat":39.5960599,"lon":-5.2419179,"elevationM":800},{"id":"node:1241678483","kind":"peak","name":"Cerro del Camocho","lat":39.698109,"lon":-5.5206946,"elevationM":546},{"id":"node:1241678694","kind":"peak","name":"Cerro Ensillado","lat":39.6337057,"lon":-5.5811306,"elevationM":651},{"id":"node:1241678839","kind":"peak","name":"Los Moratos","lat":39.6922315,"lon":-5.5031979,"elevationM":548},{"id":"node:1241678877","kind":"peak","name":"La Cierva","lat":39.3610359,"lon":-5.3362716,"elevationM":665},{"id":"node:1241678930","kind":"peak","name":"Cerro Mateo","lat":39.6482823,"lon":-5.4659018,"elevationM":646},{"id":"node:1241679086","kind":"peak","name":"Cerro de los Zuiles","lat":39.3707561,"lon":-5.7082949,"elevationM":683},{"id":"node:1241679145","kind":"peak","name":"Cerrón de la Butrera","lat":39.4563674,"lon":-5.6210051,"elevationM":920},{"id":"node:1241679881","kind":"peak","name":"Cerro del Rubio","lat":39.4099932,"lon":-5.4346751,"elevationM":993},{"id":"node:1241680135","kind":"peak","name":"Cerro La Torre","lat":39.6362139,"lon":-5.4445353,"elevationM":614},{"id":"node:1241680313","kind":"peak","name":"Cerro del Acebuchal","lat":39.559676,"lon":-5.3624969,"elevationM":1005},{"id":"node:1241680373","kind":"peak","name":"Cerro Buitrago","lat":39.6367022,"lon":-5.3131893,"elevationM":706},{"id":"node:1241680408","kind":"peak","name":"Cerro de los Maruelos","lat":39.3818036,"lon":-5.5917452,"elevationM":1055},{"id":"node:1241680421","kind":"peak","name":"Cerro de las Cruces","lat":39.3691576,"lon":-5.7762445,"elevationM":605},{"id":"node:1241680458","kind":"peak","name":"Cerro de Tapia","lat":39.6126401,"lon":-5.3257637,"elevationM":754},{"id":"node:1241680512","kind":"peak","name":"Cerro del Cabrero","lat":39.5038541,"lon":-5.4841055,"elevationM":906},{"id":"node:1241680557","kind":"peak","name":"El Chorrero","lat":39.7594148,"lon":-5.5133293,"elevationM":406},{"id":"node:1241680848","kind":"peak","name":"Cerro de Gavilanes","lat":39.6628866,"lon":-5.5108692,"elevationM":636},{"id":"node:1241681410","kind":"peak","name":"La Canchera","lat":39.4334945,"lon":-5.8504571,"elevationM":524},{"id":"node:1241681451","kind":"peak","name":"Cerros del Frontal","lat":39.6786979,"lon":-5.6384829,"elevationM":832},{"id":"node:1241681495","kind":"peak","name":"Cerro de la Atalayuela","lat":39.3630097,"lon":-5.8403146,"elevationM":506},{"id":"node:1241681497","kind":"peak","name":"Risco de los Loros","lat":39.5389221,"lon":-5.4078872,"elevationM":1257},{"id":"node:1241681633","kind":"peak","name":"Cerro de las Viñas","lat":39.4445242,"lon":-5.4671737,"elevationM":839},{"id":"node:1241681723","kind":"peak","name":"Risco de los Guarros","lat":39.7358735,"lon":-5.5549437,"elevationM":627},{"id":"node:1241681735","kind":"peak","name":"Cerro de Aguas Frías","lat":39.6657869,"lon":-5.4735965,"elevationM":674},{"id":"node:1241681815","kind":"peak","name":"Peña Redonda","lat":39.7221063,"lon":-5.4068466,"elevationM":551},{"id":"node:1241681906","kind":"peak","name":"Cerro de Mequilletrón","lat":39.3890095,"lon":-5.5416837,"elevationM":977},{"id":"node:1241682039","kind":"peak","name":"Mesa del Local","lat":39.1987911,"lon":-5.5302925,"elevationM":429},{"id":"node:1241682122","kind":"peak","name":"Cerro Ballesteros","lat":39.6506117,"lon":-5.3385992,"elevationM":676},{"id":"node:1241682389","kind":"peak","name":"Cerro de la Palanca","lat":39.4305557,"lon":-5.5324614,"elevationM":897},{"id":"node:1241682734","kind":"peak","name":"Riscos de la Jive","lat":39.6506695,"lon":-5.2767081,"elevationM":981},{"id":"node:1241682915","kind":"peak","name":"Cerro del Casar","lat":39.6073022,"lon":-5.2884983,"elevationM":723},{"id":"node:1241682926","kind":"peak","name":"Cerro Gurugú","lat":39.3819909,"lon":-5.7942872,"elevationM":705},{"id":"node:1241683012","kind":"peak","name":"Cerro de la Zapatera","lat":39.3863206,"lon":-5.3346404,"elevationM":623},{"id":"node:1241683168","kind":"peak","name":"Risco de la Horcada","lat":39.5968915,"lon":-5.2078503,"elevationM":1172},{"id":"node:1241683555","kind":"peak","name":"Cerro del Cañajal","lat":39.5673944,"lon":-5.5193786,"elevationM":737},{"id":"node:1241683581","kind":"peak","name":"Cerro de los Chochos","lat":39.4453189,"lon":-5.6685313,"elevationM":874},{"id":"node:1241683762","kind":"peak","name":"Cerro de los Taramales","lat":39.5759081,"lon":-5.2442843,"elevationM":709},{"id":"node:1241683822","kind":"peak","name":"Cerro del Prado del Risquillo","lat":39.4239575,"lon":-5.3484123,"elevationM":1013},{"id":"node:1241683837","kind":"peak","name":"Cerro Labradillos","lat":39.4744768,"lon":-5.1294323,"elevationM":543},{"id":"node:1241683898","kind":"peak","name":"Las Mesas de los Sotillos","lat":39.3910272,"lon":-5.2884335,"elevationM":626},{"id":"node:1241684373","kind":"peak","name":"El Frontón","lat":39.6119207,"lon":-5.4651478,"elevationM":865},{"id":"node:1241684403","kind":"peak","name":"Cerro de la Acibuta","lat":39.7448939,"lon":-5.6529735,"elevationM":461},{"id":"node:1241684432","kind":"peak","name":"Mesa de la Verruga","lat":39.3924807,"lon":-5.5250124,"elevationM":1025},{"id":"node:1241684603","kind":"peak","name":"Cerro de las Minas","lat":39.6977288,"lon":-5.5457509,"elevationM":443},{"id":"node:1241684618","kind":"peak","name":"Risco de Cervales","lat":39.5558984,"lon":-5.3097467,"elevationM":1424},{"id":"node:1241684856","kind":"peak","name":"Risco de la Cueva","lat":39.5825818,"lon":-5.4341875,"elevationM":1028},{"id":"node:1241685294","kind":"peak","name":"Cerro del Marroquino","lat":39.3950378,"lon":-5.6380603,"elevationM":811},{"id":"node:1241685857","kind":"peak","name":"Cerro de Fontanalejo","lat":39.4280188,"lon":-5.6097617,"elevationM":806},{"id":"node:1241686275","kind":"peak","name":"Cerro de las Fuentes","lat":39.3863228,"lon":-5.4114893,"elevationM":697},{"id":"node:1241686334","kind":"peak","name":"Cerro Pedriza","lat":39.7119104,"lon":-5.4071645,"elevationM":760},{"id":"node:1241686634","kind":"peak","name":"Risco de Zamarrilla","lat":39.6742661,"lon":-5.5634647,"elevationM":727},{"id":"node:1241686652","kind":"peak","name":"Cerro del Abad","lat":39.3778947,"lon":-5.4344994,"elevationM":555},{"id":"node:1241686861","kind":"peak","name":"El Jornero","lat":39.6482628,"lon":-5.3720604,"elevationM":702},{"id":"node:1241686991","kind":"peak","name":"Cerro de Navalgallo","lat":39.6067576,"lon":-5.1945522,"elevationM":941},{"id":"node:1241687636","kind":"peak","name":"Cerro de la Pizarra","lat":39.1350857,"lon":-5.6098184,"elevationM":329},{"id":"node:1241688084","kind":"peak","name":"Cerro Juracao","lat":39.570926,"lon":-5.2198179,"elevationM":791},{"id":"node:1241688370","kind":"peak","name":"Cerro de los Polvizares","lat":39.6713354,"lon":-5.4166621,"elevationM":615},{"id":"node:1243330024","kind":"peak","name":"Risco del Abad","lat":39.4894244,"lon":-5.082433,"elevationM":970},{"id":"node:1243334732","kind":"peak","name":"Risco de la Poyata","lat":39.4972391,"lon":-5.091632,"elevationM":1028},{"id":"node:1243339758","kind":"peak","name":"Cerro Gordo","lat":39.5546342,"lon":-5.1280719,"elevationM":892},{"id":"node:1243352778","kind":"peak","name":"Risco del Torozo","lat":39.4844448,"lon":-5.0536431,"elevationM":1007},{"id":"node:1249810819","kind":"peak","name":"La Coronada","lat":39.0758747,"lon":-5.0118011,"elevationM":null},{"id":"node:1249810850","kind":"peak","name":"Risco de Velasco","lat":39.1833445,"lon":-5.2587404,"elevationM":null},{"id":"node:1249811350","kind":"peak","name":"Cerro de las Tres Cruces","lat":39.0851642,"lon":-5.4766419,"elevationM":null},{"id":"node:1249811769","kind":"peak","name":"Peñón de Santa Catalina","lat":39.0995791,"lon":-5.0962544,"elevationM":null},{"id":"node:1249811826","kind":"peak","name":"Cerro de las Malas Mujeres","lat":39.2834329,"lon":-5.0330571,"elevationM":null},{"id":"node:1249812881","kind":"peak","name":"Cerro de Cabezoleja","lat":39.2750005,"lon":-5.109493,"elevationM":null},{"id":"node:1249813516","kind":"peak","name":"Peñón del Morro","lat":39.006299,"lon":-5.3103291,"elevationM":592},{"id":"node:1249814042","kind":"peak","name":"Cerro Cogolludo","lat":39.0237805,"lon":-5.4147289,"elevationM":443},{"id":"node:1249814659","kind":"peak","name":"Cerro Chamorro","lat":39.1541008,"lon":-5.0101295,"elevationM":null},{"id":"node:1249814868","kind":"peak","name":"Morro de la Atalaya","lat":39.2303879,"lon":-5.2685066,"elevationM":null},{"id":"node:1249815205","kind":"peak","name":"Cerro de Repica","lat":39.0427727,"lon":-5.4603159,"elevationM":null},{"id":"node:1249815754","kind":"peak","name":"Cerro Pajonal","lat":39.1157077,"lon":-5.1304388,"elevationM":null},{"id":"node:1249816650","kind":"peak","name":"Cerro de las Cabezuelas","lat":39.2727033,"lon":-5.1302654,"elevationM":null},{"id":"node:1249817309","kind":"peak","name":"Risco Caído","lat":39.120779,"lon":-5.1347486,"elevationM":null},{"id":"node:1249817419","kind":"peak","name":"Morra Colorada","lat":39.0435569,"lon":-5.017301,"elevationM":null},{"id":"node:1249818042","kind":"peak","name":"Cerro del Bravo","lat":39.0516077,"lon":-5.4601417,"elevationM":null},{"id":"node:1249818168","kind":"peak","name":"Morro de Cantosblancos","lat":39.0703344,"lon":-5.0438024,"elevationM":null},{"id":"node:1249819696","kind":"peak","name":"Risco de la Cueva","lat":39.1450202,"lon":-5.0607307,"elevationM":null},{"id":"node:1249943392","kind":"peak","name":"Cerro del Calvario","lat":39.8581942,"lon":-5.3414368,"elevationM":null},{"id":"node:1249944472","kind":"peak","name":"Peña María","lat":39.5244625,"lon":-5.4965543,"elevationM":932},{"id":"node:1249945135","kind":"peak","name":"El Canalizo","lat":39.7605188,"lon":-5.5904256,"elevationM":663},{"id":"node:1249946008","kind":"peak","name":"Cerro de la Burra","lat":39.844622,"lon":-5.9185552,"elevationM":381},{"id":"node:1249947397","kind":"peak","name":"Peña Buitrera","lat":39.5443319,"lon":-5.5073731,"elevationM":865},{"id":"node:1249947771","kind":"peak","name":"Cerro de la Vaca","lat":39.3191945,"lon":-5.9159313,"elevationM":null},{"id":"node:1249948526","kind":"peak","name":"Cerro Pozuelo","lat":39.4723922,"lon":-5.325816,"elevationM":1087},{"id":"node:1249949099","kind":"peak","name":"Cerro del Corcho","lat":39.9270349,"lon":-5.8564197,"elevationM":null},{"id":"node:1249950545","kind":"peak","name":"Risco de San Gregorio","lat":39.3199787,"lon":-5.8460425,"elevationM":null},{"id":"node:1249950695","kind":"peak","name":"Cerro del Reventón","lat":39.3063576,"lon":-5.837844,"elevationM":null},{"id":"node:1249952143","kind":"peak","name":"Cerro del Águila","lat":39.8534054,"lon":-5.8446294,"elevationM":null},{"id":"node:1249953153","kind":"peak","name":"Cerro Tejonera","lat":39.8353042,"lon":-5.8979853,"elevationM":387},{"id":"node:1249953487","kind":"peak","name":"Peña del Rayo","lat":39.5566655,"lon":-5.5146523,"elevationM":689},{"id":"node:1249954365","kind":"peak","name":"Cerro Pendón","lat":39.8603853,"lon":-5.3296062,"elevationM":null},{"id":"node:1249955768","kind":"peak","name":"Alto de la Cueva","lat":39.8525906,"lon":-5.9488505,"elevationM":402},{"id":"node:1249956270","kind":"peak","name":"Cerro de la Brama","lat":39.4695435,"lon":-5.3405601,"elevationM":1038},{"id":"node:1249959745","kind":"peak","name":"Morrón de Valderrapiso","lat":39.2777175,"lon":-5.9372951,"elevationM":null},{"id":"node:1249961234","kind":"peak","name":"Morra del Chivero","lat":39.2519741,"lon":-5.9842586,"elevationM":null},{"id":"node:1260550331","kind":"peak","name":"Cerro de la Navarra","lat":39.8535858,"lon":-5.2439006,"elevationM":null},{"id":"node:1268535631","kind":"peak","name":"Puerto del Garrido","lat":39.1860834,"lon":-5.3199937,"elevationM":null},{"id":"node:1268535922","kind":"peak","name":"Puerto del Carrascal","lat":39.1910008,"lon":-5.3058116,"elevationM":null},{"id":"node:4849538564","kind":"peak","name":"Piedra Caballera","lat":39.8853141,"lon":-5.5417705,"elevationM":null},{"id":"node:9993700813","kind":"peak","name":"EA4/CC-092 - Pico Fuente del Moro","lat":39.328999,"lon":-5.4952998,"elevationM":680},{"id":"node:9993719311","kind":"peak","name":"EA4/BA-067 - Pico del Valle de Valdehornos","lat":39.1796,"lon":-5.3196001,"elevationM":648},{"id":"node:10572504608","kind":"peak","name":"Peña del Castillo","lat":39.3195625,"lon":-5.6955927,"elevationM":633},{"id":"node:12623891536","kind":"peak","name":"Higuera","lat":39.7164099,"lon":-5.6735504,"elevationM":727},{"id":"node:12623891549","kind":"peak","name":"Sierra de Enmedio","lat":39.6760331,"lon":-5.633741,"elevationM":870},{"id":"node:12623891556","kind":"peak","name":"Zapata","lat":39.6754965,"lon":-5.6965023,"elevationM":826},{"id":"node:12623891579","kind":"peak","name":"Pico Miravete","lat":39.7133275,"lon":-5.7463213,"elevationM":837},{"id":"node:12623891597","kind":"peak","name":"Cerro de la Fuente","lat":39.7444942,"lon":-5.8164446,"elevationM":584},{"id":"node:12623901005","kind":"peak","name":"667","lat":39.7332241,"lon":-5.7691663,"elevationM":null},{"id":"node:12623901006","kind":"peak","name":"669","lat":39.7326585,"lon":-5.7667782,"elevationM":null},{"id":"node:12623901026","kind":"peak","name":"Berzalejos","lat":39.7624417,"lon":-5.9825954,"elevationM":365},{"id":"node:12623901034","kind":"peak","name":"Las Mesillas","lat":39.8116845,"lon":-5.9328888,"elevationM":409},{"id":"node:12623901042","kind":"peak","name":"Canaleja","lat":39.7994405,"lon":-5.8880527,"elevationM":388},{"id":"node:12623901061","kind":"peak","name":"La Cuchilla","lat":39.7565457,"lon":-5.8356137,"elevationM":575},{"id":"node:12623901081","kind":"peak","name":"Urraca","lat":39.7855388,"lon":-5.8242176,"elevationM":583},{"id":"node:12623901091","kind":"peak","name":"Huerta Navarro","lat":39.7992586,"lon":-5.8059361,"elevationM":541},{"id":"node:12623901119","kind":"peak","name":"Herguijuela","lat":39.8356182,"lon":-5.8998812,"elevationM":389},{"id":"node:12623901157","kind":"peak","name":"Collado del Lobo o de la Rivera","lat":39.7599444,"lon":-5.7993237,"elevationM":475},{"id":"node:12623901218","kind":"peak","name":"Los Moros","lat":39.5893645,"lon":-5.544939,"elevationM":925},{"id":"node:12623901220","kind":"peak","name":"Pico Cuevas de la Jive","lat":39.5829432,"lon":-5.5347219,"elevationM":951},{"id":"node:12623901229","kind":"peak","name":"Comandante","lat":39.6320538,"lon":-5.5919308,"elevationM":783},{"id":"node:12623901251","kind":"peak","name":"Rocastaño","lat":39.6661766,"lon":-5.6737781,"elevationM":823},{"id":"node:12623901261","kind":"peak","name":"Risco Gordo","lat":39.6998607,"lon":-5.5973557,"elevationM":822},{"id":"node:12625367779","kind":"peak","name":"Carpinteros","lat":39.501495,"lon":-5.4197477,"elevationM":1267},{"id":"node:12630666987","kind":"peak","name":"San Bonifacio","lat":39.5054893,"lon":-5.3905047,"elevationM":1258},{"id":"node:12630678247","kind":"peak","name":"Collado de Pedrera Larga","lat":39.6354584,"lon":-5.4898457,"elevationM":825},{"id":"node:12630678265","kind":"peak","name":"Camorro Castañar","lat":39.6126179,"lon":-5.4028163,"elevationM":1150},{"id":"node:12630678278","kind":"peak","name":"Pico Sierra del Rullo","lat":39.5896417,"lon":-5.3524562,"elevationM":1317},{"id":"node:12630678280","kind":"peak","name":"Carbonero","lat":39.5719905,"lon":-5.3297804,"elevationM":1428},{"id":"node:12630678305","kind":"peak","name":"Sobacorbas","lat":39.5253932,"lon":-5.2614014,"elevationM":1319},{"id":"node:12630678322","kind":"peak","name":"Palomera","lat":39.4989687,"lon":-5.1942464,"elevationM":955},{"id":"node:12630678333","kind":"peak","name":"Pedro Gómez","lat":39.3935845,"lon":-5.7182011,"elevationM":1002},{"id":"node:12630678352","kind":"peak","name":"Cerro Tamborrío","lat":39.0089989,"lon":-5.7497527,"elevationM":354},{"id":"node:12631182663","kind":"peak","name":"Mesa de Raña","lat":39.3942799,"lon":-5.2460848,"elevationM":606},{"id":"node:12631182666","kind":"peak","name":"Puertollano","lat":39.3759935,"lon":-5.3358439,"elevationM":837},{"id":"node:12631182672","kind":"peak","name":"Cabeza Águila","lat":39.3841239,"lon":-5.4780837,"elevationM":1006},{"id":"node:12631182689","kind":"peak","name":"Venero","lat":39.3807151,"lon":-5.5819886,"elevationM":1128},{"id":"node:12631182694","kind":"peak","name":"Pirón","lat":39.4246783,"lon":-5.5977321,"elevationM":922},{"id":"node:12631190704","kind":"peak","name":"Sombrerete","lat":39.4357121,"lon":-5.539134,"elevationM":907},{"id":"node:12631190764","kind":"peak","name":"Risco Viejo","lat":39.4053327,"lon":-5.4005692,"elevationM":976},{"id":"node:12631236317","kind":"peak","name":"Abrigo del Reloj","lat":39.4736485,"lon":-5.4596178,"elevationM":1095},{"id":"node:12631236326","kind":"peak","name":"Abrigo Collado de Santa Lucía","lat":39.4773542,"lon":-5.4621807,"elevationM":null},{"id":"node:12631236333","kind":"peak","name":"Cerro Cubero","lat":39.4988033,"lon":-5.4587559,"elevationM":842},{"id":"node:12631236335","kind":"peak","name":"Risco Loberuelas","lat":39.5014198,"lon":-5.4486685,"elevationM":1122},{"id":"node:12631236383","kind":"peak","name":"Castillo","lat":39.5482991,"lon":-5.5105116,"elevationM":855},{"id":"node:12631468296","kind":"peak","name":"Risco de los Gavilanes","lat":39.587852,"lon":-5.1975553,"elevationM":1245},{"id":"node:12631468297","kind":"peak","name":"Conveniencias","lat":39.4883649,"lon":-5.0659446,"elevationM":1002},{"id":"node:12631468298","kind":"peak","name":"Risco de las Moras","lat":39.5538887,"lon":-5.1550187,"elevationM":1279},{"id":"node:12631468299","kind":"peak","name":"Risco Prado","lat":39.6242481,"lon":-5.2471875,"elevationM":1055},{"id":"node:12631497539","kind":"peak","name":"Corchuela","lat":39.8076245,"lon":-5.9554614,"elevationM":544},{"id":"node:12631640478","kind":"peak","name":"El Morro","lat":39.0756625,"lon":-5.8320694,"elevationM":368},{"id":"node:12631640479","kind":"peak","name":"Sierra del Villar","lat":39.0718383,"lon":-5.8282765,"elevationM":437},{"id":"node:12631640482","kind":"peak","name":"Cerro de los Lobos","lat":39.1186862,"lon":-5.6590746,"elevationM":357},{"id":"node:12631640484","kind":"peak","name":"Barrerón","lat":39.0791904,"lon":-5.6716215,"elevationM":330},{"id":"node:12631640485","kind":"peak","name":"Alto de las Águilas","lat":39.1650878,"lon":-5.7323193,"elevationM":369},{"id":"node:12631640486","kind":"peak","name":"Cerro Verde","lat":39.198519,"lon":-5.7120972,"elevationM":393},{"id":"node:12631640487","kind":"peak","name":"Las Tararrubias","lat":39.1816697,"lon":-5.5397365,"elevationM":422},{"id":"node:12631640488","kind":"peak","name":"Sierra Brava","lat":39.2010515,"lon":-5.6358736,"elevationM":371},{"id":"node:12631640489","kind":"peak","name":"Media Luna","lat":39.3503895,"lon":-5.2218348,"elevationM":558},{"id":"node:12631640490","kind":"peak","name":"San Simón","lat":39.2735389,"lon":-5.242578,"elevationM":586},{"id":"node:12631681705","kind":"peak","name":"Covacha","lat":39.6980892,"lon":-5.4789559,"elevationM":712},{"id":"node:12633660480","kind":"peak","name":"Valero","lat":39.7392639,"lon":-5.9093216,"elevationM":471},{"id":"node:12633671062","kind":"peak","name":"El Corchito","lat":39.6176303,"lon":-5.4277276,"elevationM":644},{"id":"node:12633671068","kind":"peak","name":"Castaños de Calabazas","lat":39.6257721,"lon":-5.388719,"elevationM":1061},{"id":"node:12633671076","kind":"peak","name":"Porrinas","lat":39.6357118,"lon":-5.3594049,"elevationM":773},{"id":"node:12633684314","kind":"peak","name":"Castillejo de la Navilla","lat":39.6093591,"lon":-5.2527236,"elevationM":822},{"id":"node:12633684348","kind":"peak","name":"Cabras","lat":39.659222,"lon":-5.287565,"elevationM":1006},{"id":"node:12633684350","kind":"peak","name":"Collado Hueso","lat":39.6548803,"lon":-5.2785173,"elevationM":888},{"id":"node:12633684370","kind":"peak","name":"1166","lat":39.6002682,"lon":-5.2139235,"elevationM":null},{"id":"node:12634211548","kind":"peak","name":"Cerro Alto","lat":39.5219796,"lon":-5.5392206,"elevationM":752},{"id":"node:12634211565","kind":"peak","name":"Caballerías","lat":39.4887704,"lon":-5.5245034,"elevationM":800},{"id":"node:12634494037","kind":"peak","name":"Cancho de los Clavos","lat":39.4215915,"lon":-5.3652928,"elevationM":937},{"id":"node:12634494514","kind":"peak","name":"Fuentefría","lat":39.3474296,"lon":-5.6483672,"elevationM":925},{"id":"node:12634494522","kind":"peak","name":"La Peña","lat":39.3239357,"lon":-5.6982077,"elevationM":798},{"id":"node:12634494525","kind":"peak","name":"Cerro Mesao","lat":39.3453783,"lon":-5.7063186,"elevationM":824},{"id":"node:12634494563","kind":"peak","name":"Cañada Fría","lat":39.4825577,"lon":-5.7158897,"elevationM":770},{"id":"node:12634551560","kind":"peak","name":"Pico Agudo","lat":39.4273865,"lon":-5.3503569,"elevationM":1091},{"id":"node:12634564553","kind":"peak","name":"Risco Palomero","lat":39.5837045,"lon":-5.4678207,"elevationM":1183},{"id":"node:12634564555","kind":"peak","name":"Manzano","lat":39.5918126,"lon":-5.465992,"elevationM":949},{"id":"node:12634564620","kind":"peak","name":"La Isla","lat":39.7911772,"lon":-5.5981769,"elevationM":332},{"id":"node:12634564650","kind":"peak","name":"El Chorrero","lat":39.7601329,"lon":-5.5033807,"elevationM":405},{"id":"node:12634564677","kind":"peak","name":"El Sierro","lat":39.8023934,"lon":-5.6238365,"elevationM":439},{"id":"node:12634564678","kind":"peak","name":"Sierra de Almaraz","lat":39.7957689,"lon":-5.641777,"elevationM":560},{"id":"node:12634564693","kind":"peak","name":"El Romeral","lat":39.7681041,"lon":-5.6547483,"elevationM":381},{"id":"node:12634567051","kind":"peak","name":"Colorado","lat":39.5859224,"lon":-5.6533,"elevationM":535},{"id":"node:12634567054","kind":"peak","name":"Cabeza Ruya","lat":39.5693602,"lon":-5.6019909,"elevationM":557}]}