{"tileKey":"la_p43_lo_p41","version":"v1-1775891056926","entries":[{"id":"node:391239871","kind":"peak","name":"Хутиа","lat":43.1720148,"lon":41.8138789,"elevationM":3573},{"id":"node:391240055","kind":"peak","name":"Намших","lat":43.1689958,"lon":41.9156478,"elevationM":3109},{"id":"node:391242151","kind":"peak","name":"Кышхаджер","lat":43.411353,"lon":41.8940234,"elevationM":3823},{"id":"node:391242217","kind":"peak","name":"Гаралыколбаши","lat":43.3559163,"lon":41.8383964,"elevationM":3768},{"id":"node:391242223","kind":"peak","name":"Гедейж","lat":43.3285457,"lon":41.7545282,"elevationM":3248},{"id":"node:391242520","kind":"peak","name":"Чотча","lat":43.2304892,"lon":41.8320143,"elevationM":3638},{"id":"node:391242681","kind":"peak","name":"Khojali Mountain","lat":43.0248161,"lon":41.8926506,"elevationM":3313},{"id":"node:427887979","kind":"peak","name":"Узловая Цегеркер","lat":43.4322223,"lon":41.0042948,"elevationM":2928},{"id":"node:427887988","kind":"peak","name":"Верхняя Грибза","lat":43.4069789,"lon":41.036973,"elevationM":2824},{"id":"node:427888025","kind":"peak","name":"Псырс","lat":43.4039626,"lon":41.1061964,"elevationM":3457},{"id":"node:427888066","kind":"peak","name":"Восточный Псыш","lat":43.3815961,"lon":41.203764,"elevationM":3489},{"id":"node:427888091","kind":"peak","name":"Алан","lat":43.361928,"lon":41.2660077,"elevationM":3443},{"id":"node:427888107","kind":"peak","name":"Буран","lat":43.3422033,"lon":41.2844081,"elevationM":null},{"id":"node:427888117","kind":"peak","name":"Чыганак","lat":43.340914,"lon":41.303287,"elevationM":3178},{"id":"node:427888196","kind":"peak","name":"Снежная","lat":43.3155525,"lon":41.4229808,"elevationM":3451},{"id":"node:427888208","kind":"peak","name":"Аксаут","lat":43.3087856,"lon":41.455473,"elevationM":3910},{"id":"node:427888215","kind":"peak","name":"Восточный Аксаут","lat":43.3051334,"lon":41.4674117,"elevationM":3696},{"id":"node:427888221","kind":"peak","name":"Малый Аксаут","lat":43.2985502,"lon":41.4722993,"elevationM":3532},{"id":"node:427888235","kind":"peak","name":"Джалаучат","lat":43.2818574,"lon":41.5056226,"elevationM":3874},{"id":"node:427888241","kind":"peak","name":"Эрцог","lat":43.276227,"lon":41.5113545,"elevationM":3863},{"id":"node:427888247","kind":"peak","name":"Алибекбаши","lat":43.2710027,"lon":41.5267048,"elevationM":3593},{"id":"node:427888255","kind":"peak","name":"пик Германского Комсомола","lat":43.2686485,"lon":41.5458626,"elevationM":3667},{"id":"node:427888257","kind":"peak","name":"пик Австрийского Комсомола","lat":43.2614757,"lon":41.5506349,"elevationM":3571},{"id":"node:427888305","kind":"peak","name":"Джугутурлючат","lat":43.238224,"lon":41.6588055,"elevationM":3928},{"id":"node:427888332","kind":"peak","name":"пик ЦДСА","lat":43.2351042,"lon":41.716806,"elevationM":null},{"id":"node:427888456","kind":"peak","name":"Гондарай","lat":43.2025263,"lon":41.9588359,"elevationM":3419},{"id":"node:427888470","kind":"peak","name":"пик Испанской компартии","lat":43.2153392,"lon":41.985357,"elevationM":3284},{"id":"node:504896826","kind":"peak","name":"Гәарда - Гварда","lat":43.0397616,"lon":41.078348,"elevationM":null},{"id":"node:521630774","kind":"peak","name":"Чаама","lat":43.0921618,"lon":41.149619,"elevationM":null},{"id":"node:521630775","kind":"peak","name":"Ахыста","lat":43.0518677,"lon":41.2918519,"elevationM":790},{"id":"node:760248345","kind":"peak","name":"София","lat":43.4214674,"lon":41.2693946,"elevationM":3637},{"id":"node:760248348","kind":"peak","name":"Чучхур-Баши","lat":43.3919109,"lon":41.2506553,"elevationM":3525},{"id":"node:813871508","kind":"peak","name":"Мусса-Ачитара","lat":43.2939878,"lon":41.6720441,"elevationM":3020},{"id":"node:843254847","kind":"peak","name":"Кругозор","lat":43.5576076,"lon":41.2307954,"elevationM":2317},{"id":"node:844397179","kind":"peak","name":"Мингикёльбаши","lat":43.4514688,"lon":41.2179418,"elevationM":3243},{"id":"node:878726897","kind":"peak","name":"Ацгара","lat":43.7252866,"lon":41.0412644,"elevationM":2521},{"id":"node:880388241","kind":"peak","name":"Кенделляр-Ляр","lat":43.4870408,"lon":41.8913595,"elevationM":3418},{"id":"node:893836323","kind":"peak","name":"Медвежий Бугор","lat":43.8279141,"lon":41.4296383,"elevationM":1149},{"id":"node:973770633","kind":"peak","name":"Надежда","lat":43.4284661,"lon":41.2401698,"elevationM":3349},{"id":"node:995181938","kind":"peak","name":"Домбай-Ульген главная","lat":43.2439005,"lon":41.7257726,"elevationM":4046},{"id":"node:1005058899","kind":"peak","name":"Мегребачи","lat":43.1842367,"lon":41.6701322,"elevationM":2812},{"id":"node:1013643667","kind":"peak","name":"Сухумская гора","lat":43.0112004,"lon":41.0327387,"elevationM":201},{"id":"node:1013665323","kind":"peak","name":"Бирӡха - Бирцха","lat":43.0449681,"lon":41.0457324,"elevationM":560},{"id":"node:1014219658","kind":"peak","name":"Шрома","lat":43.0662074,"lon":41.043189,"elevationM":486},{"id":"node:1014278893","kind":"peak","name":"Ахбыук","lat":43.0721014,"lon":41.0143498,"elevationM":null},{"id":"node:1014311161","kind":"peak","name":"Отоюш","lat":43.1423309,"lon":41.0299882,"elevationM":941},{"id":"node:1014436301","kind":"peak","name":"Ахбюн","lat":43.0728224,"lon":41.0289411,"elevationM":584},{"id":"node:1250744502","kind":"peak","name":"Горда","lat":43.4394328,"lon":41.2293307,"elevationM":3197},{"id":"node:1250745191","kind":"peak","name":"Акайры","lat":43.4165929,"lon":41.2527507,"elevationM":3300},{"id":"node:1250745192","kind":"peak","name":"1300 лет Болгарии","lat":43.4173444,"lon":41.2592301,"elevationM":3398},{"id":"node:1251040851","kind":"peak","name":"Кёль","lat":43.4476416,"lon":41.224435,"elevationM":3150},{"id":"node:1251062541","kind":"peak","name":"БСД","lat":43.464493,"lon":41.208554,"elevationM":3226},{"id":"node:1252325589","kind":"peak","name":"Псыш","lat":43.382303,"lon":41.1976317,"elevationM":3490},{"id":"node:1260600623","kind":"peak","name":"Дукка","lat":43.5550299,"lon":41.0895248,"elevationM":2208},{"id":"node:1314753253","kind":"peak","name":"Динника","lat":43.5839464,"lon":41.1992418,"elevationM":3173},{"id":"node:1314890446","kind":"peak","name":"Церковная","lat":43.5473103,"lon":41.2445906,"elevationM":2241},{"id":"node:1315965588","kind":"peak","name":"Махур","lat":43.6326323,"lon":41.299478,"elevationM":2524},{"id":"node:1333296300","kind":"peak","name":"Темир-Кулак","lat":43.4906593,"lon":41.098272,"elevationM":3186},{"id":"node:1333300713","kind":"peak","name":"Дукка-Баши","lat":43.4693702,"lon":41.090477,"elevationM":3213},{"id":"node:1333308342","kind":"peak","name":"Дорбун-Кая","lat":43.4443967,"lon":41.1216527,"elevationM":3145},{"id":"node:1333315534","kind":"peak","name":"Разломистая","lat":43.522567,"lon":41.0418646,"elevationM":2925},{"id":"node:1334355609","kind":"peak","name":"Аманаузбаши","lat":43.4133833,"lon":41.1061413,"elevationM":3535},{"id":"node:1365301885","kind":"peak","name":"Орта-Гидам","lat":43.52498,"lon":41.67642,"elevationM":3252},{"id":"node:1378813083","kind":"peak","name":"Серединка","lat":43.6141743,"lon":41.1062801,"elevationM":2927},{"id":"node:1382790710","kind":"peak","name":"Орленок Восточный","lat":43.4685272,"lon":41.1946014,"elevationM":3031},{"id":"node:1408497181","kind":"peak","name":"Джамараклитебе","lat":43.6016143,"lon":41.2761093,"elevationM":2937},{"id":"node:1450899732","kind":"peak","name":"Калайтан","lat":43.435008,"lon":41.2343036,"elevationM":3251},{"id":"node:1450899791","kind":"peak","name":"Архызских Спасателей","lat":43.4459513,"lon":41.2229401,"elevationM":3231},{"id":"node:1450899839","kind":"peak","name":"Батак","lat":43.4601498,"lon":41.2152656,"elevationM":3130},{"id":"node:1450899842","kind":"peak","name":"КЧАО","lat":43.4620496,"lon":41.2277731,"elevationM":2871},{"id":"node:1654097436","kind":"peak","name":"Бол. Хатипара","lat":43.4400555,"lon":41.6759395,"elevationM":3151},{"id":"node:1654097578","kind":"peak","name":"Малая Марка","lat":43.4322917,"lon":41.5816489,"elevationM":3746},{"id":"node:1654097595","kind":"peak","name":"Хаджибей-Баши","lat":43.4180685,"lon":41.5969338,"elevationM":3737},{"id":"node:1654111456","kind":"peak","name":"Кынгыр-Чад","lat":43.5086894,"lon":41.6445197,"elevationM":3543},{"id":"node:1654122291","kind":"peak","name":"Лысая","lat":43.4905069,"lon":41.7072139,"elevationM":2582},{"id":"node:1656363227","kind":"peak","name":"Аюлю","lat":43.4764275,"lon":41.1050207,"elevationM":3063},{"id":"node:1656377300","kind":"peak","name":"Заксан-Сырт","lat":43.5427989,"lon":41.0264645,"elevationM":3097},{"id":"node:1657377423","kind":"peak","name":"Дзичекиш","lat":43.4652473,"lon":41.000665,"elevationM":2810},{"id":"node:1657605475","kind":"peak","name":"Кельбаши","lat":43.4343795,"lon":41.7743969,"elevationM":2844},{"id":"node:1657605477","kind":"peak","name":"Назалыбек","lat":43.399783,"lon":41.8265768,"elevationM":3406},{"id":"node:1657645249","kind":"peak","name":"Бекбаши","lat":43.3828633,"lon":41.9500156,"elevationM":3221},{"id":"node:1657735805","kind":"peak","name":"Ачхиштарабаши","lat":43.517381,"lon":41.7085754,"elevationM":2829},{"id":"node:1657757818","kind":"peak","name":"Назалыколбаши","lat":43.3301719,"lon":41.8293482,"elevationM":3626},{"id":"node:1657757821","kind":"peak","name":"Муруджинская игла","lat":43.3076078,"lon":41.8426956,"elevationM":3591},{"id":"node:1657757837","kind":"peak","name":"Чертова гора","lat":43.3916567,"lon":41.7671262,"elevationM":3335},{"id":"node:1658634288","kind":"peak","name":"Гидамбаши","lat":43.5703032,"lon":41.7271762,"elevationM":2471},{"id":"node:1661840328","kind":"peak","name":"Красная","lat":43.535265,"lon":41.3110184,"elevationM":2778},{"id":"node:1666170639","kind":"peak","name":"Тегреккая","lat":43.5820824,"lon":41.9020931,"elevationM":2049},{"id":"node:1668847694","kind":"peak","name":"Узловая","lat":43.2908732,"lon":41.9102561,"elevationM":3377},{"id":"node:1668960304","kind":"peak","name":"Даут","lat":43.2863514,"lon":41.8964052,"elevationM":3748},{"id":"node:1695968678","kind":"peak","name":"Марка Бикаус","lat":43.5015953,"lon":41.5672274,"elevationM":2772},{"id":"node:1695968700","kind":"peak","name":"Сухая Марка","lat":43.4455308,"lon":41.5249687,"elevationM":3353},{"id":"node:1696014245","kind":"peak","name":"Большой Карабек","lat":43.5521617,"lon":41.4289795,"elevationM":null},{"id":"node:1778894295","kind":"peak","name":"Дурицких","lat":43.6054011,"lon":41.1267571,"elevationM":3097},{"id":"node:1781854243","kind":"peak","name":"Большой Хутый","lat":43.3633923,"lon":41.6011126,"elevationM":3277},{"id":"node:1781875222","kind":"peak","name":"Малый Хутый","lat":43.3511351,"lon":41.6310901,"elevationM":3059},{"id":"node:1785863366","kind":"peak","name":"Белая Папаха","lat":43.4539456,"lon":41.6247981,"elevationM":3220},{"id":"node:1787148166","kind":"peak","name":"Кызыл-Ауш-Дуппур","lat":43.4774506,"lon":41.4520937,"elevationM":3426},{"id":"node:1794702225","kind":"peak","name":"Чумкузба","lat":43.1494968,"lon":41.1162761,"elevationM":2070},{"id":"node:1819200859","kind":"peak","name":"Кумбыж","lat":43.6261461,"lon":41.1685542,"elevationM":3099},{"id":"node:1819200902","kind":"peak","name":"Кумбыж","lat":43.6376193,"lon":41.1909057,"elevationM":3100},{"id":"node:1830535056","kind":"peak","name":"Бадук-баши","lat":43.3983702,"lon":41.5854161,"elevationM":3590},{"id":"node:1830535061","kind":"peak","name":"Будукские Пальцы","lat":43.390688,"lon":41.6012574,"elevationM":3474},{"id":"node:1878795597","kind":"peak","name":"Мифи","lat":43.3004642,"lon":41.8771717,"elevationM":3677},{"id":"node:1878801481","kind":"peak","name":"Уллукёльбаши","lat":43.3194253,"lon":41.9210033,"elevationM":null},{"id":"node:1878801496","kind":"peak","name":"Уллукёльбаши Главная","lat":43.3183138,"lon":41.9326415,"elevationM":null},{"id":"node:1908847992","kind":"peak","name":"Речепста Малая","lat":43.599151,"lon":41.0736759,"elevationM":2851},{"id":"node:1985857737","kind":"peak","name":"Морг-Сырты","lat":43.512453,"lon":41.3633102,"elevationM":3141},{"id":"node:1988011811","kind":"peak","name":"Марка-Баши","lat":43.3811603,"lon":41.5301413,"elevationM":3596},{"id":"node:1988011823","kind":"peak","name":"Большая Марка","lat":43.3708289,"lon":41.5514182,"elevationM":3758},{"id":"node:1988031283","kind":"peak","name":"Джигит-Баши","lat":43.3898135,"lon":41.5132532,"elevationM":3632},{"id":"node:2408422902","kind":"peak","name":"Красная Горка","lat":43.3630007,"lon":41.4339049,"elevationM":3160},{"id":"node:2465907561","kind":"peak","name":"Большой Киртин","lat":43.9079083,"lon":41.3228382,"elevationM":1153},{"id":"node:2470224746","kind":"peak","name":"Шапка","lat":43.9703271,"lon":41.090794,"elevationM":1243},{"id":"node:2472460250","kind":"peak","name":"Косая","lat":43.8697099,"lon":41.0675042,"elevationM":1467},{"id":"node:2476767454","kind":"peak","name":"Свинячая","lat":43.8842174,"lon":41.4235751,"elevationM":982},{"id":"node:2481343951","kind":"peak","name":"Хурук","lat":43.7600126,"lon":41.2076831,"elevationM":1815},{"id":"node:2481626465","kind":"peak","name":"Прогон","lat":43.7931138,"lon":41.4268996,"elevationM":1259},{"id":"node:2482612413","kind":"peak","name":"Чилик-Скала","lat":43.7107927,"lon":41.1154446,"elevationM":2432},{"id":"node:2540302158","kind":"peak","name":"Горячева","lat":43.5030468,"lon":41.1291747,"elevationM":3138},{"id":"node:2540304656","kind":"peak","name":"Азимба","lat":43.4195978,"lon":41.0953769,"elevationM":3361},{"id":"node:2540304657","kind":"peak","name":"Токмак","lat":43.3905867,"lon":41.2094378,"elevationM":3412},{"id":"node:2543591648","kind":"peak","name":"Карачайка","lat":43.5476902,"lon":41.0521631,"elevationM":2804},{"id":"node:2543814314","kind":"peak","name":"Тюбетейка","lat":43.3724177,"lon":41.3374377,"elevationM":2441},{"id":"node:2543814386","kind":"peak","name":"Пирамида","lat":43.3692637,"lon":41.346823,"elevationM":2773},{"id":"node:2545453388","kind":"peak","name":"Позарджик","lat":43.4285589,"lon":41.2651323,"elevationM":3184},{"id":"node:2545473488","kind":"peak","name":"Караджалмас","lat":43.5755076,"lon":41.5468373,"elevationM":2937},{"id":"node:2559571405","kind":"peak","name":"Мицешта","lat":43.7025405,"lon":41.4624339,"elevationM":1862},{"id":"node:2559572427","kind":"peak","name":"Рассыпной бугор","lat":43.6641388,"lon":41.2875781,"elevationM":2404},{"id":"node:2662946209","kind":"peak","name":"скала Молчания","lat":43.35946,"lon":41.2420253,"elevationM":null},{"id":"node:2769420072","kind":"peak","name":"Домашняя","lat":43.5620129,"lon":41.0304132,"elevationM":2727},{"id":"node:2887498663","kind":"peak","name":"пик НПИ","lat":43.3873499,"lon":41.5546223,"elevationM":3423},{"id":"node:2888486946","kind":"peak","name":"Оручат","lat":43.2628217,"lon":41.8633068,"elevationM":3331},{"id":"node:2888766866","kind":"peak","name":"Сулахат","lat":43.318064,"lon":41.5211327,"elevationM":3409},{"id":"node:2901010677","kind":"peak","name":"Семенов-Баши","lat":43.327377,"lon":41.5838635,"elevationM":3602},{"id":"node:2901010696","kind":"peak","name":"Кругозор","lat":43.318712,"lon":41.5968225,"elevationM":3185},{"id":"node:2946427878","kind":"peak","name":"Белала-Кая","lat":43.2648469,"lon":41.5824473,"elevationM":3861},{"id":"node:2946427880","kind":"peak","name":"Птыш","lat":43.2169829,"lon":41.6843429,"elevationM":3688},{"id":"node:2946427882","kind":"peak","name":"пик Инэ","lat":43.2549794,"lon":41.6611397,"elevationM":3455},{"id":"node:2948121145","kind":"peak","name":"пик Раздельный","lat":43.2933212,"lon":41.5259298,"elevationM":3276},{"id":"node:2948121152","kind":"peak","name":"Пик КАП","lat":43.2810396,"lon":41.5560118,"elevationM":3207},{"id":"node:2948121153","kind":"peak","name":"Узловой Джалаучат","lat":43.2871127,"lon":41.5114351,"elevationM":3711},{"id":"node:2948121161","kind":"peak","name":"Сунахет","lat":43.2940317,"lon":41.5093948,"elevationM":3850},{"id":"node:2949534543","kind":"peak","name":"Ацгара","lat":43.2036517,"lon":41.5954279,"elevationM":2670},{"id":"node:2949534545","kind":"peak","name":"Мусат-Чери","lat":43.2990341,"lon":41.6634495,"elevationM":3012},{"id":"node:2949535450","kind":"peak","name":"Даттах-Кая","lat":43.2638569,"lon":41.7815114,"elevationM":3183},{"id":"node:2949535478","kind":"peak","name":"пик Наука","lat":43.2215975,"lon":41.6352765,"elevationM":3549},{"id":"node:2949535481","kind":"peak","name":"Даттахкая (Елены Мухамедовой)","lat":43.2399312,"lon":41.791236,"elevationM":3613},{"id":"node:2949535490","kind":"peak","name":"Аманаузбаши","lat":43.2269972,"lon":41.6113058,"elevationM":3752},{"id":"node:2949535491","kind":"peak","name":"Малый Домбай-Ульген","lat":43.2513619,"lon":41.7209358,"elevationM":3758},{"id":"node:2949535493","kind":"peak","name":"Западная Домбай-Ульген","lat":43.2398406,"lon":41.7218161,"elevationM":4004},{"id":"node:2952242876","kind":"peak","name":"Чимуллярбаши","lat":43.4902624,"lon":41.9344853,"elevationM":3336},{"id":"node:2952247072","kind":"peak","name":"Уллукёль Малая","lat":43.3152997,"lon":41.9392923,"elevationM":3249},{"id":"node:2953061161","kind":"peak","name":"Джингирик","lat":43.7049655,"lon":41.8857423,"elevationM":1639},{"id":"node:2955037386","kind":"peak","name":"Нахар","lat":43.2533569,"lon":41.9611801,"elevationM":3785},{"id":"node:2955037388","kind":"peak","name":"Двузубка","lat":43.263165,"lon":41.9668504,"elevationM":3605},{"id":"node:2955038579","kind":"peak","name":"Трезубец","lat":43.2747939,"lon":41.9846496,"elevationM":3181},{"id":"node:3010578696","kind":"peak","name":"Сулахатский","lat":43.3217415,"lon":41.5246134,"elevationM":3240},{"id":"node:3034724479","kind":"peak","name":"Пештера","lat":43.4588501,"lon":41.2299194,"elevationM":2955},{"id":"node:3084286994","kind":"peak","name":"Дзыхва","lat":43.2215705,"lon":41.152269,"elevationM":2711},{"id":"node:3114280756","kind":"peak","name":"Амакчат","lat":43.5788114,"lon":41.4187397,"elevationM":2786},{"id":"node:3405395477","kind":"peak","name":"Кичи-Теберда","lat":43.3303955,"lon":41.5294522,"elevationM":3431},{"id":"node:3420909912","kind":"peak","name":"Малая Семенов-Баши","lat":43.3300041,"lon":41.5659676,"elevationM":3452},{"id":"node:3489011948","kind":"peak","name":"Mount Akhsirkhva","lat":43.1998778,"lon":41.4108864,"elevationM":2735},{"id":"node:3489011975","kind":"peak","name":"Сухая","lat":43.1616754,"lon":41.4405308,"elevationM":2251},{"id":"node:3489011979","kind":"peak","name":"Ацгара","lat":43.1723721,"lon":41.4796658,"elevationM":2686},{"id":"node:3489012462","kind":"peak","name":"Капышистра","lat":43.2927416,"lon":41.19065,"elevationM":3138},{"id":"node:3489012465","kind":"peak","name":"Mount Khana","lat":43.2946565,"lon":41.108786,"elevationM":2694},{"id":"node:3561077004","kind":"peak","name":"Сюнгю","lat":43.3751484,"lon":41.2763388,"elevationM":3200},{"id":"node:3732947421","kind":"peak","name":"Колокольня","lat":43.9542123,"lon":41.9323217,"elevationM":null},{"id":"node:3733018197","kind":"peak","name":"Джангур","lat":43.9074181,"lon":41.7924766,"elevationM":1560},{"id":"node:3733018198","kind":"peak","name":"Гора-кольцо","lat":43.9739529,"lon":41.8779975,"elevationM":null},{"id":"node:3749309718","kind":"peak","name":"Узловая","lat":43.4030839,"lon":41.153554,"elevationM":null},{"id":"node:3749310576","kind":"peak","name":"Мелиоратор","lat":43.4286642,"lon":41.2623843,"elevationM":3055},{"id":"node:3749310595","kind":"peak","name":"Панагюриште","lat":43.430696,"lon":41.266033,"elevationM":3074},{"id":"node:3749310612","kind":"peak","name":"Кисловодск","lat":43.4351099,"lon":41.2687285,"elevationM":2973},{"id":"node:3749310657","kind":"peak","name":"Аширхумара","lat":43.4421218,"lon":41.0714122,"elevationM":2923},{"id":"node:3757965633","kind":"peak","name":"Западный Марух","lat":43.3520773,"lon":41.3959313,"elevationM":3418},{"id":"node:3757965635","kind":"peak","name":"Низкий Марух","lat":43.3239005,"lon":41.4134645,"elevationM":3487},{"id":"node:3757965636","kind":"peak","name":"Марухская","lat":43.3387596,"lon":41.4093276,"elevationM":3675},{"id":"node:3803323367","kind":"peak","name":"Россыпной Бугор","lat":43.6666741,"lon":41.2804582,"elevationM":2200},{"id":"node:3891335518","kind":"peak","name":"Орленок Центральный","lat":43.4694925,"lon":41.193058,"elevationM":null},{"id":"node:3891358184","kind":"peak","name":"40-лет НРБ","lat":43.4687029,"lon":41.2113925,"elevationM":3207},{"id":"node:3891546714","kind":"peak","name":"Пятигорск","lat":43.4198291,"lon":41.2617267,"elevationM":3398},{"id":"node:4144925393","kind":"peak","name":"Агуминге","lat":43.2732622,"lon":41.9659036,"elevationM":3203},{"id":"node:4144929129","kind":"peak","name":"Шидакминге","lat":43.258725,"lon":41.9690551,"elevationM":3550},{"id":"node:4262158583","kind":"peak","name":"Пастбищная","lat":43.5934404,"lon":41.076443,"elevationM":2745},{"id":"node:4399522194","kind":"peak","name":"Рынджи-Аге","lat":43.3290023,"lon":41.9201579,"elevationM":3731},{"id":"node:4401523175","kind":"peak","name":"Мраморная","lat":43.5965783,"lon":41.1367384,"elevationM":3114},{"id":"node:4401523914","kind":"peak","name":"Турья","lat":43.6048557,"lon":41.1697375,"elevationM":null},{"id":"node:4401603467","kind":"peak","name":"Разломистая","lat":43.5248198,"lon":41.0364814,"elevationM":2867},{"id":"node:4422623082","kind":"peak","name":"Хызчерцахра","lat":43.5941786,"lon":41.3305406,"elevationM":2818},{"id":"node:4422841316","kind":"peak","name":"Псыш Западный","lat":43.3838931,"lon":41.1896829,"elevationM":3490},{"id":"node:4431143439","kind":"peak","name":"Туманлытау","lat":43.2866824,"lon":41.4875365,"elevationM":3696},{"id":"node:4458309942","kind":"peak","name":"Ануква","lat":43.1754347,"lon":41.8140825,"elevationM":3424},{"id":"node:4458309974","kind":"peak","name":"Хецквара","lat":43.1857538,"lon":41.8047591,"elevationM":3441},{"id":"node:4460782844","kind":"peak","name":"Малый-Хутый","lat":43.1887271,"lon":41.6837475,"elevationM":3283},{"id":"node:4460782848","kind":"peak","name":"пик Правды","lat":43.2253231,"lon":41.6413874,"elevationM":null},{"id":"node:4460782849","kind":"peak","name":"пик Театральный","lat":43.2654735,"lon":41.6337592,"elevationM":null},{"id":"node:4462074526","kind":"peak","name":"Сунахет Малая","lat":43.2978356,"lon":41.5052754,"elevationM":3414},{"id":"node:4462074529","kind":"peak","name":"Южный Аманауз","lat":43.2121744,"lon":41.6083165,"elevationM":3655},{"id":"node:4462075233","kind":"peak","name":"Квадратный","lat":43.3052883,"lon":41.5136278,"elevationM":3205},{"id":"node:4463622806","kind":"peak","name":"Январский","lat":43.5245939,"lon":41.6304819,"elevationM":3207},{"id":"node:4463623382","kind":"peak","name":"Мыстылыбаши","lat":43.5581306,"lon":41.6579987,"elevationM":2815},{"id":"node:4465092932","kind":"peak","name":"Низкий Аксаут","lat":43.3201225,"lon":41.4671331,"elevationM":3355},{"id":"node:4465092934","kind":"peak","name":"Северный Аксаут","lat":43.3141939,"lon":41.4611625,"elevationM":3492},{"id":"node:4465214357","kind":"peak","name":"Безымянная","lat":43.3202415,"lon":41.427533,"elevationM":3437},{"id":"node:4465214360","kind":"peak","name":"Братцы","lat":43.324511,"lon":41.4338415,"elevationM":3401},{"id":"node:4465214361","kind":"peak","name":"Дейта-кая","lat":43.3491767,"lon":41.4215181,"elevationM":null},{"id":"node:4465214362","kind":"peak","name":"Каракая Западный","lat":43.3553486,"lon":41.4129364,"elevationM":3585},{"id":"node:4465214363","kind":"peak","name":"Каракая","lat":43.3506356,"lon":41.4293072,"elevationM":3893},{"id":"node:4465214366","kind":"peak","name":"Прото-Кая","lat":43.3485057,"lon":41.4255844,"elevationM":null},{"id":"node:4471430975","kind":"peak","name":"Чвахра","lat":43.3247225,"lon":41.3258822,"elevationM":2938},{"id":"node:4471492574","kind":"peak","name":"Пшиш","lat":43.4089848,"lon":41.1598026,"elevationM":3790},{"id":"node:4670917518","kind":"peak","name":"Южный Нахар","lat":43.2253088,"lon":41.940686,"elevationM":3539},{"id":"node:4670919336","kind":"peak","name":"Гәараԥ","lat":43.1415708,"lon":41.5225892,"elevationM":2742},{"id":"node:4670920257","kind":"peak","name":"Хакель","lat":43.2140781,"lon":41.8292026,"elevationM":3646},{"id":"node:4670920271","kind":"peak","name":"Мохнатая","lat":43.8713104,"lon":41.1669076,"elevationM":1345},{"id":"node:4670920273","kind":"peak","name":"Агач-Баша","lat":43.2851096,"lon":41.9254816,"elevationM":3184},{"id":"node:4670921189","kind":"peak","name":"Яштхуарху","lat":43.0524008,"lon":41.0198115,"elevationM":533},{"id":"node:4670921238","kind":"peak","name":"Жвыргва","lat":43.135433,"lon":41.5976053,"elevationM":2295},{"id":"node:4670921282","kind":"peak","name":"Чилик-Второй","lat":43.6534661,"lon":41.0570392,"elevationM":3212},{"id":"node:4670921285","kind":"peak","name":"Чапал 2-й","lat":43.7179633,"lon":41.2253094,"elevationM":2130},{"id":"node:4670922193","kind":"peak","name":"Чирлы-Баши","lat":43.2915702,"lon":41.9892923,"elevationM":3051},{"id":"node:4670922206","kind":"peak","name":"Киркипал","lat":43.1210254,"lon":41.5238767,"elevationM":2565},{"id":"node:4670922255","kind":"peak","name":"Птоу","lat":43.0666677,"lon":41.3300895,"elevationM":934},{"id":"node:4670923095","kind":"peak","name":"Апианда","lat":43.1067641,"lon":41.0673932,"elevationM":921},{"id":"node:4670923099","kind":"peak","name":"Гораллыбаши","lat":43.4958624,"lon":41.9793677,"elevationM":3164},{"id":"node:4670923103","kind":"peak","name":"Южный Домбай-Ульген","lat":43.2253386,"lon":41.7136084,"elevationM":3588},{"id":"node:4670923104","kind":"peak","name":"Зуб Софруджу","lat":43.2434834,"lon":41.5916204,"elevationM":3629},{"id":"node:4670923105","kind":"peak","name":"Южный Птыш","lat":43.2071568,"lon":41.682951,"elevationM":3605},{"id":"node:4670923106","kind":"peak","name":"Западная Чотча","lat":43.2218964,"lon":41.8286743,"elevationM":3651},{"id":"node:4670923115","kind":"peak","name":"Чёртов Замок","lat":43.3700851,"lon":41.7777477,"elevationM":3526},{"id":"node:4670924291","kind":"peak","name":"Чилик-Первый","lat":43.649272,"lon":41.1173917,"elevationM":3235},{"id":"node:4670924331","kind":"peak","name":"Двушка","lat":43.350158,"lon":41.4163123,"elevationM":3893},{"id":"node:4670925303","kind":"peak","name":"Софруджу","lat":43.234733,"lon":41.588846,"elevationM":3781},{"id":"node:4670925309","kind":"peak","name":"Чхалтадзихбаши","lat":43.2493446,"lon":41.5618286,"elevationM":3730},{"id":"node:4670925380","kind":"peak","name":"Мал. Беден","lat":43.9097767,"lon":41.0711779,"elevationM":1490},{"id":"node:4670926253","kind":"peak","name":"Марухбаши","lat":43.3455506,"lon":41.411151,"elevationM":3800},{"id":"node:4670927903","kind":"peak","name":"Ак-Шатыр","lat":43.3481415,"lon":41.3228516,"elevationM":3434},{"id":"node:4670927905","kind":"peak","name":"Буульген","lat":43.2286291,"lon":41.7853989,"elevationM":3918},{"id":"node:4670928589","kind":"peak","name":"Бруш-Серты","lat":43.6205477,"lon":41.7742777,"elevationM":2361},{"id":"node:4670928643","kind":"peak","name":"Артмах","lat":43.613374,"lon":41.9150679,"elevationM":2025},{"id":"node:4670930827","kind":"peak","name":"Клухор-Кая","lat":43.2205045,"lon":41.8558029,"elevationM":3605},{"id":"node:4670930866","kind":"peak","name":"Малый Киртин","lat":43.9209851,"lon":41.3110941,"elevationM":1135},{"id":"node:4670930873","kind":"peak","name":"Больше (г. Вараха)","lat":43.9407534,"lon":41.3991936,"elevationM":1752},{"id":"node:4670931422","kind":"peak","name":"Хита","lat":43.1643312,"lon":41.7409869,"elevationM":2802},{"id":"node:4882190719","kind":"peak","name":"Пастухова","lat":43.6070198,"lon":41.4262783,"elevationM":2733},{"id":"node:4906365923","kind":"peak","name":"Чапал","lat":43.7355033,"lon":41.2965453,"elevationM":1937},{"id":"node:5943153076","kind":"peak","name":"Кызыл-Ауш","lat":43.5464796,"lon":41.5066266,"elevationM":3142},{"id":"node:6002555416","kind":"peak","name":"Речепста","lat":43.6216372,"lon":41.089351,"elevationM":3214},{"id":"node:6005590327","kind":"peak","name":"Кругозор","lat":43.43674,"lon":41.1342502,"elevationM":2599},{"id":"node:6055777591","kind":"peak","name":"Хаджибей-баши","lat":43.4174281,"lon":41.5946439,"elevationM":3733},{"id":"node:6742282594","kind":"peak","name":"Карча-Тёбе","lat":43.5736761,"lon":41.2918596,"elevationM":null},{"id":"node:9043509434","kind":"peak","name":"Клухорбаши","lat":43.2483287,"lon":41.8799364,"elevationM":3499},{"id":"node:9399292617","kind":"peak","name":"Джисса","lat":43.9286849,"lon":41.6011426,"elevationM":1610},{"id":"node:11989673426","kind":"peak","name":"Мусса-Ачитара","lat":43.288157,"lon":41.6838459,"elevationM":3200},{"id":"node:12281133845","kind":"peak","name":"Джелтмес","lat":43.6328113,"lon":41.6175427,"elevationM":2365},{"id":"node:12285037134","kind":"peak","name":"Ожум","lat":43.6877459,"lon":41.5651969,"elevationM":null},{"id":"node:12492051885","kind":"peak","name":"Белая","lat":43.1124366,"lon":41.513249,"elevationM":null},{"id":"node:12492051889","kind":"peak","name":"Лунчи (Линча-Алинча)","lat":43.1029452,"lon":41.5077585,"elevationM":null},{"id":"node:12492337962","kind":"peak","name":"Малый Шьхапач","lat":43.1177681,"lon":41.3342893,"elevationM":1803},{"id":"node:12492337963","kind":"peak","name":"Шишвелимта","lat":43.1377235,"lon":41.3411128,"elevationM":1891},{"id":"node:12492705080","kind":"peak","name":"Боль. Схапач","lat":43.1881017,"lon":41.2469727,"elevationM":2237},{"id":"node:12495647336","kind":"peak","name":"Лар","lat":43.1246233,"lon":41.2174563,"elevationM":null},{"id":"node:12520984665","kind":"peak","name":"Анантвара (Кама)","lat":43.3089881,"lon":41.0765076,"elevationM":2808},{"id":"node:12766072379","kind":"peak","name":"Гуаштхуа","lat":43.3882844,"lon":41.0719827,"elevationM":2761},{"id":"node:12809306501","kind":"peak","name":"Баранаха","lat":43.9711573,"lon":41.2855986,"elevationM":null}]}