{"tileKey":"la_p6_lo_m74","version":"v1-1775891056926","entries":[{"id":"node:617478225","kind":"peak","name":"Loma Montecristo","lat":6.4316426,"lon":-73.2149125,"elevationM":1768},{"id":"node:617478231","kind":"peak","name":"Loma Margarita","lat":6.3093483,"lon":-73.1388198,"elevationM":null},{"id":"node:629027807","kind":"peak","name":"Cerro Churri Churri","lat":6.270833,"lon":-73.494167,"elevationM":null},{"id":"node:629027808","kind":"peak","name":"Cerro Cucaracha","lat":6.016667,"lon":-73.433333,"elevationM":null},{"id":"node:629027809","kind":"peak","name":"Alto Delicias","lat":6.05,"lon":-73.466667,"elevationM":null},{"id":"node:629027810","kind":"peak","name":"Alto Cenón","lat":6.033333,"lon":-73.4,"elevationM":null},{"id":"node:629027811","kind":"peak","name":"Alto Manchadores","lat":6.05,"lon":-73.383333,"elevationM":null},{"id":"node:629027812","kind":"peak","name":"Alto Juan Nieto","lat":6.066667,"lon":-73.45,"elevationM":null},{"id":"node:629027813","kind":"peak","name":"Gallinazo","lat":6.095556,"lon":-73.415,"elevationM":null},{"id":"node:629027814","kind":"peak","name":"Loma Castame","lat":6.041389,"lon":-73.279722,"elevationM":null},{"id":"node:629027815","kind":"peak","name":"Cerro Venado","lat":6,"lon":-73.2,"elevationM":null},{"id":"node:629027816","kind":"peak","name":"Loma Machamanga","lat":6.100833,"lon":-73.163333,"elevationM":null},{"id":"node:629027817","kind":"peak","name":"Alto del Cedro","lat":6.0911109,"lon":-73.1450001,"elevationM":2445},{"id":"node:629027818","kind":"peak","name":"Loma San Benito","lat":6.129167,"lon":-73.212778,"elevationM":2032},{"id":"node:629027819","kind":"peak","name":"Loma Bramador","lat":6.1284862,"lon":-73.1679944,"elevationM":null},{"id":"node:629027820","kind":"peak","name":"Loma Perico","lat":6.1427117,"lon":-73.1350391,"elevationM":1890},{"id":"node:629027821","kind":"peak","name":"Cerro La Meseta","lat":6.166667,"lon":-73.433333,"elevationM":null},{"id":"node:629027822","kind":"peak","name":"Alto Piedras de Amaral","lat":6.158611,"lon":-73.394167,"elevationM":null},{"id":"node:629027823","kind":"peak","name":"Loma La Gloria","lat":6.170278,"lon":-73.363889,"elevationM":null},{"id":"node:629027824","kind":"peak","name":"Loma San Joaquín","lat":6.226944,"lon":-73.331111,"elevationM":null},{"id":"node:629027825","kind":"peak","name":"Alto El Tigre","lat":6.252222,"lon":-73.463611,"elevationM":null},{"id":"node:629027826","kind":"peak","name":"Alto del Aliñadero","lat":6.3,"lon":-73.45,"elevationM":null},{"id":"node:629027827","kind":"peak","name":"Loma Buenavista","lat":6.290278,"lon":-73.325278,"elevationM":null},{"id":"node:629027828","kind":"peak","name":"Cerro Negro","lat":6.194167,"lon":-73.241667,"elevationM":null},{"id":"node:629027829","kind":"peak","name":"Loma Los Adioses","lat":6.224722,"lon":-73.272222,"elevationM":null},{"id":"node:629027830","kind":"peak","name":"Loma Paipa","lat":6.1725,"lon":-73.179444,"elevationM":1546},{"id":"node:629027831","kind":"peak","name":"Alto El Picacho","lat":6.186517,"lon":-73.1327408,"elevationM":2130},{"id":"node:629027832","kind":"peak","name":"Alto Pozo Azul","lat":6.191966,"lon":-73.1655912,"elevationM":1602},{"id":"node:629027833","kind":"peak","name":"Morro Platanillo","lat":6.233056,"lon":-73.205,"elevationM":1930},{"id":"node:629027835","kind":"peak","name":"Loma Sevilla","lat":6.258889,"lon":-73.259444,"elevationM":null},{"id":"node:629027837","kind":"peak","name":"Alto Las Cruces","lat":6.276111,"lon":-73.274167,"elevationM":null},{"id":"node:629027839","kind":"peak","name":"Loma La Falda","lat":6.325278,"lon":-73.249167,"elevationM":null},{"id":"node:629027841","kind":"peak","name":"Alto Cara de Perro","lat":6.308611,"lon":-73.233611,"elevationM":null},{"id":"node:629027842","kind":"peak","name":"Alto Arenas Blancas","lat":6.327778,"lon":-73.226389,"elevationM":null},{"id":"node:629027846","kind":"peak","name":"Alto Las Aguilas","lat":6.342778,"lon":-73.390833,"elevationM":null},{"id":"node:629027847","kind":"peak","name":"Cueva Colorada","lat":6.391667,"lon":-73.435556,"elevationM":null},{"id":"node:629027848","kind":"peak","name":"Alto Pan de Azúcar","lat":6.383889,"lon":-73.425278,"elevationM":null},{"id":"node:629027849","kind":"peak","name":"Cerro Páramo","lat":6.428889,"lon":-73.369167,"elevationM":null},{"id":"node:629027850","kind":"peak","name":"Cerro Sibalbín","lat":6.461667,"lon":-73.359722,"elevationM":null},{"id":"node:629027851","kind":"peak","name":"Cerro Alta Cruz","lat":6.4875,"lon":-73.353333,"elevationM":null},{"id":"node:629027852","kind":"peak","name":"Loma Medio Mundo","lat":6.357778,"lon":-73.256389,"elevationM":null},{"id":"node:629027853","kind":"peak","name":"Alto Las Pavas","lat":6.373333,"lon":-73.245833,"elevationM":null},{"id":"node:629027856","kind":"peak","name":"Loma del Río","lat":6.4148786,"lon":-73.162761,"elevationM":null},{"id":"node:629027857","kind":"peak","name":"Alto Las Niguas","lat":6.488333,"lon":-73.148056,"elevationM":null},{"id":"node:629027872","kind":"peak","name":"Loma Sabaneta","lat":6.0655647,"lon":-73.1192819,"elevationM":null},{"id":"node:629027878","kind":"peak","name":"Loma Pecachal","lat":6.1972819,"lon":-73.1133929,"elevationM":null},{"id":"node:629027879","kind":"peak","name":"Alto Avispa","lat":6.17849,"lon":-73.0959823,"elevationM":null},{"id":"node:629027880","kind":"peak","name":"Alto Maraviche","lat":6.1583327,"lon":-73.0762407,"elevationM":2380},{"id":"node:629027881","kind":"peak","name":"Alto Macaregua","lat":6.193162,"lon":-73.0407901,"elevationM":null},{"id":"node:629027883","kind":"peak","name":"Alto La Ermita","lat":6.220657,"lon":-73.0492622,"elevationM":null},{"id":"node:629027884","kind":"peak","name":"Morro Atravesado","lat":6.2359397,"lon":-73.0179292,"elevationM":null},{"id":"node:629027885","kind":"peak","name":"Alto El Piñal","lat":6.243483,"lon":-73.1088614,"elevationM":1662},{"id":"node:629027888","kind":"peak","name":"Alto El Naranjal","lat":6.2681638,"lon":-73.0483888,"elevationM":1820},{"id":"node:629027890","kind":"peak","name":"Loma Los Arrayanes","lat":6.297722,"lon":-73.0723879,"elevationM":1709},{"id":"node:629027924","kind":"peak","name":"Alto El Santuario","lat":6.338333,"lon":-73.041667,"elevationM":2216},{"id":"node:629027925","kind":"peak","name":"Alto Las Escaleras","lat":6.388611,"lon":-73.109722,"elevationM":null},{"id":"node:629027926","kind":"peak","name":"Alto Caracuchal","lat":6.377222,"lon":-73.121111,"elevationM":null},{"id":"node:629027929","kind":"peak","name":"Alto Chinival","lat":6.378611,"lon":-73.075,"elevationM":null},{"id":"node:629027930","kind":"peak","name":"Alto Las Cruces","lat":6.418611,"lon":-73.091944,"elevationM":null},{"id":"node:629027931","kind":"peak","name":"Alto El Pozo","lat":6.458611,"lon":-73.058056,"elevationM":null},{"id":"node:629027933","kind":"peak","name":"Loma El Cerro","lat":6.443889,"lon":-73.075556,"elevationM":null},{"id":"node:629027934","kind":"peak","name":"Alto Panamá","lat":6.421468,"lon":-73.0118601,"elevationM":null},{"id":"node:629027935","kind":"peak","name":"Alto El Yuco","lat":6.4654691,"lon":-73.0230374,"elevationM":null},{"id":"node:703230155","kind":"peak","name":"Cuchilla El Tacajo","lat":6.01334,"lon":-73.48001,"elevationM":null},{"id":"node:703521271","kind":"peak","name":"Cerro Churri Churri","lat":6.2699551,"lon":-73.4918346,"elevationM":null},{"id":"node:703521286","kind":"peak","name":"Loma Mascachoque","lat":6.0015255,"lon":-73.3426735,"elevationM":null},{"id":"node:703521287","kind":"peak","name":"Loma La Gloria","lat":6.1014916,"lon":-73.3996765,"elevationM":null},{"id":"node:703521297","kind":"peak","name":"Alto Bello","lat":6.0815351,"lon":-73.3559257,"elevationM":null},{"id":"node:703521300","kind":"peak","name":"Loma De Paja","lat":6.1036188,"lon":-73.3432913,"elevationM":null},{"id":"node:703521328","kind":"peak","name":"Loma Castame","lat":6.0372521,"lon":-73.2998015,"elevationM":null},{"id":"node:703521329","kind":"peak","name":"Cuchilla La Vieja","lat":6.0312066,"lon":-73.2784603,"elevationM":null},{"id":"node:703521338","kind":"peak","name":"Cuchilla La Vieja","lat":6.042605,"lon":-73.2381622,"elevationM":null},{"id":"node:703521351","kind":"peak","name":"Loma San Benito","lat":6.1412069,"lon":-73.2301587,"elevationM":null},{"id":"node:703521362","kind":"peak","name":"Alto Del Cedro","lat":6.0966948,"lon":-73.1394368,"elevationM":null},{"id":"node:703521363","kind":"peak","name":"Loma Machamanga","lat":6.098144,"lon":-73.1610138,"elevationM":null},{"id":"node:703521368","kind":"peak","name":"Loma La Machamango","lat":6.1117675,"lon":-73.1926356,"elevationM":1749},{"id":"node:703521373","kind":"peak","name":"Loma San Benito","lat":6.1324418,"lon":-73.2070662,"elevationM":1856},{"id":"node:703521380","kind":"peak","name":"Alto Piedras De Amaral","lat":6.1538578,"lon":-73.4084249,"elevationM":null},{"id":"node:703521413","kind":"peak","name":"Loma San Joaquin","lat":6.2267774,"lon":-73.3478463,"elevationM":null},{"id":"node:703521454","kind":"peak","name":"Alto Suarez","lat":6.3047359,"lon":-73.408747,"elevationM":null},{"id":"node:703521456","kind":"peak","name":"Alto Suarez","lat":6.2884727,"lon":-73.3932888,"elevationM":null},{"id":"node:703521491","kind":"peak","name":"Loma Buenavista","lat":6.29121,"lon":-73.3223584,"elevationM":null},{"id":"node:703521505","kind":"peak","name":"Morro De Pantanillo","lat":6.1912453,"lon":-73.2474404,"elevationM":null},{"id":"node:703521509","kind":"peak","name":"Cerro Negro","lat":6.1962067,"lon":-73.241203,"elevationM":null},{"id":"node:703521511","kind":"peak","name":"Loma San Benito","lat":6.16207,"lon":-73.2236516,"elevationM":2055},{"id":"node:703521514","kind":"peak","name":"Loma Los Adioses","lat":6.2280892,"lon":-73.2758229,"elevationM":null},{"id":"node:703521544","kind":"peak","name":"Alto La Caja","lat":6.2270075,"lon":-73.1315917,"elevationM":2010},{"id":"node:703521555","kind":"peak","name":"Loma La Falda","lat":6.2783699,"lon":-73.269087,"elevationM":null},{"id":"node:703521557","kind":"peak","name":"Loma Piedras Coloradas","lat":6.2472509,"lon":-73.291281,"elevationM":null},{"id":"node:703521560","kind":"peak","name":"Alto Las Cruces","lat":6.2781672,"lon":-73.2735685,"elevationM":null},{"id":"node:703521561","kind":"peak","name":"Alto Cara De Perro","lat":6.3097276,"lon":-73.2354062,"elevationM":null},{"id":"node:703521562","kind":"peak","name":"Loma La Falda","lat":6.3261519,"lon":-73.2508644,"elevationM":null},{"id":"node:703521574","kind":"peak","name":"Alto Mercado","lat":6.2460656,"lon":-73.1575739,"elevationM":1355},{"id":"node:703521769","kind":"peak","name":"Alto Parra","lat":6.575169,"lon":-73.9407372,"elevationM":null},{"id":"node:703521936","kind":"peak","name":"Serrania Los Cobardes","lat":6.362543,"lon":-73.48008,"elevationM":null},{"id":"node:703521997","kind":"peak","name":"Alto Cascajales - Sardinas","lat":6.6249473,"lon":-73.572371,"elevationM":null},{"id":"node:703522003","kind":"peak","name":"Filo De Oro","lat":6.6550526,"lon":-73.5879554,"elevationM":null},{"id":"node:703522004","kind":"peak","name":"Alto Cascajales - Puerto Mec","lat":6.6511514,"lon":-73.5695351,"elevationM":null},{"id":"node:703522025","kind":"peak","name":"Alto Las Aguilas","lat":6.341127,"lon":-73.3918396,"elevationM":null},{"id":"node:703522040","kind":"peak","name":"Alto Pan De Azucar","lat":6.3916881,"lon":-73.3976364,"elevationM":null},{"id":"node:703522095","kind":"peak","name":"Cerro Paramo","lat":6.4304945,"lon":-73.3696185,"elevationM":null},{"id":"node:703522102","kind":"peak","name":"Cerro Silbalbin","lat":6.462055,"lon":-73.3615674,"elevationM":null},{"id":"node:703522103","kind":"peak","name":"Cuchilla Carbonera","lat":6.4738096,"lon":-73.3752543,"elevationM":null},{"id":"node:703522118","kind":"peak","name":"Loma Medio Mundo","lat":6.3654414,"lon":-73.2600427,"elevationM":null},{"id":"node:703522121","kind":"peak","name":"Alto Arenas Blancas","lat":6.3288893,"lon":-73.2273551,"elevationM":null},{"id":"node:703522137","kind":"peak","name":"Alto Las Pavas","lat":6.376874,"lon":-73.248127,"elevationM":null},{"id":"node:703522140","kind":"peak","name":"Loma La Cuchilla","lat":6.3944255,"lon":-73.2297704,"elevationM":null},{"id":"node:703522147","kind":"peak","name":"Loma La Porquera","lat":6.3466018,"lon":-73.1313856,"elevationM":null},{"id":"node:703522193","kind":"peak","name":"Filo Del Hambre","lat":6.5098832,"lon":-73.4361478,"elevationM":3355},{"id":"node:703522202","kind":"peak","name":"Cerro Matamoros","lat":6.5312599,"lon":-73.3531804,"elevationM":null},{"id":"node:703522334","kind":"peak","name":"Cuchilla San Pablo","lat":6.5899205,"lon":-73.3366518,"elevationM":null},{"id":"node:703522341","kind":"peak","name":"Filo Arbolita","lat":6.6103092,"lon":-73.3010354,"elevationM":null},{"id":"node:703522368","kind":"peak","name":"Cerro Pan De Azucar","lat":6.6187138,"lon":-73.3642959,"elevationM":2840},{"id":"node:703522383","kind":"peak","name":"Cuchilla El Cerro","lat":6.622405,"lon":-73.3274738,"elevationM":null},{"id":"node:703522387","kind":"peak","name":"Cuchilla Campo Alegre","lat":6.6607886,"lon":-73.352923,"elevationM":null},{"id":"node:703522392","kind":"peak","name":"Cuchilla La Victoria","lat":6.6651097,"lon":-73.369547,"elevationM":null},{"id":"node:703522530","kind":"peak","name":"Filo Calapales","lat":6.5179298,"lon":-73.2098841,"elevationM":null},{"id":"node:703522558","kind":"peak","name":"Filo El Volador","lat":6.5733918,"lon":-73.1906486,"elevationM":null},{"id":"node:703522601","kind":"peak","name":"Filo Tierranegra","lat":6.6748324,"lon":-73.1900004,"elevationM":null},{"id":"node:703522654","kind":"peak","name":"Alto Viento","lat":6.7516421,"lon":-73.7005254,"elevationM":null},{"id":"node:703522790","kind":"peak","name":"Alto Viento","lat":6.8195151,"lon":-73.5148569,"elevationM":null},{"id":"node:703523067","kind":"peak","name":"Cerro Pamplona","lat":6.7560174,"lon":-73.4567276,"elevationM":null},{"id":"node:703523073","kind":"peak","name":"Cuchilla Viguecha","lat":6.7138112,"lon":-73.344901,"elevationM":2325},{"id":"node:703523074","kind":"peak","name":"Cerro Alto Grande","lat":6.6899285,"lon":-73.3268434,"elevationM":1920},{"id":"node:703523112","kind":"peak","name":"Loma Paloblanco","lat":6.8026865,"lon":-73.4442501,"elevationM":null},{"id":"node:703523120","kind":"peak","name":"Sierra La Magdalena","lat":6.8420636,"lon":-73.4599686,"elevationM":null},{"id":"node:703523128","kind":"peak","name":"Cuchilla San Javier","lat":6.825025,"lon":-73.3232702,"elevationM":null},{"id":"node:703523134","kind":"peak","name":"Alto Bola","lat":6.7075657,"lon":-73.2287293,"elevationM":null},{"id":"node:703523157","kind":"peak","name":"Cuchilla La Aguada","lat":6.6899027,"lon":-73.2977608,"elevationM":null},{"id":"node:703523159","kind":"peak","name":"Cuchilla Aricon","lat":6.68731,"lon":-73.2687546,"elevationM":null},{"id":"node:703523169","kind":"peak","name":"Alto Maria","lat":6.6949261,"lon":-73.1420348,"elevationM":null},{"id":"node:703523186","kind":"peak","name":"Pico La Vieja","lat":6.8401191,"lon":-73.2262986,"elevationM":null},{"id":"node:703523201","kind":"peak","name":"Cuchilla Carpintero","lat":6.8598887,"lon":-73.4058453,"elevationM":null},{"id":"node:703523213","kind":"peak","name":"Cerro Barro Amarillo","lat":6.9418838,"lon":-73.4492735,"elevationM":null},{"id":"node:703523222","kind":"peak","name":"Filo Santa Lucia","lat":6.8779503,"lon":-73.3371049,"elevationM":null},{"id":"node:703523229","kind":"peak","name":"Cerro Loma Pedonde","lat":6.9187673,"lon":-73.3426869,"elevationM":null},{"id":"node:703523244","kind":"peak","name":"Cuchilla La Paz","lat":6.9729966,"lon":-73.4379303,"elevationM":null},{"id":"node:703523248","kind":"peak","name":"Alto El Corozo","lat":6.9200783,"lon":-73.1752959,"elevationM":null},{"id":"node:703523250","kind":"peak","name":"Cuchilla De Montes","lat":6.9253551,"lon":-73.1436553,"elevationM":null},{"id":"node:703523251","kind":"peak","name":"Cerro El Moro","lat":6.8879226,"lon":-73.1368494,"elevationM":null},{"id":"node:703523252","kind":"peak","name":"Cerro El Artico","lat":6.8653982,"lon":-73.1804397,"elevationM":null},{"id":"node:703523253","kind":"peak","name":"Loma De Corrales","lat":6.8759312,"lon":-73.2527121,"elevationM":null},{"id":"node:703523256","kind":"peak","name":"Cuchilla De Cantalta","lat":6.9627877,"lon":-73.1843288,"elevationM":null},{"id":"node:703523269","kind":"peak","name":"Alto Paramo Viejo","lat":6.9851192,"lon":-73.2061538,"elevationM":null},{"id":"node:703523272","kind":"peak","name":"Loma Guaimaral","lat":6.9522391,"lon":-73.2076864,"elevationM":null},{"id":"node:703523933","kind":"peak","name":"Alto Del Miradero","lat":6.0571693,"lon":-73.0016645,"elevationM":3652},{"id":"node:703523934","kind":"peak","name":"Serrania Peña Blanca","lat":6.0533198,"lon":-73.0699445,"elevationM":null},{"id":"node:703523936","kind":"peak","name":"Cuchilla San Jose","lat":6.0463169,"lon":-73.0807079,"elevationM":null},{"id":"node:703523944","kind":"peak","name":"Serrania Peña Blanca","lat":6.0131598,"lon":-73.0685895,"elevationM":3810},{"id":"node:703523945","kind":"peak","name":"Cuchilla San Jose","lat":6.0904647,"lon":-73.1054045,"elevationM":null},{"id":"node:703523950","kind":"peak","name":"Loma Sabaneta","lat":6.0726136,"lon":-73.1176412,"elevationM":null},{"id":"node:703523951","kind":"peak","name":"Monte Las Playas","lat":6.0659451,"lon":-73.0685496,"elevationM":3120},{"id":"node:703523956","kind":"peak","name":"Cuchilla La Cabuya","lat":6.1251958,"lon":-73.055061,"elevationM":null},{"id":"node:703523977","kind":"peak","name":"Cuchilla Morro Del Perro","lat":6.0920787,"lon":-73.035888,"elevationM":null},{"id":"node:703524140","kind":"peak","name":"Cuchilla Bolon","lat":6.2314069,"lon":-73.0042808,"elevationM":null},{"id":"node:703524148","kind":"peak","name":"Alto El Naranjal","lat":6.2594268,"lon":-73.0891928,"elevationM":null},{"id":"node:703524149","kind":"peak","name":"Alto Mercado","lat":6.2527935,"lon":-73.1291933,"elevationM":1794},{"id":"node:703524151","kind":"peak","name":"Cerromorita","lat":6.2838011,"lon":-73.0946671,"elevationM":1637},{"id":"node:703524152","kind":"peak","name":"Alto El Rayo","lat":6.2655894,"lon":-73.0680358,"elevationM":null},{"id":"node:703524157","kind":"peak","name":"Alto El Anzuelo","lat":6.2772011,"lon":-73.0590865,"elevationM":null},{"id":"node:703524166","kind":"peak","name":"Alto Las Picas","lat":6.3282516,"lon":-73.1354053,"elevationM":null},{"id":"node:703524168","kind":"peak","name":"Cuchilla Noventa","lat":6.2868183,"lon":-73.0858131,"elevationM":1771},{"id":"node:703524177","kind":"peak","name":"Alto El Coco","lat":6.2780062,"lon":-73.0360603,"elevationM":null},{"id":"node:703524178","kind":"peak","name":"Loma El Cachol","lat":6.2632276,"lon":-73.0155602,"elevationM":null},{"id":"node:703524184","kind":"peak","name":"Alto El Bujilo","lat":6.2984561,"lon":-73.0183478,"elevationM":null},{"id":"node:703524224","kind":"peak","name":"Cuchilla Santa Lu","lat":6.3587815,"lon":-73.1049111,"elevationM":null},{"id":"node:703524228","kind":"peak","name":"Alto El Santuario","lat":6.3390337,"lon":-73.0474929,"elevationM":1997},{"id":"node:703524230","kind":"peak","name":"Cuchilla Golondrina","lat":6.3802481,"lon":-73.0649341,"elevationM":1986},{"id":"node:703524231","kind":"peak","name":"Cuchilla La Golondrina","lat":6.3994172,"lon":-73.0394418,"elevationM":null},{"id":"node:703524232","kind":"peak","name":"Cuchilla Santa Lucia","lat":6.3913661,"lon":-73.0705191,"elevationM":null},{"id":"node:703524234","kind":"peak","name":"Alto Caracuonal","lat":6.3770351,"lon":-73.1144783,"elevationM":null},{"id":"node:703524235","kind":"peak","name":"Alto Chinival","lat":6.3799335,"lon":-73.0785702,"elevationM":null},{"id":"node:703524236","kind":"peak","name":"Alto Las Escaleras","lat":6.3899169,"lon":-73.1020795,"elevationM":null},{"id":"node:703524237","kind":"peak","name":"Alto El Cajon","lat":6.4021517,"lon":-73.0989027,"elevationM":2111},{"id":"node:703524248","kind":"peak","name":"Alto Las Cruces","lat":6.4201891,"lon":-73.0925792,"elevationM":null},{"id":"node:703524331","kind":"peak","name":"Cuchilla El Encenal","lat":6.5105181,"lon":-73.0926919,"elevationM":null},{"id":"node:703524333","kind":"peak","name":"Alto El Mirador","lat":6.5435754,"lon":-73.0602828,"elevationM":null},{"id":"node:703524341","kind":"peak","name":"Alto Los Cinchos","lat":6.5518397,"lon":-73.1210499,"elevationM":null},{"id":"node:703524346","kind":"peak","name":"Cuchilla Alto Pelado","lat":6.5767948,"lon":-73.0691143,"elevationM":null},{"id":"node:703524347","kind":"peak","name":"Alto Pelado","lat":6.5816562,"lon":-73.0922868,"elevationM":null},{"id":"node:703524349","kind":"peak","name":"Loma El Moral","lat":6.5883,"lon":-73.0417285,"elevationM":null},{"id":"node:703524359","kind":"peak","name":"Loma El Rodeo","lat":6.5651275,"lon":-73.0233364,"elevationM":null},{"id":"node:703524361","kind":"peak","name":"Loma De Muñiga","lat":6.6210333,"lon":-73.11076,"elevationM":null},{"id":"node:703524362","kind":"peak","name":"Cuchilla La Peña","lat":6.6229778,"lon":-73.0924489,"elevationM":null},{"id":"node:703524372","kind":"peak","name":"Loma Pescadera","lat":6.6304319,"lon":-73.036219,"elevationM":null},{"id":"node:703524377","kind":"peak","name":"Loma Llano De Paja","lat":6.644854,"lon":-73.0284408,"elevationM":null},{"id":"node:703524604","kind":"peak","name":"Cuchilla Cruz De Piedra","lat":6.7074036,"lon":-73.0922868,"elevationM":null},{"id":"node:703524610","kind":"peak","name":"Filo Pared De Venado","lat":6.7430537,"lon":-73.0401081,"elevationM":null},{"id":"node:703524611","kind":"peak","name":"Filo El Peñón","lat":6.737058,"lon":-73.0516133,"elevationM":null},{"id":"node:703524616","kind":"peak","name":"Alto El Picacho","lat":6.7101613,"lon":-73.0225571,"elevationM":1861},{"id":"node:703524622","kind":"peak","name":"Loma La Punta","lat":6.7526144,"lon":-73.0245517,"elevationM":null},{"id":"node:703524623","kind":"peak","name":"Loma De Las Palmas","lat":6.7855097,"lon":-73.0418906,"elevationM":null},{"id":"node:703524624","kind":"peak","name":"Alto El Morro","lat":6.7929638,"lon":-73.0550163,"elevationM":null},{"id":"node:703524632","kind":"peak","name":"Alto De Niguas","lat":6.8347716,"lon":-73.0392979,"elevationM":null},{"id":"node:703524636","kind":"peak","name":"Loma De Susa","lat":6.7835651,"lon":-73.014991,"elevationM":null},{"id":"node:703524639","kind":"peak","name":"Lomas De Ventorrillo","lat":6.8279657,"lon":-73.0240656,"elevationM":null},{"id":"node:703524784","kind":"peak","name":"Cuchilla De Cerca","lat":6.8914876,"lon":-73.11076,"elevationM":null},{"id":"node:703524802","kind":"peak","name":"Loma De Ruitoque","lat":6.9861977,"lon":-73.1107557,"elevationM":null},{"id":"node:703524805","kind":"peak","name":"Filo De La Mesa De Los Santos","lat":6.9448006,"lon":-73.0768925,"elevationM":null},{"id":"node:703524815","kind":"peak","name":"Loma Caracol","lat":6.9864464,"lon":-73.0094814,"elevationM":null},{"id":"node:703524816","kind":"peak","name":"Alto El Boro","lat":6.969582,"lon":-73.0024949,"elevationM":2107},{"id":"node:1032426203","kind":"peak","name":"Cordillera De Los Cobardes","lat":6.4623271,"lon":-73.4439425,"elevationM":3414},{"id":"node:1479163432","kind":"peak","name":"Cerro a La Virgen del Amparo, Comuna del Trapiche","lat":6.9854255,"lon":-73.0596715,"elevationM":1200},{"id":"node:4842493479","kind":"peak","name":"P.","lat":6.8485756,"lon":-73.3702867,"elevationM":2095},{"id":"node:4842493480","kind":"peak","name":"P.","lat":6.5946992,"lon":-73.4178342,"elevationM":3343},{"id":"node:4842493755","kind":"peak","name":"Cerro Las Flores","lat":6.7008819,"lon":-73.3854476,"elevationM":3072},{"id":"node:4862282479","kind":"peak","name":"Cerro de Panamá","lat":6.0302442,"lon":-73.8819584,"elevationM":null},{"id":"node:8104357002","kind":"peak","name":"Cerro la Jabonera","lat":6.3334289,"lon":-73.1036252,"elevationM":null},{"id":"node:8754378184","kind":"peak","name":"Loma de San  Juán","lat":6.4546922,"lon":-73.1587674,"elevationM":null},{"id":"node:12518576616","kind":"peak","name":"Las Lajas","lat":6.2758402,"lon":-73.1628261,"elevationM":1},{"id":"node:12772251697","kind":"peak","name":"Loma de los Conejos","lat":6.2907427,"lon":-73.1447653,"elevationM":1302},{"id":"node:12915683249","kind":"peak","name":"Loma de Telésforo","lat":6.4524393,"lon":-73.1621288,"elevationM":1400},{"id":"node:12977614863","kind":"peak","name":"Cerro de la Virgen","lat":6.2842684,"lon":-73.4635351,"elevationM":2041},{"id":"node:13322317338","kind":"peak","name":"Pico de Los Caballeros","lat":6.1746538,"lon":-73.4455479,"elevationM":1528}]}