{"tileKey":"la_p39_lo_p115","version":"v1-1775891056926","entries":[{"id":"node:694492813","kind":"peak","name":"酒漏子沟尖","lat":39.90066,"lon":115.93945,"elevationM":966},{"id":"node:940020558","kind":"peak","name":"中台","lat":39.897193,"lon":115.022023,"elevationM":2801},{"id":"node:940020708","kind":"peak","name":"北台","lat":39.953594,"lon":115.024684,"elevationM":2837},{"id":"node:940021055","kind":"peak","name":"三岔峰","lat":39.9083075,"lon":115.0194358,"elevationM":2745},{"id":"node:940021572","kind":"peak","name":"东台","lat":39.9413006,"lon":115.042937,"elevationM":2882},{"id":"node:3320281587","kind":"peak","name":"梁家山","lat":39.9686827,"lon":115.5267255,"elevationM":1402},{"id":"node:4961018621","kind":"peak","name":"老龙窝","lat":39.903417,"lon":115.713014,"elevationM":1646},{"id":"node:4962156380","kind":"peak","name":"月牙鞍峰","lat":39.91311,"lon":115.8140082,"elevationM":1267},{"id":"node:4962166418","kind":"peak","name":"寺上梁","lat":39.9197695,"lon":115.755324,"elevationM":1613},{"id":"node:4964489306","kind":"peak","name":"清水尖","lat":39.981882,"lon":115.8858265,"elevationM":1528},{"id":"node:4964558932","kind":"peak","name":"髽鬏山","lat":39.9703712,"lon":115.8480007,"elevationM":1524},{"id":"node:4964568390","kind":"peak","name":"窝头尖","lat":39.9393565,"lon":115.8217763,"elevationM":1241},{"id":"node:4964568391","kind":"peak","name":"大寒岭","lat":39.9334013,"lon":115.8069452,"elevationM":1156},{"id":"node:4964568392","kind":"peak","name":"桃树崖尖","lat":39.954316,"lon":115.8182489,"elevationM":1267},{"id":"node:5121117670","kind":"peak","name":"韩家洼山","lat":39.932497,"lon":115.0615976,"elevationM":2488},{"id":"node:5121117671","kind":"peak","name":"北台西峰","lat":39.9480795,"lon":115.0104232,"elevationM":2740},{"id":"node:5121117672","kind":"peak","name":"南台东峰","lat":39.8671642,"lon":115.0097088,"elevationM":2735},{"id":"node:5121120794","kind":"peak","name":"牛草沟顶","lat":39.9549562,"lon":115.078458,"elevationM":2660},{"id":"node:5121120965","kind":"peak","name":"东台东北峰","lat":39.9519523,"lon":115.0645297,"elevationM":2570},{"id":"node:5312007376","kind":"peak","name":"龙潭顶","lat":39.5172852,"lon":115.4090612,"elevationM":1123},{"id":"node:6965202871","kind":"peak","name":"棺材山","lat":39.6968714,"lon":115.8023645,"elevationM":1018},{"id":"node:8292290058","kind":"peak","name":"大头山","lat":39.9343132,"lon":115.9231151,"elevationM":833},{"id":"node:8292290060","kind":"peak","name":"铁坨山","lat":39.9167251,"lon":115.9336644,"elevationM":1102},{"id":"node:8414271355","kind":"peak","name":"北窗户","lat":39.1000428,"lon":115.0843406,"elevationM":null},{"id":"node:8414271356","kind":"peak","name":"干水桥北山","lat":39.447246,"lon":115.2580833,"elevationM":null},{"id":"node:8414271357","kind":"peak","name":"马石架","lat":39.4639229,"lon":115.2642318,"elevationM":null},{"id":"node:8414271358","kind":"peak","name":"九连山","lat":39.1994525,"lon":115.1115918,"elevationM":null},{"id":"node:8414271359","kind":"peak","name":"科罗坨","lat":39.239503,"lon":115.2979862,"elevationM":null},{"id":"node:8414271360","kind":"peak","name":"杏儿坨","lat":39.506041,"lon":115.2061986,"elevationM":null},{"id":"node:8414271361","kind":"peak","name":"东沟坨","lat":39.2867248,"lon":115.0749463,"elevationM":null},{"id":"node:8414271362","kind":"peak","name":"小兰寨","lat":39.259181,"lon":115.0045474,"elevationM":null},{"id":"node:8414271363","kind":"peak","name":"望兵坨","lat":39.3272991,"lon":115.1176219,"elevationM":null},{"id":"node:8414271364","kind":"peak","name":"大寨山","lat":39.2631445,"lon":115.3266299,"elevationM":null},{"id":"node:8414271365","kind":"peak","name":"金龙殿","lat":39.184402,"lon":115.1359141,"elevationM":null},{"id":"node:8414271366","kind":"peak","name":"别虎山","lat":39.3294591,"lon":115.1611061,"elevationM":null},{"id":"node:8414271367","kind":"peak","name":"葫芦顶","lat":39.2621976,"lon":115.0447511,"elevationM":null},{"id":"node:8414271368","kind":"peak","name":"碾子沟东山","lat":39.4424903,"lon":115.1148319,"elevationM":null},{"id":"node:8414271369","kind":"peak","name":"四炮墩","lat":39.4419517,"lon":115.1506555,"elevationM":null},{"id":"node:8414271370","kind":"peak","name":"噘子寨","lat":39.2211738,"lon":115.1967587,"elevationM":null},{"id":"node:8414271371","kind":"peak","name":"老鼠坨","lat":39.1208846,"lon":115.0431969,"elevationM":null},{"id":"node:8414271372","kind":"peak","name":"楼子寨","lat":39.3610906,"lon":115.1266009,"elevationM":null},{"id":"node:8414271374","kind":"peak","name":"大鱼沟岭","lat":39.4557209,"lon":115.320965,"elevationM":null},{"id":"node:8414271375","kind":"peak","name":"石浒山","lat":39.3309946,"lon":115.1821017,"elevationM":null},{"id":"node:8414271376","kind":"peak","name":"利华尖","lat":39.1195565,"lon":115.0182295,"elevationM":null},{"id":"node:8414271377","kind":"peak","name":"四阶台","lat":39.4740177,"lon":115.0769162,"elevationM":null},{"id":"node:8414271378","kind":"peak","name":"峨眉寺岭","lat":39.4495408,"lon":115.3003871,"elevationM":null},{"id":"node:8414271379","kind":"peak","name":"大片尖","lat":39.5398717,"lon":115.0290871,"elevationM":null},{"id":"node:8414271380","kind":"peak","name":"炮架尖","lat":39.4543541,"lon":115.1951265,"elevationM":null},{"id":"node:8414271381","kind":"peak","name":"五峰寨","lat":39.3327539,"lon":115.0854349,"elevationM":null},{"id":"node:8414271382","kind":"peak","name":"马头寨","lat":39.4569927,"lon":115.4512662,"elevationM":null},{"id":"node:8414271383","kind":"peak","name":"骑檩坨","lat":39.3084683,"lon":115.1322984,"elevationM":null},{"id":"node:8414271384","kind":"peak","name":"云蒙山","lat":39.3973364,"lon":115.2301454,"elevationM":null},{"id":"node:8414271386","kind":"peak","name":"新龙潭尖","lat":39.4772475,"lon":115.1050257,"elevationM":null},{"id":"node:8414271387","kind":"peak","name":"傲姿坨","lat":39.4725104,"lon":115.3142166,"elevationM":null},{"id":"node:8440014406","kind":"peak","name":"韭菜梁","lat":39.8621335,"lon":115.1252339,"elevationM":2262},{"id":"node:8440109923","kind":"peak","name":"北岔尖","lat":39.804403,"lon":115.1024307,"elevationM":1836},{"id":"node:9179494339","kind":"peak","name":"水峪东大尖","lat":39.8960242,"lon":115.8390375,"elevationM":1360},{"id":"node:9193017276","kind":"peak","name":"大歪尖","lat":39.7419323,"lon":115.8335484,"elevationM":907},{"id":"node:9198694359","kind":"peak","name":"太平山","lat":39.6945556,"lon":115.9386416,"elevationM":283},{"id":"node:9203724628","kind":"peak","name":"白草畔","lat":39.8130547,"lon":115.5825005,"elevationM":2035},{"id":"node:9203724629","kind":"peak","name":"百花山","lat":39.8568339,"lon":115.6104483,"elevationM":1991},{"id":"node:9216183560","kind":"peak","name":"白云坨","lat":39.6497052,"lon":115.7716196,"elevationM":1056},{"id":"node:9216184646","kind":"peak","name":"小什锦塔","lat":39.6646563,"lon":115.7723999,"elevationM":1017},{"id":"node:9342519428","kind":"peak","name":"东村南坨","lat":39.7709002,"lon":115.5226034,"elevationM":1147},{"id":"node:9359843182","kind":"peak","name":"小猫耳山","lat":39.7142587,"lon":115.8742967,"elevationM":855},{"id":"node:9360898717","kind":"peak","name":"松树岭","lat":39.8158942,"lon":115.6059648,"elevationM":null},{"id":"node:9360917913","kind":"peak","name":"仙客峰","lat":39.8675184,"lon":115.6331109,"elevationM":1554},{"id":"node:9427166518","kind":"peak","name":"鬼关岭","lat":39.7738124,"lon":115.9136979,"elevationM":970},{"id":"node:9427166617","kind":"peak","name":"凤凰山","lat":39.7829639,"lon":115.9572235,"elevationM":735},{"id":"node:9427166871","kind":"peak","name":"南大山","lat":39.7697323,"lon":115.900417,"elevationM":1183},{"id":"node:9427185514","kind":"peak","name":"大洼尖","lat":39.6896491,"lon":115.7550065,"elevationM":1210},{"id":"node:9597328093","kind":"peak","name":"山神庙山","lat":39.9189018,"lon":115.7754455,"elevationM":1367},{"id":"node:9766790359","kind":"peak","name":"豹子岭主峰","lat":39.9982193,"lon":115.9715575,"elevationM":698},{"id":"node:9766790364","kind":"peak","name":"落坡岭南山","lat":39.9810197,"lon":115.9767052,"elevationM":468},{"id":"node:9766790365","kind":"peak","name":"二轴北山","lat":39.9798968,"lon":115.9585795,"elevationM":350},{"id":"node:9766790366","kind":"peak","name":"王平口北山","lat":39.9523853,"lon":115.9342396,"elevationM":749},{"id":"node:9766790367","kind":"peak","name":"老蝈山","lat":39.947303,"lon":115.9194535,"elevationM":698},{"id":"node:9766790368","kind":"peak","name":"窝头山/猫儿坨","lat":39.9389445,"lon":115.922669,"elevationM":724},{"id":"node:9766790371","kind":"peak","name":"禅房岭","lat":39.9424433,"lon":115.9024085,"elevationM":758},{"id":"node:9766790373","kind":"peak","name":"大黑山","lat":39.9834608,"lon":115.9159627,"elevationM":1129},{"id":"node:9766790375","kind":"peak","name":"南梁尖","lat":39.9473045,"lon":115.8556549,"elevationM":1023},{"id":"node:9766790380","kind":"peak","name":"灰树塔尖","lat":39.9185723,"lon":115.8002614,"elevationM":1325},{"id":"node:9766790381","kind":"peak","name":"石人梁","lat":39.904687,"lon":115.8232417,"elevationM":1159},{"id":"node:9766790383","kind":"peak","name":"贾胡山","lat":39.8943334,"lon":115.8156013,"elevationM":1159},{"id":"node:9766790384","kind":"peak","name":"庄户南大尖","lat":39.9131364,"lon":115.8667364,"elevationM":1145},{"id":"node:9766790385","kind":"peak","name":"窟窿山","lat":39.9140878,"lon":115.8944879,"elevationM":981},{"id":"node:9787274184","kind":"peak","name":"黄山","lat":39.8742921,"lon":115.9199225,"elevationM":880},{"id":"node:9815130533","kind":"peak","name":"沟窝山南峰","lat":39.898109,"lon":115.9753386,"elevationM":720},{"id":"node:9815130695","kind":"peak","name":"大石岭","lat":39.889389,"lon":115.9838946,"elevationM":681},{"id":"node:9815130696","kind":"peak","name":"沟窝山中峰","lat":39.8996612,"lon":115.9745733,"elevationM":736},{"id":"node:9815130697","kind":"peak","name":"沟窝山北峰","lat":39.9010218,"lon":115.9730189,"elevationM":766},{"id":"node:9819666625","kind":"peak","name":"北台","lat":39.9220799,"lon":115.8369865,"elevationM":840},{"id":"node:9823061460","kind":"peak","name":"松桶尖","lat":39.8771966,"lon":115.8342885,"elevationM":1015},{"id":"node:9823141547","kind":"peak","name":"鸡冠子山","lat":39.8305353,"lon":115.9365461,"elevationM":550},{"id":"node:9823141548","kind":"peak","name":"将军坨","lat":39.8324293,"lon":115.9532481,"elevationM":435},{"id":"node:9823141549","kind":"peak","name":"谷积山","lat":39.8462202,"lon":115.9987321,"elevationM":711},{"id":"node:9823141551","kind":"peak","name":"草柏岭","lat":39.855292,"lon":115.9986235,"elevationM":591},{"id":"node:9823141552","kind":"peak","name":"松树岭","lat":39.8671906,"lon":115.9958796,"elevationM":510},{"id":"node:9823141553","kind":"peak","name":"松树岭北峰","lat":39.8746081,"lon":115.9924876,"elevationM":554},{"id":"node:9823141562","kind":"peak","name":"天盆阵","lat":39.8438044,"lon":115.8512687,"elevationM":885},{"id":"node:9823141563","kind":"peak","name":"烟筒尖","lat":39.8205839,"lon":115.8668566,"elevationM":569},{"id":"node:9823141564","kind":"peak","name":"白草坨","lat":39.8513753,"lon":115.8002801,"elevationM":1015},{"id":"node:9823141565","kind":"peak","name":"拉车山","lat":39.8539069,"lon":115.7663284,"elevationM":1191},{"id":"node:9823141566","kind":"peak","name":"大寨顶","lat":39.8654103,"lon":115.7522136,"elevationM":1392},{"id":"node:9823141567","kind":"peak","name":"大塌梁","lat":39.8731389,"lon":115.7345329,"elevationM":1416},{"id":"node:9823141568","kind":"peak","name":"木城梁","lat":39.8763554,"lon":115.7369069,"elevationM":1374},{"id":"node:9823141569","kind":"peak","name":"傲玉尖/鳌鱼尖","lat":39.879771,"lon":115.7340103,"elevationM":1438},{"id":"node:9823141570","kind":"peak","name":"1391","lat":39.8898268,"lon":115.7287542,"elevationM":null},{"id":"node:9823141571","kind":"peak","name":"望星台","lat":39.9099709,"lon":115.7659935,"elevationM":1293},{"id":"node:9823141572","kind":"peak","name":"1349","lat":39.9043983,"lon":115.7491526,"elevationM":null},{"id":"node:9823141573","kind":"peak","name":"务龙头","lat":39.8595079,"lon":115.7234221,"elevationM":1394},{"id":"node:9823141574","kind":"peak","name":"莲子峰","lat":39.8454454,"lon":115.7316447,"elevationM":924},{"id":"node:9823141576","kind":"peak","name":"大埯坑","lat":39.8557812,"lon":115.6896206,"elevationM":1112},{"id":"node:9823141577","kind":"peak","name":"碾子坨","lat":39.8643042,"lon":115.6720722,"elevationM":1055},{"id":"node:9823141578","kind":"peak","name":"水盆梁","lat":39.8830291,"lon":115.6620559,"elevationM":1566},{"id":"node:9823141579","kind":"peak","name":"大网坨","lat":39.87462,"lon":115.6431452,"elevationM":1501},{"id":"node:9823141580","kind":"peak","name":"鹞子山","lat":39.8735265,"lon":115.6246439,"elevationM":1783},{"id":"node:9823141581","kind":"peak","name":"达摩岭","lat":39.9211335,"lon":115.6658557,"elevationM":1090},{"id":"node:9831364188","kind":"peak","name":"锯齿山","lat":39.8596543,"lon":115.9046948,"elevationM":880},{"id":"node:9831364211","kind":"peak","name":"雾岚山","lat":39.7552543,"lon":115.9941512,"elevationM":398},{"id":"node:9831364212","kind":"peak","name":"大平山","lat":39.759067,"lon":115.9762723,"elevationM":226},{"id":"node:9831364213","kind":"peak","name":"双峰山","lat":39.7647989,"lon":115.9766578,"elevationM":271},{"id":"node:9833564295","kind":"peak","name":"骆驼岭A","lat":39.8426828,"lon":115.9420125,"elevationM":566},{"id":"node:9833564296","kind":"peak","name":"猴石岭","lat":39.7530519,"lon":115.9190577,"elevationM":481},{"id":"node:9833564297","kind":"peak","name":"西虎岭","lat":39.7276434,"lon":115.9273237,"elevationM":278},{"id":"node:9833564298","kind":"peak","name":"龙骨山","lat":39.6885505,"lon":115.923047,"elevationM":154},{"id":"node:9833564299","kind":"peak","name":"南大尖","lat":39.7106068,"lon":115.8832848,"elevationM":767},{"id":"node:9833564300","kind":"peak","name":"火焰山","lat":39.7188308,"lon":115.86674,"elevationM":798},{"id":"node:9833564301","kind":"peak","name":"将尖山","lat":39.7131734,"lon":115.8489896,"elevationM":430},{"id":"node:9833564302","kind":"peak","name":"上寺岭","lat":39.7399907,"lon":115.8621985,"elevationM":1307},{"id":"node:9833564303","kind":"peak","name":"茶楼顶","lat":39.7416499,"lon":115.8768636,"elevationM":1251},{"id":"node:9833564304","kind":"peak","name":"草坨顶","lat":39.7579537,"lon":115.8867852,"elevationM":1129},{"id":"node:9833564305","kind":"peak","name":"连三顶","lat":39.7720959,"lon":115.9052136,"elevationM":1179},{"id":"node:9833564306","kind":"peak","name":"花儿岭","lat":39.7961337,"lon":115.9352209,"elevationM":465},{"id":"node:9833564307","kind":"peak","name":"荞麦山","lat":39.8040425,"lon":115.9425235,"elevationM":536},{"id":"node:9833564308","kind":"peak","name":"大棒峪尖","lat":39.8586074,"lon":115.9821801,"elevationM":548},{"id":"node:9872575651","kind":"peak","name":"化木仑","lat":39.7261455,"lon":115.8087111,"elevationM":1153},{"id":"node:9872575652","kind":"peak","name":"青峰岭","lat":39.7060528,"lon":115.7984064,"elevationM":1110},{"id":"node:9872575654","kind":"peak","name":"上方山","lat":39.6813823,"lon":115.8107797,"elevationM":865},{"id":"node:9872575655","kind":"peak","name":"摘星坨","lat":39.6756117,"lon":115.8148683,"elevationM":769},{"id":"node:9872575657","kind":"peak","name":"锦绣峰","lat":39.6800071,"lon":115.8280803,"elevationM":784},{"id":"node:9872575658","kind":"peak","name":"象王峰","lat":39.6732918,"lon":115.831156,"elevationM":780},{"id":"node:9872575659","kind":"peak","name":"望海峰/小棺材山","lat":39.6678706,"lon":115.8325008,"elevationM":783},{"id":"node:9872575660","kind":"peak","name":"松坨","lat":39.640934,"lon":115.7921751,"elevationM":799},{"id":"node:9872575661","kind":"peak","name":"桦木坨","lat":39.6778785,"lon":115.7715462,"elevationM":1049},{"id":"node:9872575662","kind":"peak","name":"小碑尖","lat":39.67904,"lon":115.7570186,"elevationM":null},{"id":"node:9872575663","kind":"peak","name":"憋虎尖/大碑尖","lat":39.6811221,"lon":115.7508814,"elevationM":null},{"id":"node:9872575664","kind":"peak","name":"黑牛峰","lat":39.6925188,"lon":115.7689326,"elevationM":1060},{"id":"node:9872575665","kind":"peak","name":"暴雨坨","lat":39.695466,"lon":115.7526162,"elevationM":1127},{"id":"node:9872575666","kind":"peak","name":"青松岭","lat":39.707986,"lon":115.7592007,"elevationM":1053},{"id":"node:9872575667","kind":"peak","name":"卧虎榻","lat":39.7033882,"lon":115.7406481,"elevationM":1108},{"id":"node:9872575669","kind":"peak","name":"白虎窖","lat":39.68415,"lon":115.7382662,"elevationM":1067},{"id":"node:9872575670","kind":"peak","name":"小灰帽子","lat":39.6797915,"lon":115.7351891,"elevationM":960},{"id":"node:9872575671","kind":"peak","name":"窟窿山","lat":39.6927728,"lon":115.7174871,"elevationM":1000},{"id":"node:9872575672","kind":"peak","name":"长流水尖","lat":39.6979562,"lon":115.7119813,"elevationM":1125},{"id":"node:9872575674","kind":"peak","name":"槽鸡架","lat":39.7894712,"lon":115.7900056,"elevationM":836},{"id":"node:9872575675","kind":"peak","name":"纱帽山","lat":39.7549129,"lon":115.8309126,"elevationM":566},{"id":"node:9872575676","kind":"peak","name":"青梅岭","lat":39.7809954,"lon":115.8549071,"elevationM":716},{"id":"node:9886315225","kind":"peak","name":"羊耳峪西山","lat":39.7571296,"lon":115.9463385,"elevationM":null},{"id":"node:9886315226","kind":"peak","name":"羊耳峪东山","lat":39.7573397,"lon":115.9516792,"elevationM":null},{"id":"node:9889831539","kind":"peak","name":"半壁山","lat":39.8051883,"lon":115.9804354,"elevationM":null},{"id":"node:9904323329","kind":"peak","name":"石人尖","lat":39.9581316,"lon":115.8510527,"elevationM":1075},{"id":"node:9927050194","kind":"peak","name":"菩萨崖","lat":39.8418945,"lon":115.6691029,"elevationM":1136},{"id":"node:9927050195","kind":"peak","name":"饮马槽梁","lat":39.8354829,"lon":115.6553151,"elevationM":1169},{"id":"node:9927050196","kind":"peak","name":"马金台","lat":39.8322045,"lon":115.6483249,"elevationM":1224},{"id":"node:9927050199","kind":"peak","name":"南坡尖","lat":39.808452,"lon":115.6194977,"elevationM":1576},{"id":"node:9927050200","kind":"peak","name":"水泉背","lat":39.8058322,"lon":115.6355474,"elevationM":1322},{"id":"node:9927050201","kind":"peak","name":"港木坨","lat":39.7998214,"lon":115.6853099,"elevationM":1176},{"id":"node:9927050202","kind":"peak","name":"南熬嵎","lat":39.8015016,"lon":115.7095249,"elevationM":1158},{"id":"node:9927050203","kind":"peak","name":"北抓髻山","lat":39.7975491,"lon":115.7164671,"elevationM":1152},{"id":"node:9927050204","kind":"peak","name":"大白石尖","lat":39.8047975,"lon":115.7477883,"elevationM":1005},{"id":"node:9927050205","kind":"peak","name":"荞麦山","lat":39.7664658,"lon":115.7172014,"elevationM":1127},{"id":"node:9927050206","kind":"peak","name":"大坨山","lat":39.7604819,"lon":115.683441,"elevationM":1015},{"id":"node:9927050207","kind":"peak","name":"三角城","lat":39.7475655,"lon":115.6698175,"elevationM":963},{"id":"node:9927050208","kind":"peak","name":"青杠尖","lat":39.7725647,"lon":115.6669778,"elevationM":1198},{"id":"node:9927050209","kind":"peak","name":"金草梁","lat":39.7696813,"lon":115.641343,"elevationM":1050},{"id":"node:9927050210","kind":"peak","name":"松林圆城","lat":39.7798508,"lon":115.6383528,"elevationM":1092},{"id":"node:9927050211","kind":"peak","name":"大坨","lat":39.7958688,"lon":115.5987762,"elevationM":1465},{"id":"node:9927050214","kind":"peak","name":"白草畔西峰","lat":39.8123604,"lon":115.5632184,"elevationM":1983},{"id":"node:9927050215","kind":"peak","name":"二黑林","lat":39.802532,"lon":115.5560622,"elevationM":1658},{"id":"node:9927050216","kind":"peak","name":"麻子崖","lat":39.7896383,"lon":115.553778,"elevationM":1625},{"id":"node:9927050217","kind":"peak","name":"大黑林","lat":39.7939042,"lon":115.546127,"elevationM":1858},{"id":"node:9927050218","kind":"peak","name":"大洼岭","lat":39.7894482,"lon":115.5199474,"elevationM":1618},{"id":"node:9927050220","kind":"peak","name":"大南坨","lat":39.7781667,"lon":115.5551846,"elevationM":1141},{"id":"node:9927050221","kind":"peak","name":"大灰港","lat":39.7666407,"lon":115.5708892,"elevationM":1306},{"id":"node:9927050222","kind":"peak","name":"种子山台","lat":39.7746205,"lon":115.5689928,"elevationM":1281},{"id":"node:9927050223","kind":"peak","name":"牛角胡","lat":39.7422139,"lon":115.608138,"elevationM":1177},{"id":"node:9927050228","kind":"peak","name":"白业角岭","lat":39.7281666,"lon":115.6323649,"elevationM":988},{"id":"node:9927050229","kind":"peak","name":"南大坨","lat":39.7076689,"lon":115.6590036,"elevationM":1105},{"id":"node:9927050230","kind":"peak","name":"蜡扦山","lat":39.6942957,"lon":115.6833972,"elevationM":1104},{"id":"node:9927050231","kind":"peak","name":"蜡扦山B","lat":39.7025723,"lon":115.7019408,"elevationM":1070},{"id":"node:9927050232","kind":"peak","name":"杨家坨","lat":39.7309095,"lon":115.7245796,"elevationM":998},{"id":"node:9927050238","kind":"peak","name":"庞井坨","lat":39.6728076,"lon":115.6671059,"elevationM":950},{"id":"node:9927050240","kind":"peak","name":"庙坨","lat":39.6591907,"lon":115.6772205,"elevationM":920},{"id":"node:9927050241","kind":"peak","name":"大北尖","lat":39.6935951,"lon":115.624736,"elevationM":973},{"id":"node:9927050242","kind":"peak","name":"猴山","lat":39.6863364,"lon":115.6173202,"elevationM":936},{"id":"node:9927050244","kind":"peak","name":"喀杈山","lat":39.6554247,"lon":115.7080597,"elevationM":966},{"id":"node:9927050245","kind":"peak","name":"石人站","lat":39.640364,"lon":115.6952249,"elevationM":693},{"id":"node:9931435407","kind":"peak","name":"横岭","lat":39.7814426,"lon":115.9977612,"elevationM":334},{"id":"node:9931435426","kind":"peak","name":"欧岭","lat":39.7705622,"lon":115.9986297,"elevationM":257},{"id":"node:9937139470","kind":"peak","name":"月亮山","lat":39.7978904,"lon":115.9542505,"elevationM":431},{"id":"node:9939307274","kind":"peak","name":"鲇鱼坨","lat":39.7501553,"lon":115.9909518,"elevationM":265},{"id":"node:9974867082","kind":"peak","name":"大铁锅","lat":39.7558911,"lon":115.8482352,"elevationM":null},{"id":"node:9974867783","kind":"peak","name":"五指峰","lat":39.7229402,"lon":115.8061232,"elevationM":null},{"id":"node:10024840406","kind":"peak","name":"怪石山","lat":39.6823984,"lon":115.8537544,"elevationM":null},{"id":"node:10024840922","kind":"peak","name":"小洼尖","lat":39.689969,"lon":115.758617,"elevationM":null},{"id":"node:10024840924","kind":"peak","name":"凤凰山","lat":39.6939143,"lon":115.7868544,"elevationM":null},{"id":"node:10027696490","kind":"peak","name":"大盖尖","lat":39.7181645,"lon":115.7633117,"elevationM":1040},{"id":"node:10030820787","kind":"peak","name":"骆驼峰","lat":39.6738547,"lon":115.8144579,"elevationM":null},{"id":"node:10039522603","kind":"peak","name":"孤山子","lat":39.7001629,"lon":115.7431107,"elevationM":null},{"id":"node:10051692444","kind":"peak","name":"大青树顶子","lat":39.6097837,"lon":115.7112692,"elevationM":745},{"id":"node:10051692471","kind":"peak","name":"澳水尖","lat":39.6079557,"lon":115.7169143,"elevationM":790},{"id":"node:10051692645","kind":"peak","name":"加子鞍","lat":39.6321876,"lon":115.7421074,"elevationM":722},{"id":"node:10054054521","kind":"peak","name":"佛髻峰","lat":39.6432798,"lon":115.7774258,"elevationM":933},{"id":"node:10058339860","kind":"peak","name":"大背尖","lat":39.9814997,"lon":115.4428912,"elevationM":1712},{"id":"node:10058339861","kind":"peak","name":"西大义尖","lat":39.990646,"lon":115.4444696,"elevationM":1763},{"id":"node:10081302291","kind":"peak","name":"天子峰","lat":39.6163866,"lon":115.6493995,"elevationM":630},{"id":"node:10081302293","kind":"peak","name":"峰驼山","lat":39.6060674,"lon":115.6601668,"elevationM":555},{"id":"node:10116959138","kind":"peak","name":"大榆木尖","lat":39.9786043,"lon":115.4630823,"elevationM":1423},{"id":"node:10116959139","kind":"peak","name":"大村子梁尖","lat":39.9611999,"lon":115.5147325,"elevationM":1265},{"id":"node:10116959140","kind":"peak","name":"青包子尖","lat":39.9643822,"lon":115.5456181,"elevationM":1363},{"id":"node:10116959142","kind":"peak","name":"南坨尖","lat":39.9032724,"lon":115.5291684,"elevationM":1178},{"id":"node:10116959143","kind":"peak","name":"马虎子港梁","lat":39.9350187,"lon":115.4722879,"elevationM":1176},{"id":"node:10116959144","kind":"peak","name":"水水峪尖","lat":39.953069,"lon":115.441288,"elevationM":1543},{"id":"node:10116959145","kind":"peak","name":"金树塔","lat":39.9490006,"lon":115.4196537,"elevationM":1611},{"id":"node:10116959146","kind":"peak","name":"断口岭","lat":39.9226432,"lon":115.4089901,"elevationM":1632},{"id":"node:10116959147","kind":"peak","name":"断口岭东峰","lat":39.9228678,"lon":115.4129743,"elevationM":1635},{"id":"node:10116959148","kind":"peak","name":"金华山","lat":39.8840815,"lon":115.3993312,"elevationM":1735},{"id":"node:10116959149","kind":"peak","name":"抓角山","lat":39.8537842,"lon":115.3972426,"elevationM":1454},{"id":"node:10116959150","kind":"peak","name":"大南将岭","lat":39.8706663,"lon":115.4592944,"elevationM":875},{"id":"node:10116959151","kind":"peak","name":"铁角山","lat":39.8454416,"lon":115.5034962,"elevationM":1713},{"id":"node:10154702963","kind":"peak","name":"金蟾山","lat":39.9945876,"lon":115.6366119,"elevationM":null},{"id":"node:10171161644","kind":"peak","name":"骆驼山","lat":39.9529951,"lon":115.7485045,"elevationM":null},{"id":"node:10180216452","kind":"peak","name":"白草坨西峰","lat":39.8514417,"lon":115.7924347,"elevationM":1018},{"id":"node:10186067559","kind":"peak","name":"蹦岭","lat":39.8080142,"lon":115.8267404,"elevationM":null},{"id":"node:10209376705","kind":"peak","name":"马鞍山","lat":39.5588982,"lon":115.7480332,"elevationM":204},{"id":"node:10209376706","kind":"peak","name":"烟筒尖","lat":39.81,"lon":115.7733,"elevationM":651},{"id":"node:10209376707","kind":"peak","name":"白尺岭","lat":39.6253,"lon":115.6258,"elevationM":693},{"id":"node:10209376708","kind":"peak","name":"砍花山","lat":39.6055,"lon":115.5806,"elevationM":586},{"id":"node:10209376709","kind":"peak","name":"洼卧山","lat":39.6950218,"lon":115.5109913,"elevationM":1206},{"id":"node:10243770126","kind":"peak","name":"南坡尖东峰","lat":39.8097296,"lon":115.6228958,"elevationM":1543},{"id":"node:10246338573","kind":"peak","name":"鲲鹏顶","lat":39.7882268,"lon":115.6029727,"elevationM":null},{"id":"node:10248856751","kind":"peak","name":"槽二岭","lat":39.7975158,"lon":115.4772325,"elevationM":1262},{"id":"node:10248856752","kind":"peak","name":"峨峪南山","lat":39.7836062,"lon":115.4361612,"elevationM":1078},{"id":"node:10248856753","kind":"peak","name":"梯子扶","lat":39.733277,"lon":115.4875777,"elevationM":1347},{"id":"node:10250624506","kind":"peak","name":"大尖坨","lat":39.7604255,"lon":115.4933058,"elevationM":1279},{"id":"node:10259520720","kind":"peak","name":"大圆坨","lat":39.740867,"lon":115.4693011,"elevationM":null},{"id":"node:10261710882","kind":"peak","name":"花子坨","lat":39.8032142,"lon":115.4489676,"elevationM":1076},{"id":"node:10261711340","kind":"peak","name":"黑坨子","lat":39.8221172,"lon":115.4439436,"elevationM":null},{"id":"node:10264594980","kind":"peak","name":"雀鸣山","lat":39.7148179,"lon":115.5055198,"elevationM":1050},{"id":"node:10266786523","kind":"peak","name":"椅子圈","lat":39.6987824,"lon":115.5102009,"elevationM":1142},{"id":"node:10269020736","kind":"peak","name":"拜佛顶","lat":39.6793048,"lon":115.5197575,"elevationM":null},{"id":"node:10269021743","kind":"peak","name":"松树坨","lat":39.6803918,"lon":115.5641828,"elevationM":923},{"id":"node:10269021744","kind":"peak","name":"讲经坨","lat":39.6724707,"lon":115.5655508,"elevationM":903},{"id":"node:10269021745","kind":"peak","name":"霍家坨","lat":39.663972,"lon":115.5666136,"elevationM":962},{"id":"node:10269021898","kind":"peak","name":"北天上","lat":39.6930008,"lon":115.5293832,"elevationM":1021},{"id":"node:10269021899","kind":"peak","name":"南天上","lat":39.6848195,"lon":115.5571157,"elevationM":936},{"id":"node:10270810624","kind":"peak","name":"笛子捻","lat":39.7046752,"lon":115.5177902,"elevationM":956},{"id":"node:10272602424","kind":"peak","name":"鹊桥岭","lat":39.6417016,"lon":115.5716973,"elevationM":null},{"id":"node:10272603049","kind":"peak","name":"老帽山","lat":39.6530638,"lon":115.5798338,"elevationM":733},{"id":"node:10272603446","kind":"peak","name":"白草坨","lat":39.6563256,"lon":115.5729616,"elevationM":847},{"id":"node:10272604024","kind":"peak","name":"刘财坨","lat":39.6389002,"lon":115.516237,"elevationM":880},{"id":"node:10272604213","kind":"peak","name":"星星坨","lat":39.6310358,"lon":115.5145856,"elevationM":785},{"id":"node:10272605618","kind":"peak","name":"三棱坨","lat":39.6585855,"lon":115.5215874,"elevationM":532},{"id":"node:10274727885","kind":"peak","name":"八里堂岭","lat":39.6193702,"lon":115.517685,"elevationM":687},{"id":"node:10274730063","kind":"peak","name":"西佛爷岭","lat":39.5902137,"lon":115.5075963,"elevationM":1035},{"id":"node:10274731540","kind":"peak","name":"羊金坨","lat":39.5814685,"lon":115.5008232,"elevationM":1121},{"id":"node:10274731541","kind":"peak","name":"中心坨A","lat":39.6026356,"lon":115.5588882,"elevationM":1056},{"id":"node:10274731542","kind":"peak","name":"黄骆坨","lat":39.5889814,"lon":115.5813086,"elevationM":841},{"id":"node:10274731543","kind":"peak","name":"金子坨","lat":39.6019457,"lon":115.6163804,"elevationM":952},{"id":"node:10274731544","kind":"peak","name":"高粱站","lat":39.6171018,"lon":115.6156725,"elevationM":905},{"id":"node:10277221878","kind":"peak","name":"小三尖","lat":39.5649729,"lon":115.4873927,"elevationM":1072},{"id":"node:10277223920","kind":"peak","name":"黄土顶","lat":39.549803,"lon":115.5278854,"elevationM":852},{"id":"node:10277224465","kind":"peak","name":"大寨顶","lat":39.5551291,"lon":115.5283337,"elevationM":935},{"id":"node:10277224640","kind":"peak","name":"大北顶","lat":39.5528349,"lon":115.5311296,"elevationM":879},{"id":"node:10279463418","kind":"peak","name":"塔山","lat":39.5608574,"lon":115.5008396,"elevationM":1057},{"id":"node:10281711047","kind":"peak","name":"中心坨B","lat":39.6001328,"lon":115.5607623,"elevationM":980},{"id":"node:10281711222","kind":"peak","name":"中心坨A南峰","lat":39.6019136,"lon":115.559495,"elevationM":1051},{"id":"node:10284579791","kind":"peak","name":"大北坨","lat":39.6083915,"lon":115.5487431,"elevationM":963},{"id":"node:10284579918","kind":"peak","name":"天上","lat":39.5728388,"lon":115.5917894,"elevationM":756},{"id":"node:10284579919","kind":"peak","name":"烟囱顶","lat":39.5500538,"lon":115.6193986,"elevationM":715},{"id":"node:10284579920","kind":"peak","name":"三黄山","lat":39.597447,"lon":115.643817,"elevationM":911},{"id":"node:10287212473","kind":"peak","name":"南平山","lat":39.6258895,"lon":115.5984002,"elevationM":634},{"id":"node:10291115759","kind":"peak","name":"铁锁崖","lat":39.5637036,"lon":115.6755819,"elevationM":406},{"id":"node:10292917446","kind":"peak","name":"猪毛山","lat":39.5979676,"lon":115.7191479,"elevationM":475},{"id":"node:10294534726","kind":"peak","name":"大齐尖","lat":39.6021709,"lon":115.7511942,"elevationM":546},{"id":"node:10294534728","kind":"peak","name":"金粟山","lat":39.5504238,"lon":115.7643575,"elevationM":280},{"id":"node:10294534731","kind":"peak","name":"黄龙山","lat":39.5610756,"lon":115.7809508,"elevationM":288},{"id":"node:10294962251","kind":"peak","name":"留台尖","lat":39.7020182,"lon":115.9601979,"elevationM":145},{"id":"node:10296360156","kind":"peak","name":"石经山","lat":39.6210856,"lon":115.7761744,"elevationM":450},{"id":"node:10296360695","kind":"peak","name":"卧虎山","lat":39.5880032,"lon":115.7760366,"elevationM":344},{"id":"node:10302143974","kind":"peak","name":"东顶尖","lat":39.6341856,"lon":115.7274013,"elevationM":617},{"id":"node:10302159665","kind":"peak","name":"猴儿寨","lat":39.6266873,"lon":115.7565826,"elevationM":545},{"id":"node:10302159670","kind":"peak","name":"团寨","lat":39.6232213,"lon":115.7903057,"elevationM":400},{"id":"node:10302159671","kind":"peak","name":"扁寨","lat":39.6269454,"lon":115.7929049,"elevationM":445},{"id":"node:10302160583","kind":"peak","name":"乐𪨹山","lat":39.6283595,"lon":115.7745345,"elevationM":533},{"id":"node:10303859716","kind":"peak","name":"杵山","lat":39.5865928,"lon":115.8310159,"elevationM":274},{"id":"node:10303859723","kind":"peak","name":"大港山","lat":39.583968,"lon":115.827382,"elevationM":268},{"id":"node:10307976449","kind":"peak","name":"般州山","lat":39.6017817,"lon":115.8114268,"elevationM":477},{"id":"node:10307976450","kind":"peak","name":"大站尖","lat":39.6250509,"lon":115.8321149,"elevationM":468},{"id":"node:10310095871","kind":"peak","name":"元宝山","lat":39.6189719,"lon":115.8908377,"elevationM":103},{"id":"node:10312483225","kind":"peak","name":"烟筒塌山","lat":39.6443663,"lon":115.8894177,"elevationM":337},{"id":"node:10548059451","kind":"peak","name":"三棱坨","lat":39.672474,"lon":115.6102521,"elevationM":890},{"id":"node:10560843902","kind":"peak","name":"蝙蝠山南峰","lat":39.6522026,"lon":115.6055652,"elevationM":627},{"id":"node:10560843903","kind":"peak","name":"蝙蝠山北峰","lat":39.6576735,"lon":115.6014079,"elevationM":679},{"id":"node:10561861391","kind":"peak","name":"麒麟山","lat":39.6405024,"lon":115.595151,"elevationM":421},{"id":"node:10564222303","kind":"peak","name":"龙山","lat":39.6419882,"lon":115.5819775,"elevationM":290},{"id":"node:10564222304","kind":"peak","name":"虎山","lat":39.6487834,"lon":115.5921275,"elevationM":250},{"id":"node:10564222539","kind":"peak","name":"洼尖","lat":39.8071179,"lon":115.6665712,"elevationM":1099},{"id":"node:10564222542","kind":"peak","name":"南上槽","lat":39.8630016,"lon":115.7289959,"elevationM":1367},{"id":"node:10564222680","kind":"peak","name":"大北乜","lat":39.8924335,"lon":115.7843139,"elevationM":965},{"id":"node:10564222719","kind":"peak","name":"小八岔","lat":39.8844898,"lon":115.8046817,"elevationM":989},{"id":"node:10564222767","kind":"peak","name":"八大岔","lat":39.8854713,"lon":115.8079097,"elevationM":982},{"id":"node:10564222768","kind":"peak","name":"峪壶峰","lat":39.8739979,"lon":115.8148186,"elevationM":621},{"id":"node:10564222995","kind":"peak","name":"栗子成尖","lat":39.8333374,"lon":115.9857609,"elevationM":692},{"id":"node:10569442738","kind":"peak","name":"大西沟尖","lat":39.7966995,"lon":115.8107726,"elevationM":853},{"id":"node:10596044673","kind":"peak","name":"鸡冠崖","lat":39.7595441,"lon":115.5914183,"elevationM":1262},{"id":"node:10598193013","kind":"peak","name":"东港山尖","lat":39.7320987,"lon":115.5526393,"elevationM":934},{"id":"node:10672244751","kind":"peak","name":"剑峰岭","lat":39.9158917,"lon":115.4974291,"elevationM":1040},{"id":"node:10749976516","kind":"peak","name":"黄安坨","lat":39.8694745,"lon":115.5732645,"elevationM":1075},{"id":"node:11694178085","kind":"peak","name":"南大梁","lat":39.799006,"lon":115.9577738,"elevationM":424},{"id":"node:11694178486","kind":"peak","name":"仙台山","lat":39.6790964,"lon":115.8832989,"elevationM":492},{"id":"node:11694178487","kind":"peak","name":"琵琶山","lat":39.6687305,"lon":115.9060079,"elevationM":121},{"id":"node:11694178488","kind":"peak","name":"金山","lat":39.7026544,"lon":115.9001088,"elevationM":444},{"id":"node:11694178490","kind":"peak","name":"三峰山","lat":39.7620874,"lon":115.9040295,"elevationM":1021},{"id":"node:11694178491","kind":"peak","name":"老虎山","lat":39.7505783,"lon":115.9469866,"elevationM":217},{"id":"node:11694178492","kind":"peak","name":"磨盘山","lat":39.6936346,"lon":115.9669621,"elevationM":112},{"id":"node:11694178493","kind":"peak","name":"擂鼓台山","lat":39.6270434,"lon":115.8983796,"elevationM":122},{"id":"node:11694178494","kind":"peak","name":"旗山","lat":39.6275926,"lon":115.8889676,"elevationM":161},{"id":"node:11694178495","kind":"peak","name":"元宝山","lat":39.6288786,"lon":115.8799755,"elevationM":118},{"id":"node:11694178496","kind":"peak","name":"太白山","lat":39.6116928,"lon":115.8405501,"elevationM":255},{"id":"node:11694178497","kind":"peak","name":"双坨山","lat":39.6108207,"lon":115.8467307,"elevationM":219},{"id":"node:11694178498","kind":"peak","name":"雪山","lat":39.6113165,"lon":115.8499717,"elevationM":225},{"id":"node:11694178499","kind":"peak","name":"横山","lat":39.6039524,"lon":115.8413477,"elevationM":160},{"id":"node:11941448480","kind":"peak","name":"官帽山","lat":39.9370845,"lon":115.6846734,"elevationM":null},{"id":"node:12408826882","kind":"peak","name":"对子坨","lat":39.5592992,"lon":115.4733385,"elevationM":1221},{"id":"node:12408826883","kind":"peak","name":"孩儿山","lat":39.5601672,"lon":115.4152915,"elevationM":1397},{"id":"node:12408826884","kind":"peak","name":"卧钟坨","lat":39.5961,"lon":115.4216396,"elevationM":1332},{"id":"node:12408826885","kind":"peak","name":"小白岩南山","lat":39.5937747,"lon":115.3408493,"elevationM":1196},{"id":"node:12408826886","kind":"peak","name":"望京坨","lat":39.6441316,"lon":115.4010695,"elevationM":1051},{"id":"node:12408826887","kind":"peak","name":"大峪岭","lat":39.5062926,"lon":115.4864982,"elevationM":1185},{"id":"node:12408826888","kind":"peak","name":"塔山","lat":39.6493279,"lon":115.4201728,"elevationM":1068},{"id":"node:12408826889","kind":"peak","name":"蝎子沟顶","lat":39.6452623,"lon":115.3755094,"elevationM":1061},{"id":"node:12408826890","kind":"peak","name":"排风坨","lat":39.626252,"lon":115.2810615,"elevationM":867},{"id":"node:12408826891","kind":"peak","name":"大牧沟坨","lat":39.6765201,"lon":115.3553616,"elevationM":870},{"id":"node:12408841281","kind":"peak","name":"鹿马坑梁","lat":39.7545133,"lon":115.5638103,"elevationM":1202},{"id":"node:12408841416","kind":"peak","name":"南抓髻山","lat":39.7939532,"lon":115.7158473,"elevationM":1120},{"id":"node:12408841675","kind":"peak","name":"骆驼岭B","lat":39.8398874,"lon":115.9430176,"elevationM":null},{"id":"node:12408841889","kind":"peak","name":"金牛岭","lat":39.8400821,"lon":115.9152744,"elevationM":652},{"id":"node:12408841944","kind":"peak","name":"北寨山A","lat":39.8354118,"lon":115.9091999,"elevationM":611},{"id":"node:12408842039","kind":"peak","name":"北寨山B","lat":39.8324061,"lon":115.9084177,"elevationM":605},{"id":"node:12409526020","kind":"peak","name":"两壶峰","lat":39.9283325,"lon":115.8960045,"elevationM":810}]}