{"tileKey":"la_p60_lo_m46","version":"v1-1775891056926","entries":[{"id":"node:1881986340","kind":"peak","name":"Quassuk","lat":60.1649748,"lon":-45.2599432,"elevationM":308},{"id":"node:1881986629","kind":"peak","name":"Qaqqarsuasik","lat":60.1348531,"lon":-45.3129139,"elevationM":559},{"id":"node:1894195638","kind":"peak","name":"Apussigaajuitsoq","lat":60.147608,"lon":-45.2996302,"elevationM":485},{"id":"node:1894195640","kind":"peak","name":"Itillip Qaqqaa","lat":60.1670523,"lon":-45.2798857,"elevationM":182},{"id":"node:1894195641","kind":"peak","name":"Maligissat Qaqqaa","lat":60.1774689,"lon":-45.281871,"elevationM":185},{"id":"node:2059718088","kind":"peak","name":"Ilimmaasap Allequtaa","lat":60.9926597,"lon":-45.9361161,"elevationM":1390},{"id":"node:2059718114","kind":"peak","name":"Kangerluluup Qaqqaa","lat":60.6,"lon":-45.5166667,"elevationM":890},{"id":"node:2059718136","kind":"peak","name":"Kuannersuit","lat":60.985127,"lon":-45.9766044,"elevationM":879},{"id":"node:2059718150","kind":"peak","name":"Matorsuaq","lat":60.75,"lon":-45.2666667,"elevationM":1023},{"id":"node:2059718153","kind":"peak","name":"Meqqutoqqat Qaqqaa","lat":60.8833333,"lon":-45.6333333,"elevationM":884},{"id":"node:2059718168","kind":"peak","name":"Nakkaalaaq","lat":60.9751424,"lon":-45.8945176,"elevationM":1207},{"id":"node:2059718256","kind":"peak","name":"Qaqortukuluup Qaqqaa","lat":60.85,"lon":-45.7833333,"elevationM":1059},{"id":"node:2059718296","kind":"peak","name":"Sulussugutaasaa","lat":60.9833333,"lon":-45.2,"elevationM":1660},{"id":"node:2943361677","kind":"peak","name":"Talut","lat":60.9382804,"lon":-45.9808196,"elevationM":790},{"id":"node:5650472779","kind":"peak","name":"Tallorutit","lat":60.9659887,"lon":-45.3092601,"elevationM":768},{"id":"node:5650472780","kind":"peak","name":"Nuuluk","lat":60.9593543,"lon":-45.4327919,"elevationM":824},{"id":"node:12802688926","kind":"peak","name":"Alanngorsuup Qaqqaa","lat":60.7258737,"lon":-45.7218707,"elevationM":404},{"id":"node:12802688930","kind":"peak","name":"Kangikasiip Qaqqaa","lat":60.5268649,"lon":-45.663152,"elevationM":599},{"id":"node:12802688932","kind":"peak","name":"Qaarsup Qaqqaa","lat":60.5307787,"lon":-45.8744213,"elevationM":252},{"id":"node:12802688933","kind":"peak","name":"Itisup Qaqqaa","lat":60.5469388,"lon":-45.9483776,"elevationM":144},{"id":"node:12802688934","kind":"peak","name":"Qasigissamik Natsilik","lat":60.5374689,"lon":-45.9191911,"elevationM":308},{"id":"node:12802688935","kind":"peak","name":"Iliverleq","lat":60.563372,"lon":-45.8778571,"elevationM":465},{"id":"node:12802688936","kind":"peak","name":"Inussiarneq","lat":60.5777724,"lon":-45.9358172,"elevationM":245},{"id":"node:12802691302","kind":"peak","name":"Eqalugaarsuit Qaavat","lat":60.640405,"lon":-45.9087299,"elevationM":434},{"id":"node:12925075568","kind":"peak","name":"Klokken","lat":60.9350192,"lon":-45.0868607,"elevationM":641}]}