{"tileKey":"la_p36_lo_m79","version":"v1-1775891056926","entries":[{"id":"node:356562561","kind":"peak","name":"Ivy Hill","lat":36.5881976,"lon":-78.433887,"elevationM":120},{"id":"node:357806496","kind":"peak","name":"Bethel Hill","lat":36.5123629,"lon":-78.9094538,"elevationM":192},{"id":"node:357807545","kind":"peak","name":"Hagers Mountain","lat":36.464863,"lon":-78.9697327,"elevationM":210},{"id":"node:357808882","kind":"peak","name":"Red Mountain","lat":36.2404197,"lon":-78.9150078,"elevationM":243},{"id":"node:357812920","kind":"peak","name":"Glenns Mountain","lat":36.2609753,"lon":-78.9011187,"elevationM":244},{"id":"node:2799258464","kind":"peak","name":"Huckleberry Hill","lat":36.0393383,"lon":-78.9589025,"elevationM":null}]}