{"tileKey":"la_p17_lo_m72","version":"v1-1775891056926","entries":[{"id":"node:6227630952","kind":"peak","name":"Loma Toussaint","lat":17.7555229,"lon":-71.4743779,"elevationM":211},{"id":"node:6227630953","kind":"peak","name":"Cerro La Isleta","lat":17.7025238,"lon":-71.4756046,"elevationM":null},{"id":"node:10228682264","kind":"peak","name":"Loma del Camello","lat":17.7618329,"lon":-71.648323,"elevationM":110},{"id":"node:10274273173","kind":"peak","name":"Loma del Guano","lat":17.9466289,"lon":-71.5659974,"elevationM":null},{"id":"node:10278688956","kind":"peak","name":"Alto Velo","lat":17.4761488,"lon":-71.6429005,"elevationM":130}]}