{"tileKey":"la_p23_lo_p111","version":"v1-1775891056926","entries":[{"id":"node:6875362090","kind":"peak","name":"石根山","lat":23.5631071,"lon":111.9727408,"elevationM":null},{"id":"node:6900409501","kind":"peak","name":"蜈蚣山","lat":23.4854241,"lon":111.2586757,"elevationM":null},{"id":"node:6900409502","kind":"peak","name":"狮卧山","lat":23.4959291,"lon":111.2724363,"elevationM":null},{"id":"node:6900409503","kind":"peak","name":"蝴蝶山","lat":23.4776831,"lon":111.2972994,"elevationM":74},{"id":"node:7244280404","kind":"peak","name":"盘龙峡","lat":23.3675528,"lon":111.8198147,"elevationM":null},{"id":"node:7603942951","kind":"peak","name":"龙山","lat":23.5185948,"lon":111.7972667,"elevationM":null},{"id":"node:12064640326","kind":"peak","name":"云盖山","lat":23.4772099,"lon":111.3184968,"elevationM":null},{"id":"node:12066564622","kind":"peak","name":"白云山","lat":23.4867121,"lon":111.3329327,"elevationM":386},{"id":"node:12074841284","kind":"peak","name":"柏山","lat":23.4873959,"lon":111.2727501,"elevationM":null},{"id":"node:12074841285","kind":"peak","name":"天岭界","lat":23.4931043,"lon":111.2660718,"elevationM":null},{"id":"node:12074841294","kind":"peak","name":"金芽山","lat":23.4820417,"lon":111.2322323,"elevationM":null},{"id":"node:12088798703","kind":"peak","name":"珠投岭","lat":23.4844245,"lon":111.3117868,"elevationM":null},{"id":"node:12098670244","kind":"peak","name":"蜈蚣山","lat":23.5413763,"lon":111.3225328,"elevationM":null},{"id":"node:12101422718","kind":"peak","name":"木冲顶","lat":23.5048722,"lon":111.1943102,"elevationM":null},{"id":"node:12105992914","kind":"peak","name":"铁顶角","lat":23.4543892,"lon":111.2660651,"elevationM":null},{"id":"node:12111576613","kind":"peak","name":"大雾山","lat":23.3104519,"lon":111.8159998,"elevationM":null},{"id":"node:12113104205","kind":"peak","name":"火山","lat":23.4631509,"lon":111.3242891,"elevationM":null},{"id":"node:12113112869","kind":"peak","name":"榜山","lat":23.4790696,"lon":111.3041848,"elevationM":null},{"id":"node:12113112870","kind":"peak","name":"珠山","lat":23.4750869,"lon":111.3028731,"elevationM":null},{"id":"node:12113112874","kind":"peak","name":"北山","lat":23.4806837,"lon":111.3133517,"elevationM":null},{"id":"node:12113939562","kind":"peak","name":"八仙山","lat":23.2026504,"lon":111.9714916,"elevationM":null},{"id":"node:12116864451","kind":"peak","name":"石人顶","lat":23.4961065,"lon":111.285493,"elevationM":null},{"id":"node:12118259118","kind":"peak","name":"铜鼓山","lat":23.4583662,"lon":111.2708349,"elevationM":null},{"id":"node:12148372506","kind":"peak","name":"水晶顶","lat":23.1888132,"lon":111.9570907,"elevationM":null},{"id":"node:12161013211","kind":"peak","name":"尖峰顶","lat":23.3298375,"lon":111.7331983,"elevationM":794},{"id":"node:12184458920","kind":"peak","name":"大雾顶","lat":23.7472813,"lon":111.773972,"elevationM":null},{"id":"node:12184458921","kind":"peak","name":"社滩顶","lat":23.7407231,"lon":111.7808771,"elevationM":null},{"id":"node:12184458922","kind":"peak","name":"高界顶","lat":23.7454333,"lon":111.7601509,"elevationM":null},{"id":"node:12196446929","kind":"peak","name":"猪乸山","lat":23.4204505,"lon":111.5072892,"elevationM":null},{"id":"node:12296465295","kind":"peak","name":"大坦顶","lat":23.1784603,"lon":111.4143102,"elevationM":null},{"id":"node:12343735432","kind":"peak","name":"二坑界","lat":23.1211427,"lon":111.7259434,"elevationM":null},{"id":"node:12343735433","kind":"peak","name":"挂牌顶","lat":23.1344034,"lon":111.7022884,"elevationM":null},{"id":"node:12343735575","kind":"peak","name":"四坑顶","lat":23.1104848,"lon":111.7317968,"elevationM":null},{"id":"node:12343735576","kind":"peak","name":"马塘界","lat":23.1009955,"lon":111.7390925,"elevationM":null},{"id":"node:12343736135","kind":"peak","name":"六瓦顶","lat":23.0798886,"lon":111.719754,"elevationM":null},{"id":"node:12346201882","kind":"peak","name":"石榴花顶","lat":23.0837434,"lon":111.6480742,"elevationM":null},{"id":"node:12347693334","kind":"peak","name":"天江顶","lat":23.0118518,"lon":111.5410203,"elevationM":null},{"id":"node:12347693335","kind":"peak","name":"册罗顶","lat":23.0190002,"lon":111.521415,"elevationM":null},{"id":"node:12347693445","kind":"peak","name":"金菊顶","lat":23.0366256,"lon":111.5607038,"elevationM":null},{"id":"node:13049551242","kind":"peak","name":"七星岩顶","lat":23.5386806,"lon":111.9621289,"elevationM":null},{"id":"node:13049551243","kind":"peak","name":"水浪顶","lat":23.5242482,"lon":111.9637846,"elevationM":null},{"id":"node:13049551244","kind":"peak","name":"深坑顶","lat":23.5244321,"lon":111.9405221,"elevationM":null},{"id":"node:13120861744","kind":"peak","name":"班石顶","lat":23.4622269,"lon":111.7321665,"elevationM":null},{"id":"node:13154650071","kind":"peak","name":"夜鬼头","lat":23.4104369,"lon":111.4695927,"elevationM":null},{"id":"node:13154650072","kind":"peak","name":"下简头","lat":23.3940842,"lon":111.4770256,"elevationM":null},{"id":"node:13154650073","kind":"peak","name":"珠含山","lat":23.3927455,"lon":111.4606123,"elevationM":null},{"id":"node:13154650074","kind":"peak","name":"桃子埇顶","lat":23.3795963,"lon":111.4581485,"elevationM":null},{"id":"node:13154650075","kind":"peak","name":"金星山","lat":23.4162348,"lon":111.4548579,"elevationM":null},{"id":"node:13247689157","kind":"peak","name":"勒菜山","lat":23.3021955,"lon":111.8165625,"elevationM":null},{"id":"node:13247689168","kind":"peak","name":"双乐山","lat":23.3056108,"lon":111.8176231,"elevationM":null},{"id":"node:13410842413","kind":"peak","name":"更鼓顶","lat":23.7362799,"lon":111.3544479,"elevationM":null},{"id":"node:13410842414","kind":"peak","name":"饭包顶","lat":23.7087932,"lon":111.3397366,"elevationM":null},{"id":"node:13412924657","kind":"peak","name":"象牙山","lat":23.2267569,"lon":111.9999838,"elevationM":908},{"id":"node:13412924659","kind":"peak","name":"大崩顶","lat":23.2498887,"lon":111.9980508,"elevationM":740},{"id":"node:13459906189","kind":"peak","name":"桅杆顶","lat":23.3715308,"lon":111.7466327,"elevationM":770},{"id":"node:13459974722","kind":"peak","name":"三叉顶","lat":23.358204,"lon":111.741366,"elevationM":900},{"id":"node:13459974726","kind":"peak","name":"大旺顶","lat":23.3249853,"lon":111.7475839,"elevationM":600},{"id":"node:13459974728","kind":"peak","name":"尖峰顶","lat":23.3263557,"lon":111.7670723,"elevationM":470}]}