{"tileKey":"la_p45_lo_p24","version":"v1-1775891056926","entries":[{"id":"node:26862846","kind":"peak","name":"Iezeru Mare","lat":45.466031,"lon":24.9543356,"elevationM":2463},{"id":"node:26864030","kind":"peak","name":"Ciuha Mare","lat":45.3220825,"lon":24.3358175,"elevationM":1668},{"id":"node:281194185","kind":"peak","name":"Viștea Mare","lat":45.6028964,"lon":24.7360552,"elevationM":2524},{"id":"node:281201511","kind":"peak","name":"Hârtopul Darei","lat":45.58652,"lon":24.8292318,"elevationM":2506},{"id":"node:281201784","kind":"peak","name":"Vf. Mușetescu","lat":45.580652,"lon":24.8324264,"elevationM":2495},{"id":"node:281202881","kind":"peak","name":"La Fundu Bândei","lat":45.5915911,"lon":24.8359946,"elevationM":2454},{"id":"node:298202511","kind":"peak","name":"Moldoveanu","lat":45.5995641,"lon":24.7361706,"elevationM":2544},{"id":"node:298256956","kind":"peak","name":"Lăițel","lat":45.5880479,"lon":24.5869569,"elevationM":2391},{"id":"node:298257061","kind":"peak","name":"Negoiu","lat":45.5850467,"lon":24.5585693,"elevationM":2535},{"id":"node:298266099","kind":"peak","name":"Șerbotă","lat":45.5848873,"lon":24.5387403,"elevationM":2331},{"id":"node:298913224","kind":"peak","name":"Scara","lat":45.5836487,"lon":24.5039767,"elevationM":2306},{"id":"node:305126952","kind":"peak","name":"Gera","lat":45.3182789,"lon":24.081544,"elevationM":1886},{"id":"node:305143992","kind":"peak","name":"Arnota","lat":45.2066677,"lon":24.0476065,"elevationM":1183},{"id":"node:305144124","kind":"peak","name":"Piatra","lat":45.2291886,"lon":24.0804041,"elevationM":1643},{"id":"node:305144135","kind":"peak","name":"Albu","lat":45.23753,"lon":24.0894142,"elevationM":1658},{"id":"node:305144297","kind":"peak","name":"Preota","lat":45.3127675,"lon":24.0617938,"elevationM":1954},{"id":"node:305144372","kind":"peak","name":"Govora","lat":45.3037278,"lon":24.0383044,"elevationM":1958},{"id":"node:443639388","kind":"peak","name":"Iezerul Caprei","lat":45.599679,"lon":24.6230183,"elevationM":2418},{"id":"node:443639715","kind":"peak","name":"Găleșescu Mare","lat":45.6104352,"lon":24.7683907,"elevationM":2470},{"id":"node:443639717","kind":"peak","name":"Gălășescu Mic","lat":45.6080048,"lon":24.7809985,"elevationM":2398},{"id":"node:443639719","kind":"peak","name":"Slănina","lat":45.6025868,"lon":24.7923094,"elevationM":2268},{"id":"node:443639720","kind":"peak","name":"Mogoș","lat":45.6074696,"lon":24.8180614,"elevationM":2398},{"id":"node:443639721","kind":"peak","name":"Colțu Bălăceni","lat":45.6055835,"lon":24.798959,"elevationM":2286},{"id":"node:443639723","kind":"peak","name":"Urlea","lat":45.6065168,"lon":24.8299023,"elevationM":2473},{"id":"node:443639724","kind":"peak","name":"Moșu","lat":45.6101912,"lon":24.8633466,"elevationM":2231},{"id":"node:443639725","kind":"peak","name":"Somnului","lat":45.6095613,"lon":24.8339215,"elevationM":2385},{"id":"node:443639767","kind":"peak","name":"Galbenele","lat":45.6095451,"lon":24.7575404,"elevationM":2436},{"id":"node:443639769","kind":"peak","name":"Hârtopul Ursului","lat":45.6060546,"lon":24.7527629,"elevationM":2454},{"id":"node:443639772","kind":"peak","name":"Ucișoara","lat":45.6079099,"lon":24.7285538,"elevationM":2390},{"id":"node:444970198","kind":"peak","name":"Iezer","lat":45.5962302,"lon":24.8328905,"elevationM":2429},{"id":"node:444970200","kind":"peak","name":"Cheia Bandei","lat":45.6107241,"lon":24.8108588,"elevationM":2381},{"id":"node:444970203","kind":"peak","name":"Ucea Mare","lat":45.6076715,"lon":24.7168323,"elevationM":2434},{"id":"node:444970205","kind":"peak","name":"Corabia","lat":45.6044946,"lon":24.7095468,"elevationM":2406},{"id":"node:444970207","kind":"peak","name":"Podu Giurgiului","lat":45.6022951,"lon":24.6996325,"elevationM":2358},{"id":"node:444970209","kind":"peak","name":"Tărâța","lat":45.6049148,"lon":24.6957713,"elevationM":2400},{"id":"node:444970216","kind":"peak","name":"Podragu","lat":45.6042469,"lon":24.6848957,"elevationM":2462},{"id":"node:444970217","kind":"peak","name":"Mircii","lat":45.5959787,"lon":24.6808604,"elevationM":2470},{"id":"node:539510901","kind":"peak","name":"Vânătarea lui Buteanu","lat":45.60437,"lon":24.6319612,"elevationM":2507},{"id":"node:992608503","kind":"peak","name":"Buila","lat":45.242374,"lon":24.093252,"elevationM":1848},{"id":"node:1005217693","kind":"peak","name":"Lespezi","lat":45.5779425,"lon":24.56998,"elevationM":2522},{"id":"node:1584202454","kind":"peak","name":"Calea Serii","lat":45.0371005,"lon":24.6381785,"elevationM":565},{"id":"node:1584202455","kind":"peak","name":"Dealul Negaii","lat":45.0172935,"lon":24.6726159,"elevationM":525},{"id":"node:1584202456","kind":"peak","name":"Dealul Oltenilor","lat":45.0442621,"lon":24.6677547,"elevationM":550},{"id":"node:1584202457","kind":"peak","name":"Tapa","lat":45.0775927,"lon":24.5892723,"elevationM":655},{"id":"node:1584202458","kind":"peak","name":"Teiuș","lat":45.0870937,"lon":24.620259,"elevationM":665},{"id":"node:1656474405","kind":"peak","name":"Ciortea Est","lat":45.5737538,"lon":24.4857829,"elevationM":2419},{"id":"node:1656474413","kind":"peak","name":"Ciortea Vest","lat":45.5724942,"lon":24.4815221,"elevationM":2427},{"id":"node:1656474423","kind":"peak","name":"Călțun","lat":45.5781882,"lon":24.5677673,"elevationM":2510},{"id":"node:1656474447","kind":"peak","name":"Dara","lat":45.5894978,"lon":24.8283147,"elevationM":2501},{"id":"node:1656474458","kind":"peak","name":"Paru de Fier","lat":45.594508,"lon":24.6701607,"elevationM":2316},{"id":"node:1656474468","kind":"peak","name":"Piscu Negru","lat":45.5529935,"lon":24.6312792,"elevationM":null},{"id":"node:1656474482","kind":"peak","name":"Vârful Dintre Strungi","lat":45.5817074,"lon":24.5598815,"elevationM":2476},{"id":"node:1661301030","kind":"peak","name":"Chica Pietrelor","lat":45.5837115,"lon":24.3453626,"elevationM":1606},{"id":"node:1665252558","kind":"peak","name":"Arpașul Mare","lat":45.5975953,"lon":24.6774564,"elevationM":2468},{"id":"node:1684570655","kind":"peak","name":"Moșuleața","lat":45.60766,"lon":24.85039,"elevationM":null},{"id":"node:1684718513","kind":"peak","name":"Vârf secundar Albu","lat":45.2318448,"lon":24.093195,"elevationM":null},{"id":"node:1717917120","kind":"peak","name":"Vânturarița Mare","lat":45.2487605,"lon":24.1008194,"elevationM":1885},{"id":"node:1717978183","kind":"peak","name":"Folea","lat":45.305429,"lon":24.1215999,"elevationM":1647},{"id":"node:1864844973","kind":"peak","name":"Netedu","lat":45.6161713,"lon":24.6259656,"elevationM":2351},{"id":"node:2336747041","kind":"peak","name":"Piscul dintre Belii","lat":45.5933552,"lon":24.9662187,"elevationM":null},{"id":"node:2336747042","kind":"peak","name":"Belia Mare","lat":45.5925817,"lon":24.9808875,"elevationM":2295},{"id":"node:2336747043","kind":"peak","name":"Berivoiul Mare","lat":45.5894657,"lon":24.983503,"elevationM":2300},{"id":"node:2336747044","kind":"peak","name":"Brătilă","lat":45.5801438,"lon":24.9453038,"elevationM":2274},{"id":"node:2336747045","kind":"peak","name":"Fața Unsă","lat":45.594179,"lon":24.9171479,"elevationM":2248},{"id":"node:2336747046","kind":"peak","name":"Ludișoru","lat":45.5815953,"lon":24.9261433,"elevationM":2302},{"id":"node:2336747047","kind":"peak","name":"Pietrele Popii","lat":45.5936181,"lon":24.958265,"elevationM":2229},{"id":"node:2336747048","kind":"peak","name":"Zarna","lat":45.5899723,"lon":24.854104,"elevationM":2236},{"id":"node:2353498854","kind":"peak","name":"Capra","lat":45.608741,"lon":24.0043467,"elevationM":null},{"id":"node:2353498867","kind":"peak","name":"Grecilor","lat":45.6094991,"lon":24.1378104,"elevationM":1576},{"id":"node:2353498869","kind":"peak","name":"Gârcu","lat":45.5162575,"lon":24.1161717,"elevationM":1991},{"id":"node:2353498877","kind":"peak","name":"Negru","lat":45.4959355,"lon":24.0612327,"elevationM":1965},{"id":"node:2353498881","kind":"peak","name":"Pietrelor","lat":45.5576608,"lon":24.1757974,"elevationM":1279},{"id":"node:2353498882","kind":"peak","name":"Pleșei","lat":45.6450006,"lon":24.1884347,"elevationM":1117},{"id":"node:2353498885","kind":"peak","name":"Pleșului","lat":45.6455929,"lon":24.1719138,"elevationM":1148},{"id":"node:2353498886","kind":"peak","name":"Prejba","lat":45.6071765,"lon":24.1124683,"elevationM":1744},{"id":"node:2353498889","kind":"peak","name":"Pârcalabul","lat":45.5110013,"lon":24.1055242,"elevationM":null},{"id":"node:2353498897","kind":"peak","name":"Sfârcașul","lat":45.5121448,"lon":24.0846058,"elevationM":2054},{"id":"node:2353498904","kind":"peak","name":"Sterpului","lat":45.5180189,"lon":24.0613733,"elevationM":2142},{"id":"node:2353498912","kind":"peak","name":"Voineșița","lat":45.5319483,"lon":24.0111425,"elevationM":1848},{"id":"node:2354517140","kind":"peak","name":"Cocăcii","lat":45.5225665,"lon":24.0371517,"elevationM":2008},{"id":"node:2354517141","kind":"peak","name":"Floarei","lat":45.5230979,"lon":24.1290291,"elevationM":2064},{"id":"node:2354517142","kind":"peak","name":"Plăiețului","lat":45.5228556,"lon":24.1900461,"elevationM":1135},{"id":"node:2541140442","kind":"peak","name":"Hengenberg","lat":45.8972174,"lon":24.5923009,"elevationM":481},{"id":"node:2609002057","kind":"peak","name":"Roșu","lat":45.4755526,"lon":24.9524563,"elevationM":2469},{"id":"node:2609002059","kind":"peak","name":"Oticu","lat":45.5078776,"lon":24.9305978,"elevationM":null},{"id":"node:2609008439","kind":"peak","name":"Vf. Piscanu","lat":45.4885026,"lon":24.9668066,"elevationM":2383},{"id":"node:2609013453","kind":"peak","name":"Cățunu","lat":45.4499825,"lon":24.963208,"elevationM":2319},{"id":"node:2609013454","kind":"peak","name":"Văcarea","lat":45.437578,"lon":24.9836325,"elevationM":2068},{"id":"node:2610571885","kind":"peak","name":"Dealul Ciocârliei","lat":45.9060678,"lon":24.5838567,"elevationM":517},{"id":"node:2877817726","kind":"peak","name":"Malaia","lat":45.3651439,"lon":24.040355,"elevationM":1128},{"id":"node:2877817727","kind":"peak","name":"Pianța","lat":45.3634229,"lon":24.0262456,"elevationM":null},{"id":"node:2877833508","kind":"peak","name":"Molidvișul Mic","lat":45.3780134,"lon":24.0729012,"elevationM":1495},{"id":"node:2877833544","kind":"peak","name":"Molidvișu Mare","lat":45.3981272,"lon":24.0560227,"elevationM":1510},{"id":"node:2877837700","kind":"peak","name":"Gruiul Ursului","lat":45.3950698,"lon":24.0250652,"elevationM":1120},{"id":"node:2929940014","kind":"peak","name":"Albina","lat":45.3539266,"lon":24.6563145,"elevationM":1372},{"id":"node:2930792038","kind":"peak","name":"Ghițu","lat":45.3565152,"lon":24.6942631,"elevationM":1622},{"id":"node:3190212985","kind":"peak","name":"Hinsa","lat":45.6054388,"lon":24.1931116,"elevationM":1262},{"id":"node:3190212986","kind":"peak","name":"Muma","lat":45.6140738,"lon":24.15086,"elevationM":1620},{"id":"node:3190212987","kind":"peak","name":"Pleșița","lat":45.6128007,"lon":24.1690881,"elevationM":1514},{"id":"node:3190212988","kind":"peak","name":"Răvicuți","lat":45.61788,"lon":24.2253785,"elevationM":973},{"id":"node:3382643198","kind":"peak","name":"Suru","lat":45.5877438,"lon":24.4380324,"elevationM":2281},{"id":"node:3583112708","kind":"peak","name":"Durduc","lat":45.3159757,"lon":24.3435442,"elevationM":1568},{"id":"node:3583112709","kind":"peak","name":"Bulzu","lat":45.3159211,"lon":24.3483141,"elevationM":1560},{"id":"node:3658016653","kind":"peak","name":"Râiosu","lat":45.5774695,"lon":24.6532148,"elevationM":null},{"id":"node:3658016654","kind":"peak","name":"Robița","lat":45.5685004,"lon":24.6499993,"elevationM":null},{"id":"node:3658016655","kind":"peak","name":"Mușeteica","lat":45.5740499,"lon":24.6489769,"elevationM":2448},{"id":"node:3658896727","kind":"peak","name":"Arpașu Mic","lat":45.5942674,"lon":24.6595059,"elevationM":2461},{"id":"node:3658896728","kind":"peak","name":"Buda","lat":45.5885632,"lon":24.659021,"elevationM":null},{"id":"node:3661116155","kind":"peak","name":"Picuiata","lat":45.5561662,"lon":24.7175109,"elevationM":null},{"id":"node:3661116170","kind":"peak","name":"Piscul Roșu","lat":45.594564,"lon":24.7419145,"elevationM":null},{"id":"node:3661116219","kind":"peak","name":"Piatra Tăiată","lat":45.5463391,"lon":24.7105157,"elevationM":null},{"id":"node:3661116221","kind":"peak","name":"Scărișoara Mare","lat":45.5736825,"lon":24.7423702,"elevationM":2489},{"id":"node:3662638299","kind":"peak","name":"Comarnic","lat":45.5109213,"lon":24.5575232,"elevationM":1929},{"id":"node:3662638551","kind":"peak","name":"Marginea","lat":45.5154642,"lon":24.5437601,"elevationM":null},{"id":"node:3664003136","kind":"peak","name":"Podeanu","lat":45.5647696,"lon":24.5653197,"elevationM":2262},{"id":"node:3664003137","kind":"peak","name":"Stâna Mare","lat":45.4918457,"lon":24.4998947,"elevationM":null},{"id":"node:3664032601","kind":"peak","name":"Budislavu","lat":45.5823481,"lon":24.4592565,"elevationM":2343},{"id":"node:3665429605","kind":"peak","name":"Olanu","lat":45.5451559,"lon":24.4291345,"elevationM":1944},{"id":"node:3665450859","kind":"peak","name":"Boia","lat":45.5692581,"lon":24.4908838,"elevationM":2342},{"id":"node:3665450860","kind":"peak","name":"Golul Mâzgavu","lat":45.5587652,"lon":24.5107904,"elevationM":1935},{"id":"node:3668254806","kind":"peak","name":"Preotesele","lat":45.507182,"lon":24.807441,"elevationM":null},{"id":"node:3684513590","kind":"peak","name":"Ciuha Mica","lat":45.3180638,"lon":24.3394184,"elevationM":1629},{"id":"node:3774262422","kind":"peak","name":"Galbena","lat":45.5880812,"lon":24.7434364,"elevationM":2419},{"id":"node:3925897872","kind":"peak","name":"Laița","lat":45.5960161,"lon":24.5963217,"elevationM":2397},{"id":"node:4003127714","kind":"peak","name":"La Arie","lat":45.17927,"lon":24.02481,"elevationM":835},{"id":"node:4003127716","kind":"peak","name":"Oboadele","lat":45.2681494,"lon":24.1683824,"elevationM":1020},{"id":"node:4003127719","kind":"peak","name":"Stogu","lat":45.28124,"lon":24.12867,"elevationM":1493},{"id":"node:4253875487","kind":"peak","name":"Dealul Chicera","lat":45.2964048,"lon":24.7080103,"elevationM":1216},{"id":"node:4253877389","kind":"peak","name":"Dealul Ciocanu","lat":45.2640968,"lon":24.9760995,"elevationM":887},{"id":"node:4253877390","kind":"peak","name":"Dealul Negru","lat":45.0268152,"lon":24.3953904,"elevationM":581},{"id":"node:4253877391","kind":"peak","name":"Dealul Căligi","lat":45.2231258,"lon":24.4334608,"elevationM":871},{"id":"node:4371471930","kind":"peak","name":"Măgura","lat":45.6635197,"lon":24.1088095,"elevationM":1304},{"id":"node:4371496630","kind":"peak","name":"Drăguț","lat":45.6589923,"lon":24.0816888,"elevationM":1103},{"id":"node:4371514299","kind":"peak","name":"Dealul Derjani","lat":45.6558622,"lon":24.0649486,"elevationM":1211},{"id":"node:4371549104","kind":"peak","name":"Dosu Albului","lat":45.6498371,"lon":24.0296655,"elevationM":1303},{"id":"node:4557487717","kind":"peak","name":"Hoaghea","lat":45.6319576,"lon":24.7759357,"elevationM":2021},{"id":"node:4676516595","kind":"peak","name":"Șețu","lat":45.4068182,"lon":24.8587181,"elevationM":1720},{"id":"node:4683134810","kind":"peak","name":"Iezeru Mic","lat":45.4565372,"lon":24.9444574,"elevationM":2409},{"id":"node:4683134811","kind":"peak","name":"Obârșia","lat":45.4488078,"lon":24.9334826,"elevationM":2310},{"id":"node:4683134812","kind":"peak","name":"Păpău","lat":45.4252911,"lon":24.8787027,"elevationM":2093},{"id":"node:4868136213","kind":"peak","name":"Muntele lui Schiau","lat":45.6086518,"lon":24.3571505,"elevationM":1334},{"id":"node:5123857769","kind":"peak","name":"Dealul Ticărel","lat":45.1975605,"lon":24.1364369,"elevationM":998},{"id":"node:5123857770","kind":"peak","name":"Dealul Dobricenilor","lat":45.1656637,"lon":24.1255102,"elevationM":null},{"id":"node:5164926404","kind":"peak","name":"Piscul Chicirlă","lat":45.1234888,"lon":24.1040894,"elevationM":null},{"id":"node:5164926409","kind":"peak","name":"Dealul Motești","lat":45.1061358,"lon":24.1017008,"elevationM":null},{"id":"node:5213909758","kind":"peak","name":"Colțul Mare al Foarfecii","lat":45.3131044,"lon":24.333637,"elevationM":null},{"id":"node:5945382229","kind":"peak","name":"Cuca","lat":45.2612949,"lon":24.0304255,"elevationM":1473},{"id":"node:5945382230","kind":"peak","name":"Netedu","lat":45.2911308,"lon":24.0534162,"elevationM":1821},{"id":"node:5945382231","kind":"peak","name":"Zmeuret","lat":45.3056668,"lon":24.0482676,"elevationM":1979},{"id":"node:6080925616","kind":"peak","name":"Tătarul","lat":45.5835695,"lon":24.395139,"elevationM":1890},{"id":"node:6080927867","kind":"peak","name":"Chica Fedeleșului","lat":45.5820095,"lon":24.373346,"elevationM":1820},{"id":"node:6094033604","kind":"peak","name":"Musceaua Scării","lat":45.5799313,"lon":24.5237133,"elevationM":2277},{"id":"node:6206181420","kind":"peak","name":"Dealul Săliște","lat":45.2020907,"lon":24.0927822,"elevationM":895},{"id":"node:6206181471","kind":"peak","name":"Cracul Tisei","lat":45.2133832,"lon":24.11241,"elevationM":null},{"id":"node:6206688176","kind":"peak","name":"Măgura Dobricenilor","lat":45.1902982,"lon":24.1292453,"elevationM":905},{"id":"node:6206688177","kind":"peak","name":"Dealul Pleșii","lat":45.1852748,"lon":24.1484295,"elevationM":943},{"id":"node:6206689149","kind":"peak","name":"Jariștea","lat":45.1847413,"lon":24.1097065,"elevationM":null},{"id":"node:6206689358","kind":"peak","name":"Cracul Piciorul Mărului","lat":45.2238098,"lon":24.1115871,"elevationM":null},{"id":"node:6206689360","kind":"peak","name":"Cracul Plăieț","lat":45.2134781,"lon":24.1006326,"elevationM":null},{"id":"node:6206689422","kind":"peak","name":"Dealul Mare Bărbătești","lat":45.211949,"lon":24.1304143,"elevationM":936},{"id":"node:6206689435","kind":"peak","name":"Țucla","lat":45.2277875,"lon":24.0877496,"elevationM":1581},{"id":"node:6207515291","kind":"peak","name":"Vioreanu","lat":45.2514467,"lon":24.1055758,"elevationM":1866},{"id":"node:6207842212","kind":"peak","name":"Stogșoarele","lat":45.2729827,"lon":24.1282782,"elevationM":null},{"id":"node:6208663396","kind":"peak","name":"Plaiul Scărișoara","lat":45.2090068,"lon":24.0858732,"elevationM":null},{"id":"node:6208663397","kind":"peak","name":"Albina","lat":45.1929191,"lon":24.0887841,"elevationM":null},{"id":"node:6208663399","kind":"peak","name":"Cracul Higiului","lat":45.2409506,"lon":24.1377971,"elevationM":846},{"id":"node:6208664497","kind":"peak","name":"Oale","lat":45.2591542,"lon":24.1180763,"elevationM":1655},{"id":"node:6208684604","kind":"peak","name":"Claia Strâmbă","lat":45.262951,"lon":24.1183732,"elevationM":null},{"id":"node:6210046562","kind":"peak","name":"Cumpăna","lat":45.1944514,"lon":24.1827475,"elevationM":730},{"id":"node:6210326281","kind":"peak","name":"Bărbătescu","lat":45.2970346,"lon":24.0758513,"elevationM":1865},{"id":"node:6210326282","kind":"peak","name":"Vârful lui Lazăr","lat":45.3029298,"lon":24.0674125,"elevationM":1825},{"id":"node:6210371615","kind":"peak","name":"Glăvoci","lat":45.1585925,"lon":24.0863427,"elevationM":null},{"id":"node:6212557477","kind":"peak","name":"Piscul cu Brazi","lat":45.2574517,"lon":24.0755301,"elevationM":null},{"id":"node:6212589965","kind":"peak","name":"Vârful lui Tudose","lat":45.262254,"lon":24.0922909,"elevationM":1607},{"id":"node:6212589970","kind":"peak","name":"Vârful Lupului","lat":45.2665201,"lon":24.1048247,"elevationM":1365},{"id":"node:6213117803","kind":"peak","name":"Sacii cu Lână","lat":45.2077005,"lon":24.0582976,"elevationM":null},{"id":"node:6214689985","kind":"peak","name":"Dealul Pădurea Mare","lat":45.1712267,"lon":24.0928775,"elevationM":null},{"id":"node:6220416737","kind":"peak","name":"Ogașul Ursului","lat":45.2708341,"lon":24.1301824,"elevationM":null},{"id":"node:6220416748","kind":"peak","name":"Dealul Sorbet","lat":45.1517681,"lon":24.1272311,"elevationM":567},{"id":"node:6220416749","kind":"peak","name":"Dealul Bărbăteștilor","lat":45.1839215,"lon":24.0888993,"elevationM":694},{"id":"node:6220416752","kind":"peak","name":"Gliganu","lat":45.1548147,"lon":24.0956331,"elevationM":705},{"id":"node:6231068056","kind":"peak","name":"Țurțudan","lat":45.3480098,"lon":24.2481652,"elevationM":563},{"id":"node:6232557582","kind":"peak","name":"Pârâul Câinelui","lat":45.2662309,"lon":24.2114251,"elevationM":1221},{"id":"node:6232557583","kind":"peak","name":"Olăneștilor","lat":45.2925299,"lon":24.1977177,"elevationM":1415},{"id":"node:6234890567","kind":"peak","name":"Piatra Tăiată","lat":45.2293301,"lon":24.1778295,"elevationM":919},{"id":"node:6234890568","kind":"peak","name":"Cârligele","lat":45.3072445,"lon":24.210073,"elevationM":1509},{"id":"node:6236669205","kind":"peak","name":"Ștevioara","lat":45.2458442,"lon":24.0992829,"elevationM":1835},{"id":"node:6237601403","kind":"peak","name":"Sterpu","lat":45.2729954,"lon":24.1464291,"elevationM":918},{"id":"node:6237601405","kind":"peak","name":"Piscul Mânzului","lat":45.2549689,"lon":24.1827464,"elevationM":1007},{"id":"node:6237618217","kind":"peak","name":"Cândoaia","lat":45.3106241,"lon":24.1394828,"elevationM":1405},{"id":"node:6237618219","kind":"peak","name":"Vârful lui Stan","lat":45.3213886,"lon":24.1562088,"elevationM":1491},{"id":"node:6282040933","kind":"peak","name":"Curătura Vorețe","lat":45.1081933,"lon":24.2572262,"elevationM":500},{"id":"node:6283504607","kind":"peak","name":"Ciolpani","lat":45.1454497,"lon":24.2369352,"elevationM":null},{"id":"node:6283504608","kind":"peak","name":"Prisaca","lat":45.1364413,"lon":24.2214028,"elevationM":569},{"id":"node:6283504609","kind":"peak","name":"Coasta Ponoarului","lat":45.1370156,"lon":24.208021,"elevationM":655},{"id":"node:6283849178","kind":"peak","name":"Poiana Curături","lat":45.1176295,"lon":24.2625111,"elevationM":423},{"id":"node:6284319246","kind":"peak","name":"Coasta Luncii","lat":45.1483142,"lon":24.2586952,"elevationM":479},{"id":"node:6284319304","kind":"peak","name":"Gibulești","lat":45.1402599,"lon":24.2551759,"elevationM":null},{"id":"node:6284319305","kind":"peak","name":"Dealul Bisericii","lat":45.1392001,"lon":24.2624874,"elevationM":null},{"id":"node:6284329817","kind":"peak","name":"Culmea Plocșor","lat":45.1439008,"lon":24.2682005,"elevationM":null},{"id":"node:6284480225","kind":"peak","name":"Dealul Purcăreț","lat":45.1265541,"lon":24.2164476,"elevationM":621},{"id":"node:6284501442","kind":"peak","name":"Coasta Popii","lat":45.1464598,"lon":24.2179003,"elevationM":null},{"id":"node:6284506737","kind":"peak","name":"Coasta lui Radu","lat":45.1527335,"lon":24.2155907,"elevationM":null},{"id":"node:6294204606","kind":"peak","name":"Curăturile","lat":45.1274222,"lon":24.125095,"elevationM":501},{"id":"node:6294204607","kind":"peak","name":"Fața Bârzești","lat":45.1329457,"lon":24.127462,"elevationM":562},{"id":"node:6294204611","kind":"peak","name":"Delureni","lat":45.1421825,"lon":24.1245336,"elevationM":null},{"id":"node:6294204617","kind":"peak","name":"Dealul Bodeștilor","lat":45.1427676,"lon":24.0975153,"elevationM":582},{"id":"node:6294204618","kind":"peak","name":"Pleașa","lat":45.1391351,"lon":24.0991247,"elevationM":null},{"id":"node:6294204619","kind":"peak","name":"Dealul Negruleștilor","lat":45.1381791,"lon":24.0726038,"elevationM":null},{"id":"node:6294204620","kind":"peak","name":"Cuculice","lat":45.1265653,"lon":24.0729263,"elevationM":null},{"id":"node:6294204621","kind":"peak","name":"Măgura Negrulești","lat":45.1316853,"lon":24.0728184,"elevationM":611},{"id":"node:6294262807","kind":"peak","name":"Cuculici","lat":45.1186399,"lon":24.0852732,"elevationM":null},{"id":"node:6294262808","kind":"peak","name":"Dealul Pietrarilor","lat":45.1163081,"lon":24.1275877,"elevationM":null},{"id":"node:6294262809","kind":"peak","name":"Dealul Zăpodilor","lat":45.1129865,"lon":24.1379089,"elevationM":null},{"id":"node:6294262810","kind":"peak","name":"Țepoasa Înaltă","lat":45.1153693,"lon":24.1452474,"elevationM":null},{"id":"node:6294262812","kind":"peak","name":"Alunelu","lat":45.1215627,"lon":24.1471428,"elevationM":null},{"id":"node:6294262814","kind":"peak","name":"Măgura Zmeurătu","lat":45.1418627,"lon":24.1834277,"elevationM":null},{"id":"node:6294262815","kind":"peak","name":"Priboi","lat":45.1444205,"lon":24.1755742,"elevationM":null},{"id":"node:6294262816","kind":"peak","name":"Negrosu","lat":45.1523807,"lon":24.1914744,"elevationM":614},{"id":"node:6294262818","kind":"peak","name":"Șuvița Cacovei","lat":45.165125,"lon":24.181433,"elevationM":null},{"id":"node:6294262819","kind":"peak","name":"Dealul Silelor","lat":45.165215,"lon":24.1901472,"elevationM":null},{"id":"node:6294262820","kind":"peak","name":"Mustosu","lat":45.1738832,"lon":24.151922,"elevationM":590},{"id":"node:6295191896","kind":"peak","name":"Măgura Pietreni","lat":45.1748682,"lon":24.0942043,"elevationM":807},{"id":"node:6295191906","kind":"peak","name":"Blezeni","lat":45.1475268,"lon":24.0792164,"elevationM":null},{"id":"node:6297115676","kind":"peak","name":"Dealul Costeștilor","lat":45.175702,"lon":24.0868672,"elevationM":762},{"id":"node:6297198277","kind":"peak","name":"Târsa","lat":45.1861524,"lon":24.0529488,"elevationM":null},{"id":"node:6318999156","kind":"peak","name":"Delușelu","lat":45.143318,"lon":24.1572975,"elevationM":null},{"id":"node:6319183119","kind":"peak","name":"Islaz","lat":45.1854438,"lon":24.128781,"elevationM":797},{"id":"node:6360541439","kind":"peak","name":"Dealul Ferigi","lat":45.0292954,"lon":24.2193541,"elevationM":null},{"id":"node:6360541440","kind":"peak","name":"Tarnița","lat":45.0465909,"lon":24.2074266,"elevationM":null},{"id":"node:6398200364","kind":"peak","name":"Bătăturii","lat":45.6686957,"lon":24.2850067,"elevationM":null},{"id":"node:6398200365","kind":"peak","name":"Cârpod","lat":45.6738836,"lon":24.2919805,"elevationM":null},{"id":"node:6398200366","kind":"peak","name":"Dealul Piatra Cioru","lat":45.6675711,"lon":24.3050911,"elevationM":null},{"id":"node:6398203071","kind":"peak","name":"Chicera Veștem","lat":45.6912417,"lon":24.2902328,"elevationM":613},{"id":"node:6398203731","kind":"peak","name":"Chicera Bradului","lat":45.6969064,"lon":24.2901665,"elevationM":null},{"id":"node:6437850892","kind":"peak","name":"Cotul Malului","lat":45.2017647,"lon":24.1106261,"elevationM":null},{"id":"node:6447117101","kind":"peak","name":"Brădet","lat":45.1799088,"lon":24.1210392,"elevationM":null},{"id":"node:6466789218","kind":"peak","name":"Gruiul Gorganilor","lat":45.3398999,"lon":24.0982525,"elevationM":null},{"id":"node:6466789220","kind":"peak","name":"Plaiul Cioroiului","lat":45.3286304,"lon":24.1408508,"elevationM":null},{"id":"node:6466832595","kind":"peak","name":"Gruiu Malaia","lat":45.3645475,"lon":24.0313411,"elevationM":null},{"id":"node:6468062161","kind":"peak","name":"Cârlige","lat":45.0981235,"lon":24.1115351,"elevationM":473},{"id":"node:6468088137","kind":"peak","name":"Mânja","lat":45.0790076,"lon":24.0998586,"elevationM":null},{"id":"node:6468089036","kind":"peak","name":"Pleșoara","lat":45.0681426,"lon":24.0924128,"elevationM":null},{"id":"node:6468089037","kind":"peak","name":"Dumbrăvița","lat":45.0588734,"lon":24.1045458,"elevationM":595},{"id":"node:6468089038","kind":"peak","name":"Culmea Lungeștilor","lat":45.0544832,"lon":24.0953163,"elevationM":null},{"id":"node:6468089039","kind":"peak","name":"Dealul Lumineștilor","lat":45.0566723,"lon":24.1216692,"elevationM":null},{"id":"node:6468093202","kind":"peak","name":"La Ciuia","lat":45.0433639,"lon":24.1398962,"elevationM":535},{"id":"node:6468097514","kind":"peak","name":"Dealul Mircei","lat":45.125218,"lon":24.1805599,"elevationM":null},{"id":"node:6510371287","kind":"peak","name":"Varetului","lat":45.619247,"lon":24.3230299,"elevationM":844},{"id":"node:6552297303","kind":"peak","name":"Vf. Sărății","lat":45.5866886,"lon":24.5495114,"elevationM":2384},{"id":"node:6552382399","kind":"peak","name":"Paltinu","lat":45.5983307,"lon":24.6070724,"elevationM":2399},{"id":"node:6689690106","kind":"peak","name":"Târla Caprelor","lat":45.5856174,"lon":24.3512124,"elevationM":null},{"id":"node:6689690108","kind":"peak","name":"Chica lui Ionel","lat":45.6011054,"lon":24.3346202,"elevationM":1235},{"id":"node:6697813473","kind":"peak","name":"Capra","lat":45.6031658,"lon":24.6328416,"elevationM":2494},{"id":"node:7591610273","kind":"peak","name":"Văcarului","lat":45.3753021,"lon":24.2762331,"elevationM":null},{"id":"node:7591610287","kind":"peak","name":"Poiana Suliței","lat":45.3814816,"lon":24.245617,"elevationM":1014},{"id":"node:7614633374","kind":"peak","name":"Puha","lat":45.586755,"lon":24.5120457,"elevationM":2176},{"id":"node:7614633375","kind":"peak","name":"Scărișoara","lat":45.5851838,"lon":24.5058498,"elevationM":2261},{"id":"node:7614692319","kind":"peak","name":"Vârtopu Roșu","lat":45.5814801,"lon":24.4752967,"elevationM":2233},{"id":"node:7614692320","kind":"peak","name":"Turnu Lacului","lat":45.5765211,"lon":24.4781694,"elevationM":2247},{"id":"node:7614692321","kind":"peak","name":"Gârbova","lat":45.5784652,"lon":24.4956064,"elevationM":2188},{"id":"node:7703243216","kind":"peak","name":"Dealul Comorii","lat":45.1153139,"lon":24.2295426,"elevationM":null},{"id":"node:7703243217","kind":"peak","name":"Coasta Mare","lat":45.1126216,"lon":24.2341409,"elevationM":658},{"id":"node:7780246492","kind":"peak","name":"Văiuga","lat":45.6037178,"lon":24.6258732,"elevationM":2443},{"id":"node:7831659783","kind":"peak","name":"Turnul lui Teofil","lat":45.2846051,"lon":24.3114466,"elevationM":519},{"id":"node:8010068008","kind":"peak","name":"Dealul Lacul Frumoasei","lat":45.1515648,"lon":24.2945793,"elevationM":753},{"id":"node:8039278515","kind":"peak","name":"Dealul Răduleni","lat":45.0811943,"lon":24.5562194,"elevationM":450},{"id":"node:8039278517","kind":"peak","name":"Coasta Mare","lat":45.0986834,"lon":24.5875579,"elevationM":null},{"id":"node:8039278518","kind":"peak","name":"Muchia Bucuroiu","lat":45.1056959,"lon":24.5716578,"elevationM":null},{"id":"node:8039278519","kind":"peak","name":"Momaia","lat":45.1173808,"lon":24.5874027,"elevationM":null},{"id":"node:8039626336","kind":"peak","name":"Alângului","lat":45.2519716,"lon":24.4874777,"elevationM":745},{"id":"node:8039626337","kind":"peak","name":"Dealul Alângului","lat":45.2433303,"lon":24.4777789,"elevationM":null},{"id":"node:8039658947","kind":"peak","name":"Culmea Mangului","lat":45.2472442,"lon":24.499002,"elevationM":null},{"id":"node:8039658956","kind":"peak","name":"Dealul Fața Mânăstirii","lat":45.2762653,"lon":24.5559779,"elevationM":null},{"id":"node:8039682956","kind":"peak","name":"Bărăști","lat":45.2618313,"lon":24.5850093,"elevationM":752},{"id":"node:8039704035","kind":"peak","name":"Gluga Zapozilor","lat":45.2894469,"lon":24.5405289,"elevationM":846},{"id":"node:8039704036","kind":"peak","name":"Muchia Zapozi","lat":45.2955605,"lon":24.5540043,"elevationM":1060},{"id":"node:8039953537","kind":"peak","name":"Uliului","lat":45.1285731,"lon":24.4541655,"elevationM":626},{"id":"node:8039953538","kind":"peak","name":"Dealul Săliștea","lat":45.1248793,"lon":24.437054,"elevationM":610},{"id":"node:8039953539","kind":"peak","name":"Dealul Cornetului","lat":45.128294,"lon":24.428268,"elevationM":null},{"id":"node:8039953540","kind":"peak","name":"Dealul Iancului","lat":45.1379066,"lon":24.4517809,"elevationM":null},{"id":"node:8039953541","kind":"peak","name":"Dealul Perișor","lat":45.1442516,"lon":24.4626358,"elevationM":null},{"id":"node:8058566403","kind":"peak","name":"Piscul Cerbului","lat":45.5874988,"lon":24.3260032,"elevationM":null},{"id":"node:8058566404","kind":"peak","name":"Chica Lacului","lat":45.5833691,"lon":24.3591982,"elevationM":1648},{"id":"node:8058566405","kind":"peak","name":"Strâmbanu","lat":45.5818156,"lon":24.3373267,"elevationM":1506},{"id":"node:8058566406","kind":"peak","name":"Păltioara","lat":45.5781239,"lon":24.3293893,"elevationM":1293},{"id":"node:8058566407","kind":"peak","name":"Chica Drăghicioaia","lat":45.5716711,"lon":24.2909471,"elevationM":1266},{"id":"node:8058566408","kind":"peak","name":"Muchia Repezoi","lat":45.570916,"lon":24.3154182,"elevationM":1240},{"id":"node:8058566409","kind":"peak","name":"Claia Bulzului","lat":45.5663866,"lon":24.3090944,"elevationM":1384},{"id":"node:8058633260","kind":"peak","name":"Zănoaga Câinenilor","lat":45.5597301,"lon":24.3587258,"elevationM":1712},{"id":"node:8058633261","kind":"peak","name":"Coților","lat":45.5570357,"lon":24.3760185,"elevationM":1511},{"id":"node:8058703839","kind":"peak","name":"Mormântul","lat":45.4806524,"lon":24.3856284,"elevationM":1211},{"id":"node:8058807632","kind":"peak","name":"Zănoaga","lat":45.4731353,"lon":24.4342173,"elevationM":1544},{"id":"node:8058807633","kind":"peak","name":"Culmea Zănoagei","lat":45.4780822,"lon":24.4566163,"elevationM":null},{"id":"node:8061897839","kind":"peak","name":"Golul Clăbucetului","lat":45.4565365,"lon":24.4491499,"elevationM":1542},{"id":"node:8061897840","kind":"peak","name":"Runcu","lat":45.4357475,"lon":24.447864,"elevationM":null},{"id":"node:8061897842","kind":"peak","name":"Turtureaua","lat":45.4773558,"lon":24.4446469,"elevationM":1633},{"id":"node:8061897843","kind":"peak","name":"Călugăru","lat":45.4879304,"lon":24.4624734,"elevationM":1715},{"id":"node:8061897845","kind":"peak","name":"Leul","lat":45.5052428,"lon":24.4630474,"elevationM":1734},{"id":"node:8061897846","kind":"peak","name":"Fața Sfântul Ilie","lat":45.5260158,"lon":24.4855697,"elevationM":2006},{"id":"node:8062114377","kind":"peak","name":"Coarneșu","lat":45.5041018,"lon":24.4837159,"elevationM":1816},{"id":"node:8062614813","kind":"peak","name":"Pietrosul","lat":45.3727276,"lon":24.46451,"elevationM":1359},{"id":"node:8062694809","kind":"peak","name":"Șuțu","lat":45.3743286,"lon":24.4711036,"elevationM":1250},{"id":"node:8062694810","kind":"peak","name":"Mamurile","lat":45.3779792,"lon":24.457227,"elevationM":1207},{"id":"node:8062694818","kind":"peak","name":"Golul Cireșului","lat":45.392218,"lon":24.3817655,"elevationM":954},{"id":"node:8062694847","kind":"peak","name":"Stogul","lat":45.3768399,"lon":24.3511598,"elevationM":740},{"id":"node:8062694849","kind":"peak","name":"Cordoaia","lat":45.3880726,"lon":24.3332948,"elevationM":null},{"id":"node:8062694850","kind":"peak","name":"Prislopului","lat":45.3850887,"lon":24.3119873,"elevationM":546},{"id":"node:8062992688","kind":"peak","name":"Boia Mare","lat":45.5253483,"lon":24.417502,"elevationM":null},{"id":"node:8062994210","kind":"peak","name":"Grohotișului","lat":45.5700207,"lon":24.4723295,"elevationM":2366},{"id":"node:8062994211","kind":"peak","name":"Petriceaua","lat":45.5583553,"lon":24.4951679,"elevationM":2312},{"id":"node:8064824913","kind":"peak","name":"Poiana Cerbului","lat":45.5236857,"lon":24.40854,"elevationM":1435},{"id":"node:8064824914","kind":"peak","name":"Măgura","lat":45.5214951,"lon":24.3557395,"elevationM":1268},{"id":"node:8064824915","kind":"peak","name":"Pleașa","lat":45.5200508,"lon":24.314155,"elevationM":1201},{"id":"node:8064850762","kind":"peak","name":"Strungi","lat":45.5270814,"lon":24.3230155,"elevationM":null},{"id":"node:8064850764","kind":"peak","name":"Muntele Brusturel","lat":45.5545929,"lon":24.300138,"elevationM":null},{"id":"node:8064890504","kind":"peak","name":"Fața Calului","lat":45.5511198,"lon":24.2808113,"elevationM":840},{"id":"node:8064955922","kind":"peak","name":"Paltinul","lat":45.5762213,"lon":24.3233419,"elevationM":1270},{"id":"node:8087445521","kind":"peak","name":"Miclăuș","lat":45.573081,"lon":24.4329651,"elevationM":null},{"id":"node:8146186275","kind":"peak","name":"Gruiul Bradului","lat":45.4464786,"lon":24.2955341,"elevationM":null},{"id":"node:8146186282","kind":"peak","name":"Dealul Boldan","lat":45.4401126,"lon":24.2855638,"elevationM":null},{"id":"node:8146186283","kind":"peak","name":"Ghimpuroșu","lat":45.4403706,"lon":24.2704502,"elevationM":882},{"id":"node:8146190785","kind":"peak","name":"Rigla","lat":45.4416185,"lon":24.2336208,"elevationM":1425},{"id":"node:8146206178","kind":"peak","name":"Șuța","lat":45.419267,"lon":24.2582576,"elevationM":1121},{"id":"node:8146206179","kind":"peak","name":"Chicere","lat":45.4301207,"lon":24.2792277,"elevationM":null},{"id":"node:8146206180","kind":"peak","name":"Dealul Bolovanul","lat":45.4234091,"lon":24.2731812,"elevationM":null},{"id":"node:8151071387","kind":"peak","name":"Bețel","lat":45.3716344,"lon":24.2660034,"elevationM":null},{"id":"node:8151167377","kind":"peak","name":"Vasilatu","lat":45.354115,"lon":24.2169225,"elevationM":null},{"id":"node:8154948838","kind":"peak","name":"Pleașa Oii","lat":45.4014094,"lon":24.1759257,"elevationM":1186},{"id":"node:8154949755","kind":"peak","name":"Pleșa Brezoi","lat":45.3785956,"lon":24.1691397,"elevationM":1251},{"id":"node:8154949756","kind":"peak","name":"Purcarul","lat":45.3871913,"lon":24.1610233,"elevationM":null},{"id":"node:8154949757","kind":"peak","name":"Dealul Petroșița","lat":45.3919914,"lon":24.1504517,"elevationM":1163},{"id":"node:8154961368","kind":"peak","name":"Viezurilor","lat":45.3633657,"lon":24.1741728,"elevationM":null},{"id":"node:8154961403","kind":"peak","name":"Dealul Secărele","lat":45.3571143,"lon":24.202898,"elevationM":null},{"id":"node:8155108168","kind":"peak","name":"Dealul Gliva","lat":45.3607503,"lon":24.142604,"elevationM":null},{"id":"node:8155108185","kind":"peak","name":"Dealul Armeanul","lat":45.377756,"lon":24.1188437,"elevationM":1082},{"id":"node:8155108197","kind":"peak","name":"Chica lui Haneș","lat":45.3829983,"lon":24.1129121,"elevationM":1219},{"id":"node:8155128723","kind":"peak","name":"Brădișor","lat":45.3808848,"lon":24.0863485,"elevationM":1381},{"id":"node:8155128799","kind":"peak","name":"Plaiul Malaia","lat":45.4123038,"lon":24.0455846,"elevationM":1385},{"id":"node:8155143610","kind":"peak","name":"Jangu Bradului","lat":45.4318765,"lon":24.0382435,"elevationM":1285},{"id":"node:8155144363","kind":"peak","name":"Totușca Mică","lat":45.4183436,"lon":24.0635426,"elevationM":1105},{"id":"node:8155144364","kind":"peak","name":"Totușca Mare","lat":45.4245134,"lon":24.0491017,"elevationM":null},{"id":"node:8155206751","kind":"peak","name":"Fața Frasinului","lat":45.4348985,"lon":24.0019981,"elevationM":1144},{"id":"node:8155213255","kind":"peak","name":"Dealul Scăunelelor","lat":45.5401116,"lon":24.2611715,"elevationM":null},{"id":"node:8155247540","kind":"peak","name":"Dealul lui Vlad","lat":45.5130651,"lon":24.2267297,"elevationM":null},{"id":"node:8155247541","kind":"peak","name":"Vârful lui Vlad","lat":45.5130952,"lon":24.2370294,"elevationM":1285},{"id":"node:8157514250","kind":"peak","name":"Coasta Câineni","lat":45.5031046,"lon":24.1691403,"elevationM":1840},{"id":"node:8157514283","kind":"peak","name":"Stânișoara","lat":45.5068474,"lon":24.1275638,"elevationM":1998},{"id":"node:8157603850","kind":"peak","name":"Mândra","lat":45.4970673,"lon":24.1254162,"elevationM":1952},{"id":"node:8157603851","kind":"peak","name":"Culmea Robului","lat":45.4867616,"lon":24.1364374,"elevationM":null},{"id":"node:8157603867","kind":"peak","name":"Arsurii","lat":45.4583735,"lon":24.0720547,"elevationM":1644},{"id":"node:8157603885","kind":"peak","name":"Vătafului","lat":45.4805912,"lon":24.0467328,"elevationM":1676},{"id":"node:8157603904","kind":"peak","name":"Dealul Măceșului","lat":45.4444195,"lon":24.0327453,"elevationM":null},{"id":"node:8157707723","kind":"peak","name":"Muntele Găina","lat":45.4539102,"lon":24.0661454,"elevationM":null},{"id":"node:8157707740","kind":"peak","name":"Vârful Sturilor","lat":45.4718262,"lon":24.0671597,"elevationM":null},{"id":"node:8157819689","kind":"peak","name":"Robu","lat":45.4731632,"lon":24.1470083,"elevationM":1899},{"id":"node:8157819690","kind":"peak","name":"Muntele Murgașu","lat":45.4728114,"lon":24.1753261,"elevationM":1763},{"id":"node:8157837723","kind":"peak","name":"Danului","lat":45.4624249,"lon":24.1722336,"elevationM":1670},{"id":"node:8157837764","kind":"peak","name":"Pietrosul","lat":45.4266834,"lon":24.1426313,"elevationM":1441},{"id":"node:8157837784","kind":"peak","name":"Proieni","lat":45.4321924,"lon":24.182242,"elevationM":1350},{"id":"node:8157838129","kind":"peak","name":"Zănoaga","lat":45.4557044,"lon":24.1980811,"elevationM":1488},{"id":"node:8157900194","kind":"peak","name":"Cracul Seciului","lat":45.2346608,"lon":24.1296771,"elevationM":921},{"id":"node:8157900207","kind":"peak","name":"Piscul cu brazi","lat":45.1561002,"lon":24.1279114,"elevationM":null},{"id":"node:8163905317","kind":"peak","name":"Dealul Uria","lat":45.5006709,"lon":24.2682086,"elevationM":940},{"id":"node:8163905319","kind":"peak","name":"Muntele Gorganului","lat":45.4732541,"lon":24.2681044,"elevationM":1153},{"id":"node:8163905557","kind":"peak","name":"Gorganului","lat":45.4753248,"lon":24.2491018,"elevationM":1316},{"id":"node:8163905573","kind":"peak","name":"Dealul Cetățuii","lat":45.4843692,"lon":24.2502002,"elevationM":null},{"id":"node:8167891885","kind":"peak","name":"Plaiul lui Vlad","lat":45.4977867,"lon":24.2215854,"elevationM":1188},{"id":"node:8169814733","kind":"peak","name":"Gâlfa","lat":45.5309708,"lon":24.2279353,"elevationM":1104},{"id":"node:8170556023","kind":"peak","name":"Groapele","lat":45.5380433,"lon":24.1729233,"elevationM":1532},{"id":"node:8170556084","kind":"peak","name":"Bradetul Groapelor","lat":45.5294646,"lon":24.1871307,"elevationM":1505},{"id":"node:8174243125","kind":"peak","name":"Voineagul Cătănesei","lat":45.5396503,"lon":24.013104,"elevationM":1785},{"id":"node:8174243126","kind":"peak","name":"Muntele Duduragului","lat":45.5488475,"lon":24.0156072,"elevationM":1784},{"id":"node:8174595027","kind":"peak","name":"Voineagul Cătănesii","lat":45.5256369,"lon":24.0311937,"elevationM":1960},{"id":"node:8174595028","kind":"peak","name":"Prelunca Voinegel","lat":45.5092419,"lon":24.0060434,"elevationM":1675},{"id":"node:8174595029","kind":"peak","name":"Voinegel","lat":45.5267782,"lon":24.0010446,"elevationM":1738},{"id":"node:8184043759","kind":"peak","name":"Muntele Oului","lat":45.4455682,"lon":24.335187,"elevationM":1004},{"id":"node:8184043773","kind":"peak","name":"Plescioara","lat":45.4537905,"lon":24.3236034,"elevationM":890},{"id":"node:8184054989","kind":"peak","name":"Bobocea","lat":45.4661649,"lon":24.3502233,"elevationM":770},{"id":"node:8184266948","kind":"peak","name":"Mânjina","lat":45.487602,"lon":24.3251384,"elevationM":849},{"id":"node:8184333270","kind":"peak","name":"Stârpele","lat":45.5621446,"lon":24.407015,"elevationM":1540},{"id":"node:8186247404","kind":"peak","name":"Vameșoaia","lat":45.5594552,"lon":24.4576354,"elevationM":null},{"id":"node:8210220058","kind":"peak","name":"Danului","lat":45.4728831,"lon":24.1633746,"elevationM":null},{"id":"node:8210256883","kind":"peak","name":"Gruiul cu Lespezi","lat":45.4464095,"lon":24.1670255,"elevationM":1520},{"id":"node:8210457755","kind":"peak","name":"Fața Mare","lat":45.4436589,"lon":24.1473117,"elevationM":1519},{"id":"node:8211151826","kind":"peak","name":"Ciurtea","lat":45.4163929,"lon":24.1564307,"elevationM":1235},{"id":"node:8211151927","kind":"peak","name":"Veverețu","lat":45.4302641,"lon":24.1897775,"elevationM":1371},{"id":"node:8215177014","kind":"peak","name":"Pleșii","lat":45.4451486,"lon":24.0116706,"elevationM":1231},{"id":"node:8215213913","kind":"peak","name":"Jangu Lăpușului","lat":45.4393009,"lon":24.0251395,"elevationM":1305},{"id":"node:8217248435","kind":"peak","name":"Smida","lat":45.4266504,"lon":24.1036376,"elevationM":1181},{"id":"node:8219334013","kind":"peak","name":"Păltinei","lat":45.3968958,"lon":24.2223244,"elevationM":1018},{"id":"node:8219365468","kind":"peak","name":"Curmătura","lat":45.4664361,"lon":24.1934804,"elevationM":1669},{"id":"node:8219548430","kind":"peak","name":"Ștevioara","lat":45.4710089,"lon":24.2208906,"elevationM":1279},{"id":"node:8219570017","kind":"peak","name":"Lăzuț","lat":45.4620749,"lon":24.2736381,"elevationM":900},{"id":"node:8233965008","kind":"peak","name":"Poiana Lungă","lat":45.4126456,"lon":24.4542004,"elevationM":1349},{"id":"node:8234369760","kind":"peak","name":"La Carpeni","lat":45.3230534,"lon":24.4574893,"elevationM":930},{"id":"node:8234764412","kind":"peak","name":"Haidorul","lat":45.2915654,"lon":24.4032535,"elevationM":904},{"id":"node:8236716620","kind":"peak","name":"Jardea","lat":45.2546082,"lon":24.342091,"elevationM":483},{"id":"node:8236776921","kind":"peak","name":"Păușa","lat":45.268171,"lon":24.3406131,"elevationM":652},{"id":"node:8236994395","kind":"peak","name":"Scorțaru","lat":45.2935528,"lon":24.3217705,"elevationM":758},{"id":"node:8239612800","kind":"peak","name":"Omul","lat":45.339199,"lon":24.3572486,"elevationM":1565},{"id":"node:8239699351","kind":"peak","name":"Boldanu","lat":45.3340836,"lon":24.3189954,"elevationM":1199},{"id":"node:8239779052","kind":"peak","name":"Claia cu Brazi","lat":45.3245569,"lon":24.3221459,"elevationM":null},{"id":"node:8239886182","kind":"peak","name":"Dealul Groșilor","lat":45.3355024,"lon":24.3917611,"elevationM":null},{"id":"node:8244636327","kind":"peak","name":"Dealul Rotbav","lat":45.9659973,"lon":24.8456179,"elevationM":696},{"id":"node:8251164403","kind":"peak","name":"Dealul Târnăcioara","lat":45.4171013,"lon":24.2322621,"elevationM":null},{"id":"node:8253931299","kind":"peak","name":"Piscul Cerbului","lat":45.4460045,"lon":24.1416745,"elevationM":null},{"id":"node:8256674122","kind":"peak","name":"Muchia Toacei","lat":45.3157156,"lon":24.4296408,"elevationM":null},{"id":"node:8348225628","kind":"peak","name":"Boul","lat":45.5683955,"lon":24.3825563,"elevationM":null},{"id":"node:8443405922","kind":"peak","name":"Târâțoasa","lat":45.4427164,"lon":24.969172,"elevationM":2172},{"id":"node:8820648661","kind":"peak","name":"Vârful Stearpa","lat":45.2430144,"lon":24.1671982,"elevationM":null},{"id":"node:8823397142","kind":"peak","name":"Oboadele Mici","lat":45.2631913,"lon":24.1758993,"elevationM":930},{"id":"node:8823529068","kind":"peak","name":"Cracul Icoanei","lat":45.2487971,"lon":24.1393272,"elevationM":774},{"id":"node:8824370534","kind":"peak","name":"Ulmului","lat":45.256962,"lon":24.2261028,"elevationM":1052},{"id":"node:8824432380","kind":"peak","name":"Gropile","lat":45.2466013,"lon":24.2225773,"elevationM":943},{"id":"node:8824432381","kind":"peak","name":"Seciul","lat":45.2472759,"lon":24.2334786,"elevationM":966},{"id":"node:8824465225","kind":"peak","name":"Comanca","lat":45.2350493,"lon":24.2382296,"elevationM":943},{"id":"node:8824465226","kind":"peak","name":"Pietrișu","lat":45.2279254,"lon":24.2313286,"elevationM":890},{"id":"node:8824465379","kind":"peak","name":"Piscul Gurguiata","lat":45.212628,"lon":24.2056741,"elevationM":830},{"id":"node:8824465380","kind":"peak","name":"Fântânele","lat":45.224206,"lon":24.1898014,"elevationM":868},{"id":"node:8824465489","kind":"peak","name":"Pietrele lui Bot","lat":45.2223168,"lon":24.2003607,"elevationM":797},{"id":"node:8824865026","kind":"peak","name":"Lemnelor","lat":45.2007868,"lon":24.1640696,"elevationM":745},{"id":"node:8831450791","kind":"peak","name":"Frăsinetul","lat":45.2579513,"lon":24.2625492,"elevationM":999},{"id":"node:8835119428","kind":"peak","name":"Cenușereasa","lat":45.2413307,"lon":24.2692392,"elevationM":938},{"id":"node:8835119429","kind":"peak","name":"Golaș","lat":45.2481016,"lon":24.2659604,"elevationM":936},{"id":"node:8835119476","kind":"peak","name":"Trușanu","lat":45.2077248,"lon":24.3098318,"elevationM":null},{"id":"node:8835119477","kind":"peak","name":"Pleșu","lat":45.2058956,"lon":24.3209683,"elevationM":766},{"id":"node:8844601268","kind":"peak","name":"1125","lat":45.3079872,"lon":24.3138372,"elevationM":null},{"id":"node:8845354461","kind":"peak","name":"Groșetul","lat":45.2485166,"lon":24.2833748,"elevationM":851},{"id":"node:8845354462","kind":"peak","name":"Dealul Călimenștilor","lat":45.2470345,"lon":24.2986127,"elevationM":740},{"id":"node:8845354464","kind":"peak","name":"Onofreiu","lat":45.2501933,"lon":24.2916998,"elevationM":859},{"id":"node:8845842530","kind":"peak","name":"Foarfeca","lat":45.3245914,"lon":24.2723119,"elevationM":832},{"id":"node:8845845665","kind":"peak","name":"Muchia lui Basarab","lat":45.2834248,"lon":24.293115,"elevationM":732},{"id":"node:8851317908","kind":"peak","name":"Dosul Pământului","lat":45.2776651,"lon":24.2093735,"elevationM":1219},{"id":"node:8851332866","kind":"peak","name":"Verdeș","lat":45.3132395,"lon":24.1918277,"elevationM":null},{"id":"node:8851332957","kind":"peak","name":"Vultureasa","lat":45.3113589,"lon":24.2075636,"elevationM":1449},{"id":"node:8852659686","kind":"peak","name":"Dealul Lotrișorului","lat":45.2947888,"lon":24.2565825,"elevationM":877},{"id":"node:8865039874","kind":"peak","name":"Gruiul Lung","lat":45.2201825,"lon":24.3125189,"elevationM":484},{"id":"node:8865361443","kind":"peak","name":"Fruntea lui Dat","lat":45.2640269,"lon":24.2375196,"elevationM":1056},{"id":"node:8865907130","kind":"peak","name":"Sturii lui Pavel","lat":45.3084383,"lon":24.2356414,"elevationM":1380},{"id":"node:8866080986","kind":"peak","name":"Mesteacănul","lat":45.3236737,"lon":24.2152885,"elevationM":1256},{"id":"node:9022266320","kind":"peak","name":"910","lat":45.1954246,"lon":24.13025,"elevationM":null},{"id":"node:9022821805","kind":"peak","name":"Dealul Găinii","lat":45.2364798,"lon":24.1611542,"elevationM":null},{"id":"node:9031994041","kind":"peak","name":"Gruiu Stanii","lat":45.3417033,"lon":24.0732747,"elevationM":null},{"id":"node:9032358584","kind":"peak","name":"Ciortea","lat":45.4186251,"lon":24.1368871,"elevationM":null},{"id":"node:9039749250","kind":"peak","name":"Căciulata","lat":45.2487408,"lon":24.3178626,"elevationM":null},{"id":"node:9048292686","kind":"peak","name":"Ciortea","lat":45.4089583,"lon":24.1310026,"elevationM":null},{"id":"node:9050324931","kind":"peak","name":"Gruiu Lung","lat":45.5328416,"lon":24.2614074,"elevationM":null},{"id":"node:9053097527","kind":"peak","name":"Murgaciu","lat":45.4792746,"lon":24.204364,"elevationM":null},{"id":"node:9080988833","kind":"peak","name":"Islaz Tisa","lat":45.2068923,"lon":24.2194384,"elevationM":null},{"id":"node:9251899286","kind":"peak","name":"Râpă cu Brazi","lat":45.1311579,"lon":24.7312236,"elevationM":772},{"id":"node:9256063641","kind":"peak","name":"La Vinclu","lat":45.314923,"lon":24.1382185,"elevationM":1510},{"id":"node:9340092202","kind":"peak","name":"Dealul Ulmului","lat":45.1507797,"lon":24.004374,"elevationM":null},{"id":"node:9386768686","kind":"peak","name":"Muntișorul","lat":45.3698121,"lon":24.559171,"elevationM":1534},{"id":"node:9427851391","kind":"peak","name":"Smida","lat":45.1102972,"lon":24.0683618,"elevationM":null},{"id":"node:9482914604","kind":"peak","name":"Strunga","lat":45.3519333,"lon":24.7643284,"elevationM":1167},{"id":"node:9718257316","kind":"peak","name":"Dealul Chiciurlă","lat":45.0486778,"lon":24.2618034,"elevationM":null},{"id":"node:9838799721","kind":"peak","name":"Capul Cățunului","lat":45.4596411,"lon":24.9510171,"elevationM":2370},{"id":"node:9845932081","kind":"peak","name":"Cârligele","lat":45.4512393,"lon":24.9129656,"elevationM":2171},{"id":"node:9845932082","kind":"peak","name":"Piscul Groapele","lat":45.4611262,"lon":24.9095389,"elevationM":1873},{"id":"node:9846594155","kind":"peak","name":"Huluba","lat":45.4325299,"lon":24.9958316,"elevationM":1929},{"id":"node:9846701065","kind":"peak","name":"Danciu","lat":45.4381498,"lon":24.9378441,"elevationM":2143},{"id":"node:9846701066","kind":"peak","name":"Vârful Cernatu","lat":45.4310335,"lon":24.9396029,"elevationM":2067},{"id":"node:9905417626","kind":"peak","name":"Țurtanul Babei","lat":45.6419894,"lon":24.9569995,"elevationM":null},{"id":"node:9906929461","kind":"peak","name":"Vârful Izvorului","lat":45.6117697,"lon":24.9107787,"elevationM":null},{"id":"node:9906954292","kind":"peak","name":"Vârful Padina","lat":45.6176553,"lon":24.9076576,"elevationM":null},{"id":"node:9907069163","kind":"peak","name":"Hermeneasa","lat":45.6323725,"lon":24.9067269,"elevationM":null},{"id":"node:9979651533","kind":"peak","name":"Șuta","lat":45.2163995,"lon":24.2568538,"elevationM":682},{"id":"node:9979661550","kind":"peak","name":"Piatra","lat":45.221454,"lon":24.255541,"elevationM":835},{"id":"node:9979661551","kind":"peak","name":"Dealul Cocoșilor","lat":45.2223143,"lon":24.2517925,"elevationM":849},{"id":"node:10266023839","kind":"peak","name":"Burdiman","lat":45.2497987,"lon":24.7243396,"elevationM":null},{"id":"node:10271026324","kind":"peak","name":"Râpa Stroieștilor","lat":45.1264786,"lon":24.8152467,"elevationM":668},{"id":"node:10271039854","kind":"peak","name":"Toacei","lat":45.2525333,"lon":24.7886673,"elevationM":898},{"id":"node:10777658034","kind":"peak","name":"Piscul Bâlii","lat":45.6065247,"lon":24.6074867,"elevationM":null},{"id":"node:10789758578","kind":"peak","name":"Clăbucetu Nucșoarei","lat":45.4237451,"lon":24.752482,"elevationM":1578},{"id":"node:10876348802","kind":"peak","name":"Dealul Capela","lat":45.1053816,"lon":24.3566043,"elevationM":null},{"id":"node:11362937314","kind":"peak","name":"Cațaveiul","lat":45.6294058,"lon":24.8181343,"elevationM":2287},{"id":"node:11542891693","kind":"peak","name":"Goila","lat":45.159326,"lon":24.8112895,"elevationM":663},{"id":"node:11542891694","kind":"peak","name":"Nuculeț","lat":45.1873571,"lon":24.7353566,"elevationM":null},{"id":"node:11542891695","kind":"peak","name":"Drăguşeni","lat":45.1796501,"lon":24.7644021,"elevationM":640},{"id":"node:12073079895","kind":"peak","name":"Dealul Cocinilor","lat":45.3071882,"lon":24.3964932,"elevationM":null},{"id":"node:12462714517","kind":"peak","name":"Căprioara","lat":45.1421525,"lon":24.7446977,"elevationM":680},{"id":"node:12462714519","kind":"peak","name":"Aninoasa","lat":45.2152345,"lon":24.8028829,"elevationM":699},{"id":"node:13075562818","kind":"peak","name":"Claia Codrei","lat":45.6244912,"lon":24.7756899,"elevationM":2171},{"id":"node:13075562819","kind":"peak","name":"Vf. La Pârâul Larg","lat":45.6200889,"lon":24.7753034,"elevationM":2333},{"id":"node:13075562820","kind":"peak","name":"Piatra Rosie","lat":45.6171171,"lon":24.7708914,"elevationM":2354},{"id":"node:13075562821","kind":"peak","name":"Vf. Răcorelelor","lat":45.6133209,"lon":24.7701868,"elevationM":2021},{"id":"node:13075562959","kind":"peak","name":"Rezistoarele","lat":45.6174236,"lon":24.8108281,"elevationM":2333},{"id":"node:13078282009","kind":"peak","name":"Vf. Mesteacănu","lat":45.5703365,"lon":24.6365042,"elevationM":2255},{"id":"node:13235996424","kind":"peak","name":"Măgurele","lat":45.3270165,"lon":24.6535415,"elevationM":807},{"id":"node:13238760755","kind":"peak","name":"Vârful Fraga","lat":45.6916381,"lon":24.0360062,"elevationM":1013},{"id":"node:13257523963","kind":"peak","name":"Vârful Zănoaga","lat":45.6151473,"lon":24.756338,"elevationM":2387},{"id":"node:13257523964","kind":"peak","name":"Vârful Iazu","lat":45.6182092,"lon":24.7551339,"elevationM":2321},{"id":"node:13257523965","kind":"peak","name":"Vârful Bisericii din Jos","lat":45.6227995,"lon":24.7532579,"elevationM":2238},{"id":"node:13257523966","kind":"peak","name":"Vârful La Pandel","lat":45.6310053,"lon":24.7527502,"elevationM":2080},{"id":"node:13257524001","kind":"peak","name":"Vf. S Baba","lat":45.6344044,"lon":24.6876708,"elevationM":1955},{"id":"node:13257524002","kind":"peak","name":"Vf. La Pârâul Jneapănului","lat":45.6257353,"lon":24.6871935,"elevationM":2104},{"id":"node:13257524003","kind":"peak","name":"Vf. Preluclile Preluncilor","lat":45.6179759,"lon":24.6917629,"elevationM":2196},{"id":"node:13257524004","kind":"peak","name":"Vf. La Pârâul Cheii","lat":45.6213691,"lon":24.6883594,"elevationM":2196},{"id":"node:13257524006","kind":"peak","name":"Vf. Boldanu","lat":45.6528809,"lon":24.6901211,"elevationM":1679},{"id":"node:13322111984","kind":"peak","name":"Vârful Plaiului","lat":45.6752814,"lon":24.0308103,"elevationM":1195},{"id":"node:13570947284","kind":"peak","name":"Vf. Cerbului","lat":45.518213,"lon":24.555234,"elevationM":1871}]}