{"tileKey":"la_p43_lo_m111","version":"v1-1775891056926","entries":[{"id":"node:356499429","kind":"peak","name":"Black Butte","lat":43.1318868,"lon":-110.0315527,"elevationM":2621},{"id":"node:356499489","kind":"peak","name":"Black Peak","lat":43.4138275,"lon":-110.3607416,"elevationM":3547},{"id":"node:356499848","kind":"peak","name":"Burnt Mountain","lat":43.5255006,"lon":-110.1312903,"elevationM":3016},{"id":"node:356500245","kind":"peak","name":"Clause Peak","lat":43.1582649,"lon":-110.580743,"elevationM":3232},{"id":"node:356500358","kind":"peak","name":"Corner Peak","lat":43.3766044,"lon":-110.3776854,"elevationM":3406},{"id":"node:356500462","kind":"peak","name":"Crystal Peak","lat":43.4763276,"lon":-110.3879672,"elevationM":3343},{"id":"node:356500483","kind":"peak","name":"Darwin Peak","lat":43.3888285,"lon":-110.3079609,"elevationM":3537},{"id":"node:356500485","kind":"peak","name":"Davis Hill","lat":43.8616104,"lon":-110.4440915,"elevationM":2403},{"id":"node:356500635","kind":"peak","name":"Dodge Butte","lat":43.210498,"lon":-110.0640558,"elevationM":2781},{"id":"node:356500693","kind":"peak","name":"Doubletop Peak","lat":43.3485507,"lon":-110.2868369,"elevationM":3508},{"id":"node:356500817","kind":"peak","name":"Eagle Peak","lat":43.3104954,"lon":-110.2579562,"elevationM":3172},{"id":"node:356501731","kind":"peak","name":"Hodges Peak","lat":43.3182731,"lon":-110.2615677,"elevationM":3238},{"id":"node:356502067","kind":"peak","name":"Jackson Peak","lat":43.46234,"lon":-110.6266404,"elevationM":3266},{"id":"node:356502589","kind":"peak","name":"Middle Butte","lat":43.1418873,"lon":-110.0062742,"elevationM":2564},{"id":"node:356502803","kind":"peak","name":"Nowlin Peak","lat":43.4602097,"lon":-110.6463111,"elevationM":3007},{"id":"node:356502929","kind":"peak","name":"Palmer Peak","lat":43.359661,"lon":-110.3268495,"elevationM":3431},{"id":"node:356502943","kind":"peak","name":"Pass Peak","lat":43.2179957,"lon":-110.1935061,"elevationM":3017},{"id":"node:356503347","kind":"peak","name":"Pyramid Peak","lat":43.4554921,"lon":-110.4668583,"elevationM":3382},{"id":"node:356503394","kind":"peak","name":"Ramshorn Peak","lat":43.228265,"lon":-110.5701884,"elevationM":3143},{"id":"node:356503543","kind":"peak","name":"Mount Reid","lat":43.9991067,"lon":-110.6515992,"elevationM":2394},{"id":"node:356504150","kind":"peak","name":"Signal Hill","lat":43.0932726,"lon":-110.2118371,"elevationM":2563},{"id":"node:356504236","kind":"peak","name":"Smokehouse Mountain","lat":43.9010605,"lon":-110.058517,"elevationM":3249},{"id":"node:356504328","kind":"peak","name":"Spearhead Peak","lat":43.6364595,"lon":-110.9111021,"elevationM":3071},{"id":"node:356504454","kind":"peak","name":"Steamboat Peak","lat":43.3782717,"lon":-110.3524067,"elevationM":3314},{"id":"node:356504966","kind":"peak","name":"Triangle Peak","lat":43.3627177,"lon":-110.2807367,"elevationM":3462},{"id":"node:356505117","kind":"peak","name":"Uhl Hill","lat":43.8138309,"lon":-110.4829823,"elevationM":2229},{"id":"node:356505728","kind":"peak","name":"Antoinette Peak","lat":43.3943816,"lon":-110.4096317,"elevationM":3475},{"id":"node:356505730","kind":"peak","name":"Albright Peak","lat":43.6707225,"lon":-110.8139447,"elevationM":3198},{"id":"node:356505740","kind":"peak","name":"Saint John Overlook","lat":43.6093179,"lon":-110.0815313,"elevationM":2915},{"id":"node:356505756","kind":"peak","name":"Eagles Rest Peak","lat":43.8999341,"lon":-110.7591022,"elevationM":3327},{"id":"node:356505760","kind":"peak","name":"The Wedge","lat":43.7018709,"lon":-110.9021603,"elevationM":3158},{"id":"node:356505776","kind":"peak","name":"Mount Bannon","lat":43.6718707,"lon":-110.9054931,"elevationM":3339},{"id":"node:356505811","kind":"peak","name":"Angle Mountain","lat":43.8224481,"lon":-110.1460206,"elevationM":3197},{"id":"node:356505822","kind":"peak","name":"Apres Vous Peak","lat":43.6090951,"lon":-110.8316007,"elevationM":2561},{"id":"node:356505848","kind":"peak","name":"Baldy Mountain","lat":43.7880001,"lon":-110.3213076,"elevationM":2598},{"id":"node:356505853","kind":"peak","name":"Barbers Point","lat":43.7310618,"lon":-110.010178,"elevationM":2867},{"id":"node:356505870","kind":"peak","name":"Battle Mountain","lat":43.2793776,"lon":-110.5235211,"elevationM":2094},{"id":"node:356505873","kind":"peak","name":"Battleship Mountain","lat":43.7232611,"lon":-110.8691041,"elevationM":3197},{"id":"node:356505880","kind":"peak","name":"Beard Mountain","lat":43.8238146,"lon":-110.9363286,"elevationM":2882},{"id":"node:356505886","kind":"peak","name":"Beaver Mountain","lat":43.2560418,"lon":-110.6143581,"elevationM":2966},{"id":"node:356505906","kind":"peak","name":"Bivouac Peak","lat":43.8688216,"lon":-110.7841027,"elevationM":3290},{"id":"node:356505915","kind":"peak","name":"Blacktail Butte","lat":43.6355048,"lon":-110.6927047,"elevationM":2341},{"id":"node:356505927","kind":"peak","name":"Boyles Hill","lat":43.4702053,"lon":-110.8307641,"elevationM":2018},{"id":"node:356505928","kind":"peak","name":"Bradley Mountain","lat":43.1707572,"lon":-110.9132613,"elevationM":2832},{"id":"node:356505932","kind":"peak","name":"Breccia Peak","lat":43.7880051,"lon":-110.0721273,"elevationM":3309},{"id":"node:356505947","kind":"peak","name":"Buckskin Point","lat":43.573558,"lon":-110.0737885,"elevationM":2932},{"id":"node:356505955","kind":"peak","name":"Burro Hill","lat":43.8382777,"lon":-110.367421,"elevationM":2209},{"id":"node:356505961","kind":"peak","name":"Cache Peak","lat":43.4238214,"lon":-110.6104748,"elevationM":3141},{"id":"node:356505989","kind":"peak","name":"Clark Butte","lat":43.1604918,"lon":-110.3801785,"elevationM":2176},{"id":"node:356505991","kind":"peak","name":"Cleaver Peak","lat":43.8352074,"lon":-110.8471598,"elevationM":3370},{"id":"node:356505993","kind":"peak","name":"Cloudveil Dome","lat":43.7187702,"lon":-110.806564,"elevationM":3666},{"id":"node:356506021","kind":"peak","name":"Cream Puff Peak","lat":43.3052091,"lon":-110.6071372,"elevationM":2938},{"id":"node:356506032","kind":"peak","name":"Crows Nest","lat":43.8696498,"lon":-110.8991055,"elevationM":2963},{"id":"node:356506041","kind":"peak","name":"Deadhorse Peak","lat":43.2324232,"lon":-110.9565964,"elevationM":2968},{"id":"node:356506043","kind":"peak","name":"Deadman Mountain","lat":43.0052044,"lon":-110.6656074,"elevationM":3136},{"id":"node:356506054","kind":"peak","name":"Disappointment Peak","lat":43.7332773,"lon":-110.7924205,"elevationM":3541},{"id":"node:356506056","kind":"peak","name":"Doane Peak","lat":43.9113223,"lon":-110.7791027,"elevationM":3449},{"id":"node:356506067","kind":"peak","name":"Dry Island","lat":43.168548,"lon":-110.3451774,"elevationM":2198},{"id":"node:356506068","kind":"peak","name":"Dry Ridge Mountain","lat":43.8746511,"lon":-110.8718826,"elevationM":3142},{"id":"node:356506077","kind":"peak","name":"Eagle Rest Peak","lat":43.8985452,"lon":-110.7588245,"elevationM":3416},{"id":"node:356506078","kind":"peak","name":"East Gros Ventre Butte","lat":43.484651,"lon":-110.7796513,"elevationM":2259},{"id":"node:356506079","kind":"peak","name":"East Horn","lat":43.8343774,"lon":-110.7663245,"elevationM":3439},{"id":"node:356506080","kind":"peak","name":"East Leidy","lat":43.7032756,"lon":-110.3693638,"elevationM":3089},{"id":"node:356506083","kind":"peak","name":"East Prong","lat":43.7460421,"lon":-110.7918804,"elevationM":3649},{"id":"node:356506093","kind":"peak","name":"Elk Mountain","lat":43.167148,"lon":-110.825201,"elevationM":2590},{"id":"node:356506094","kind":"peak","name":"Elk Mountain","lat":43.9771553,"lon":-110.8021589,"elevationM":3271},{"id":"node:356506139","kind":"peak","name":"Fortress Hill","lat":43.181604,"lon":-110.3298995,"elevationM":2271},{"id":"node:356506143","kind":"peak","name":"Fossil Mountain","lat":43.6535369,"lon":-110.9188266,"elevationM":3327},{"id":"node:356506149","kind":"peak","name":"Freds Mountain","lat":43.7910366,"lon":-110.935773,"elevationM":2968},{"id":"node:356506156","kind":"peak","name":"Game Hill","lat":43.2624338,"lon":-110.4904633,"elevationM":2416},{"id":"node:356506161","kind":"peak","name":"Mount Glory","lat":43.5068692,"lon":-110.9499367,"elevationM":3063},{"id":"node:356506184","kind":"peak","name":"Green Knoll","lat":43.3965903,"lon":-110.981046,"elevationM":2484},{"id":"node:356506186","kind":"peak","name":"Green Lakes Mountain","lat":43.8622866,"lon":-110.8790247,"elevationM":3092},{"id":"node:356506190","kind":"peak","name":"Green Mountain","lat":43.6743875,"lon":-110.3154714,"elevationM":2955},{"id":"node:356506191","kind":"peak","name":"Green Mountain","lat":43.8371493,"lon":-110.9066056,"elevationM":2927},{"id":"node:356506201","kind":"peak","name":"Grouse Mountain","lat":43.7218895,"lon":-110.2574148,"elevationM":3149},{"id":"node:356506247","kind":"peak","name":"Hoback Peak","lat":43.0844235,"lon":-110.5704353,"elevationM":3311},{"id":"node:356506277","kind":"peak","name":"Housetop Mountain","lat":43.6243693,"lon":-110.9474382,"elevationM":3171},{"id":"node:356506282","kind":"peak","name":"Mount Hunt","lat":43.6308969,"lon":-110.8610345,"elevationM":3275},{"id":"node:356506293","kind":"peak","name":"Indian Peak","lat":43.2690908,"lon":-110.9190951,"elevationM":2951},{"id":"node:356506312","kind":"peak","name":"Mount Jedediah Smith","lat":43.682149,"lon":-110.8918818,"elevationM":3232},{"id":"node:356506317","kind":"peak","name":"Joy Peak","lat":43.9502258,"lon":-110.174911,"elevationM":3061},{"id":"node:356506324","kind":"peak","name":"Kismet Peak","lat":43.0993829,"lon":-110.2576724,"elevationM":2566},{"id":"node:356506326","kind":"peak","name":"Klondike Hill","lat":43.319388,"lon":-110.0668365,"elevationM":2816},{"id":"node:356506350","kind":"peak","name":"Lava Mountain","lat":43.6768938,"lon":-110.0290665,"elevationM":3176},{"id":"node:356506353","kind":"peak","name":"Mount Leidy","lat":43.7254974,"lon":-110.4060331,"elevationM":3119},{"id":"node:356506374","kind":"peak","name":"Littles Peak","lat":43.8060395,"lon":-110.8702158,"elevationM":3258},{"id":"node:356506411","kind":"peak","name":"Lunch Tree Hill","lat":43.8804961,"lon":-110.5785413,"elevationM":2125},{"id":"node:356506427","kind":"peak","name":"Maidenform Peak","lat":43.8249293,"lon":-110.8513266,"elevationM":3390},{"id":"node:356506458","kind":"peak","name":"Mount Meek","lat":43.6855026,"lon":-110.88247,"elevationM":3233},{"id":"node:356506474","kind":"peak","name":"Middle Teton","lat":43.7299301,"lon":-110.8113251,"elevationM":3903},{"id":"node:356506482","kind":"peak","name":"Millers Butte","lat":43.5120235,"lon":-110.714898,"elevationM":1990},{"id":"node:356506496","kind":"peak","name":"Moose Mountain","lat":43.9374301,"lon":-110.8563268,"elevationM":3050},{"id":"node:356506500","kind":"peak","name":"Mount Moran","lat":43.8352104,"lon":-110.7763248,"elevationM":3835},{"id":"node:356506513","kind":"peak","name":"Munger Mountain","lat":43.3440943,"lon":-110.7735355,"elevationM":2528},{"id":"node:356506548","kind":"peak","name":"Observation Peak","lat":43.2840903,"lon":-110.9499304,"elevationM":3037},{"id":"node:356506558","kind":"peak","name":"Owl Peak","lat":43.9777112,"lon":-110.7946587,"elevationM":3230},{"id":"node:356506600","kind":"peak","name":"Pilgrim Mountain","lat":43.9404975,"lon":-110.5782636,"elevationM":2515},{"id":"node:356506602","kind":"peak","name":"Pilot Knob","lat":43.7141163,"lon":-110.0471243,"elevationM":2944},{"id":"node:356506611","kind":"peak","name":"Pinnacle Peak","lat":43.3871564,"lon":-110.5285252,"elevationM":3260},{"id":"node:356506627","kind":"peak","name":"Pow Wow Point","lat":43.2346933,"lon":-110.7278467,"elevationM":2897},{"id":"node:356506631","kind":"peak","name":"Prater Mountain","lat":43.0079836,"lon":-110.9150823,"elevationM":3072},{"id":"node:356506635","kind":"peak","name":"Prospectors Mountain","lat":43.6493725,"lon":-110.8493799,"elevationM":3417},{"id":"node:356506656","kind":"peak","name":"Ranger Peak","lat":43.9285454,"lon":-110.7635468,"elevationM":3453},{"id":"node:356506664","kind":"peak","name":"Raynolds Peak","lat":43.8707642,"lon":-110.8254926,"elevationM":3318},{"id":"node:356506674","kind":"peak","name":"Red Mountain","lat":43.9782631,"lon":-110.8716049,"elevationM":3103},{"id":"node:356506675","kind":"peak","name":"Red Peak","lat":43.237146,"lon":-110.9277061,"elevationM":2976},{"id":"node:356506681","kind":"peak","name":"Rendezvous Peak","lat":43.5674261,"lon":-110.904658,"elevationM":3328},{"id":"node:356506695","kind":"peak","name":"Rock Creek Buttes","lat":43.2421641,"lon":-110.1076695,"elevationM":2910},{"id":"node:356506706","kind":"peak","name":"Rockchuck Peak","lat":43.7882734,"lon":-110.7677133,"elevationM":3390},{"id":"node:356506708","kind":"peak","name":"Rolling Thunder Mountain","lat":43.8904873,"lon":-110.8104923,"elevationM":3308},{"id":"node:356506725","kind":"peak","name":"Mount Saint John","lat":43.7819611,"lon":-110.7723577,"elevationM":3467},{"id":"node:356506730","kind":"peak","name":"Table Mountain","lat":43.4857044,"lon":-110.5976889,"elevationM":3125},{"id":"node:356506739","kind":"peak","name":"Shadow Mountain","lat":43.7113259,"lon":-110.5849287,"elevationM":2513},{"id":"node:356506742","kind":"peak","name":"Shadow Peak","lat":43.7149306,"lon":-110.7932686,"elevationM":3261},{"id":"node:356506788","kind":"peak","name":"Simpson Peaks","lat":43.8363383,"lon":-110.0729613,"elevationM":2948},{"id":"node:356506803","kind":"peak","name":"Smoky Hollow Peak","lat":43.4163122,"lon":-110.9960472,"elevationM":2883},{"id":"node:356506809","kind":"peak","name":"Soda Mountain","lat":43.9438078,"lon":-110.1181637,"elevationM":3313},{"id":"node:356506817","kind":"peak","name":"South Teton","lat":43.7185162,"lon":-110.8189217,"elevationM":3814},{"id":"node:356506835","kind":"peak","name":"Static Peak","lat":43.6827413,"lon":-110.816272,"elevationM":3445},{"id":"node:356506838","kind":"peak","name":"Stewart Peak","lat":43.0728622,"lon":-110.9251888,"elevationM":3079},{"id":"node:356506853","kind":"peak","name":"Sublette Peak","lat":43.7496726,"lon":-110.0385136,"elevationM":3167},{"id":"node:356506887","kind":"peak","name":"Sunday Peak","lat":43.4926216,"lon":-110.1952856,"elevationM":2735},{"id":"node:356506929","kind":"peak","name":"Table Mountain","lat":43.7467129,"lon":-110.851847,"elevationM":3372},{"id":"node:356506946","kind":"peak","name":"Taylor Mountain","lat":43.39187,"lon":-110.8877085,"elevationM":2445},{"id":"node:356506950","kind":"peak","name":"Taylor Mountain","lat":43.5310351,"lon":-110.9807715,"elevationM":3152},{"id":"node:356506959","kind":"peak","name":"Teewinot Mountain","lat":43.7466861,"lon":-110.7800171,"elevationM":3708},{"id":"node:356506965","kind":"peak","name":"Terrace Mountain","lat":43.8724346,"lon":-110.1508093,"elevationM":3082},{"id":"node:356506983","kind":"peak","name":"The Jaw","lat":43.7782648,"lon":-110.7871583,"elevationM":3464},{"id":"node:356507011","kind":"peak","name":"The Wigwams South","lat":43.7682623,"lon":-110.845493,"elevationM":3297},{"id":"node:356507032","kind":"peak","name":"Thor Peak","lat":43.8307651,"lon":-110.7949363,"elevationM":3659},{"id":"node:356507069","kind":"peak","name":"Tosi Peak","lat":43.2816067,"lon":-110.2298985,"elevationM":3457},{"id":"node:356507078","kind":"peak","name":"Traverse Peak","lat":43.8679878,"lon":-110.7946479,"elevationM":3367},{"id":"node:356507081","kind":"peak","name":"Treasure Mountain","lat":43.7293695,"lon":-110.9410506,"elevationM":2981},{"id":"node:356507089","kind":"peak","name":"Tripod Hill","lat":43.0427144,"lon":-110.3529522,"elevationM":2528},{"id":"node:356507092","kind":"peak","name":"Tripod Peak","lat":43.6955121,"lon":-110.146026,"elevationM":3024},{"id":"node:356507125","kind":"peak","name":"Two Ocean Mountain","lat":43.7410603,"lon":-110.0862941,"elevationM":3234},{"id":"node:356507148","kind":"peak","name":"Veiled Peak","lat":43.7009042,"lon":-110.825485,"elevationM":3446},{"id":"node:356507174","kind":"peak","name":"West Horn","lat":43.8315995,"lon":-110.7699357,"elevationM":3438},{"id":"node:356507178","kind":"peak","name":"Whetstone Mountain","lat":43.9874465,"lon":-110.4374247,"elevationM":2915},{"id":"node:356507189","kind":"peak","name":"Green Mountain","lat":43.4193728,"lon":-110.7682598,"elevationM":1887},{"id":"node:356507190","kind":"peak","name":"Window Peak","lat":43.8563184,"lon":-110.8538267,"elevationM":3198},{"id":"node:356507202","kind":"peak","name":"Wolf Mountain","lat":43.2754806,"lon":-110.8752045,"elevationM":2881},{"id":"node:356507224","kind":"peak","name":"Lozier Hill","lat":43.8668866,"lon":-110.5249286,"elevationM":2331},{"id":"node:356507229","kind":"peak","name":"Signal Mountain","lat":43.8488292,"lon":-110.567152,"elevationM":2354},{"id":"node:356507241","kind":"peak","name":"Robinson Butte","lat":43.1549371,"lon":-110.3368434,"elevationM":2187},{"id":"node:356507258","kind":"peak","name":"Deer Creek Mountain","lat":43.6151354,"lon":-110.1910931,"elevationM":2924},{"id":"node:356507463","kind":"peak","name":"Mount Owen","lat":43.7468829,"lon":-110.7974255,"elevationM":3924},{"id":"node:356507464","kind":"peak","name":"Rammell Mountain","lat":43.9029834,"lon":-110.9016056,"elevationM":3085},{"id":"node:356507465","kind":"peak","name":"Mount Wister","lat":43.701962,"lon":-110.817245,"elevationM":3492},{"id":"node:356507468","kind":"peak","name":"Mount Nord","lat":43.951318,"lon":-110.8818829,"elevationM":2957},{"id":"node:356510996","kind":"peak","name":"Gravel Mountain","lat":43.9252237,"lon":-110.3643651,"elevationM":2919},{"id":"node:356510997","kind":"peak","name":"Mount Randolph","lat":43.8796676,"lon":-110.3454753,"elevationM":2774},{"id":"node:356511220","kind":"peak","name":"Buck Mountain","lat":43.6891337,"lon":-110.8185189,"elevationM":3627},{"id":"node:356511234","kind":"peak","name":"Nez Perce","lat":43.7193749,"lon":-110.7974356,"elevationM":3612},{"id":"node:356511241","kind":"peak","name":"Sheep Mountain","lat":43.5438251,"lon":-110.5243642,"elevationM":3418},{"id":"node:356511243","kind":"peak","name":"Snow King Mountain","lat":43.4621511,"lon":-110.7638166,"elevationM":2378},{"id":"node:356511249","kind":"peak","name":"Mount Woodring","lat":43.8029871,"lon":-110.7938252,"elevationM":3517},{"id":"node:356511260","kind":"peak","name":"Grand Teton","lat":43.7410416,"lon":-110.8024362,"elevationM":4199},{"id":"node:1914470903","kind":"peak","name":"Grand View Point","lat":43.907606,"lon":-110.555682,"elevationM":2313},{"id":"node:2320320637","kind":"peak","name":"Cody Peak","lat":43.5855626,"lon":-110.8905691,"elevationM":3279},{"id":"node:3121283478","kind":"peak","name":"Teepe Pillar","lat":43.7359842,"lon":-110.8009868,"elevationM":3739},{"id":"node:3881373637","kind":"peak","name":"Symmetry Spire","lat":43.7739286,"lon":-110.7652405,"elevationM":3219},{"id":"node:4462513051","kind":"peak","name":"Rendezvous Mountain","lat":43.5971351,"lon":-110.8711305,"elevationM":3185},{"id":"node:4992960980","kind":"peak","name":"Twentyfive Short","lat":43.6956096,"lon":-110.789877,"elevationM":3040},{"id":"node:7817507308","kind":"peak","name":"High School Butte","lat":43.4681279,"lon":-110.7975805,"elevationM":2070},{"id":"node:8810195504","kind":"peak","name":"Gravel Benchmark","lat":43.9353821,"lon":-110.3718632,"elevationM":2815},{"id":"node:8810195616","kind":"peak","name":"Gravel Ridge","lat":43.9287145,"lon":-110.2970658,"elevationM":2700},{"id":"node:8810195654","kind":"peak","name":"North Soda Mountain","lat":43.954451,"lon":-110.1207475,"elevationM":3274},{"id":"node:8810195657","kind":"peak","name":"Enos Peak","lat":43.9912295,"lon":-110.201175,"elevationM":2902},{"id":"node:8810195662","kind":"peak","name":"Jay Benchmark","lat":43.9720369,"lon":-110.0189022,"elevationM":3332},{"id":"node:8846564831","kind":"peak","name":"Wimpy's Knob","lat":43.6708619,"lon":-110.8089194,"elevationM":3072},{"id":"node:8846564832","kind":"peak","name":"No-Name Peak","lat":43.579042,"lon":-110.8926782,"elevationM":3263},{"id":"node:8846588344","kind":"peak","name":"Two Elk Peak","lat":43.6385888,"lon":-110.8758032,"elevationM":3324},{"id":"node:8846588345","kind":"peak","name":"Murphy Peak","lat":43.6427239,"lon":-110.8734104,"elevationM":3304},{"id":"node:8846588346","kind":"peak","name":"Tukuarika Peak","lat":43.6430628,"lon":-110.8664022,"elevationM":3349},{"id":"node:8846612728","kind":"peak","name":"Teton Crest Highpoint","lat":43.6907759,"lon":-110.8251807,"elevationM":3414},{"id":"node:8846759926","kind":"peak","name":"Gilkey Tower","lat":43.7194428,"lon":-110.8142232,"elevationM":3767},{"id":"node:8846759927","kind":"peak","name":"Matternaught","lat":43.7153435,"lon":-110.8121167,"elevationM":3475},{"id":"node:8846759928","kind":"peak","name":"Ice Cream Cone","lat":43.7188321,"lon":-110.816891,"elevationM":3767},{"id":"node:8846759929","kind":"peak","name":"Spalding Peak","lat":43.7190352,"lon":-110.8122842,"elevationM":3743},{"id":"node:8846759930","kind":"peak","name":"Platforms Big Bluff","lat":43.7229924,"lon":-110.7848984,"elevationM":2987},{"id":"node:8846759931","kind":"peak","name":"Red Sentinel","lat":43.7338348,"lon":-110.7942654,"elevationM":3475},{"id":"node:8846759932","kind":"peak","name":"Fair Share Tower","lat":43.7349608,"lon":-110.7957982,"elevationM":3524},{"id":"node:8846759933","kind":"peak","name":"Pemmican Pinnacle","lat":43.7358099,"lon":-110.7961218,"elevationM":3520},{"id":"node:8846759934","kind":"peak","name":"Okies Thorn","lat":43.7371081,"lon":-110.7972032,"elevationM":3621},{"id":"node:8846759935","kind":"peak","name":"Glencoe Spire","lat":43.7363883,"lon":-110.8032152,"elevationM":3767},{"id":"node:8846795721","kind":"peak","name":"Dike Pinnacle","lat":43.7290533,"lon":-110.8086001,"elevationM":3792},{"id":"node:8846795722","kind":"peak","name":"Pinnochio Pinnacle","lat":43.7321361,"lon":-110.8111462,"elevationM":3719},{"id":"node:8846795723","kind":"peak","name":"Bonney Pinnacle","lat":43.731447,"lon":-110.8112229,"elevationM":3774},{"id":"node:8846795724","kind":"peak","name":"The Enclosure","lat":43.7414176,"lon":-110.8060686,"elevationM":4060},{"id":"node:8846795725","kind":"peak","name":"Crooked Thumb","lat":43.7475022,"lon":-110.7784596,"elevationM":3572},{"id":"node:8846795726","kind":"peak","name":"Idol and Worshipper","lat":43.7441138,"lon":-110.773805,"elevationM":3335},{"id":"node:8846795727","kind":"peak","name":"McCain's Pillar","lat":43.7525866,"lon":-110.7899156,"elevationM":3182},{"id":"node:8846795728","kind":"peak","name":"Inspiration Peak","lat":43.7274672,"lon":-110.7753915,"elevationM":2975},{"id":"node:8846795729","kind":"peak","name":"Yosemite Point","lat":43.7593141,"lon":-110.8291446,"elevationM":3053},{"id":"node:8846836621","kind":"peak","name":"The Wigwams North","lat":43.7708371,"lon":-110.8452714,"elevationM":3304},{"id":"node:8846836622","kind":"peak","name":"Mount Fryxell","lat":43.7874849,"lon":-110.8148649,"elevationM":3435},{"id":"node:8846836623","kind":"peak","name":"Paintbrush Peak","lat":43.7963156,"lon":-110.8178793,"elevationM":3329},{"id":"node:8846836624","kind":"peak","name":"McClintock Peak","lat":43.7808791,"lon":-110.809837,"elevationM":3341},{"id":"node:8846836625","kind":"peak","name":"Buckingham Palace","lat":43.7789985,"lon":-110.8012598,"elevationM":3382},{"id":"node:8846836626","kind":"peak","name":"Breitenbach Pinnacle","lat":43.7697454,"lon":-110.8016518,"elevationM":2841},{"id":"node:8846836627","kind":"peak","name":"The Outlier","lat":43.7829149,"lon":-110.7869502,"elevationM":3231},{"id":"node:8846836628","kind":"peak","name":"Minga Spire","lat":43.7794344,"lon":-110.7801573,"elevationM":null},{"id":"node:8846836629","kind":"peak","name":"Needles Eye Spire","lat":43.7790348,"lon":-110.7822521,"elevationM":null},{"id":"node:8846836630","kind":"peak","name":"Camels Head","lat":43.7789672,"lon":-110.7843043,"elevationM":null},{"id":"node:8846905668","kind":"peak","name":"Rock Of Ages","lat":43.7735659,"lon":-110.7781912,"elevationM":3321},{"id":"node:8846905669","kind":"peak","name":"Schoolhouse","lat":43.7748124,"lon":-110.7797152,"elevationM":3255},{"id":"node:8846905670","kind":"peak","name":"Blockhouse","lat":43.7753675,"lon":-110.7823045,"elevationM":3280},{"id":"node:8846905671","kind":"peak","name":"Ice Point","lat":43.7699432,"lon":-110.7666874,"elevationM":3036},{"id":"node:8846905672","kind":"peak","name":"Storm Point","lat":43.7685408,"lon":-110.7657029,"elevationM":3065},{"id":"node:8846905673","kind":"peak","name":"Hangover Pinnacle","lat":43.7721722,"lon":-110.7614562,"elevationM":2890},{"id":"node:8846905674","kind":"peak","name":"Cube Point","lat":43.773964,"lon":-110.75768,"elevationM":2938},{"id":"node:8846905675","kind":"peak","name":"Baxter's Pinnacle","lat":43.7723572,"lon":-110.7515977,"elevationM":2451},{"id":"node:9217143889","kind":"peak","name":"Star Peaks","lat":43.0219059,"lon":-110.8626509,"elevationM":3045},{"id":"node:9217143890","kind":"peak","name":"Star Peaks","lat":43.0105471,"lon":-110.8683157,"elevationM":3082},{"id":"node:9217144037","kind":"peak","name":"Grayback Ridge","lat":43.1110248,"lon":-110.6706259,"elevationM":2970},{"id":"node:9721183271","kind":"peak","name":"Anne's Ridge","lat":43.2654961,"lon":-110.6673946,"elevationM":2269},{"id":"node:9721957645","kind":"peak","name":"Crazy Mountain","lat":43.0658674,"lon":-110.5448289,"elevationM":3214},{"id":"node:9882026327","kind":"peak","name":"The Open Door","lat":43.3680266,"lon":-110.433111,"elevationM":2805},{"id":"node:10538055899","kind":"peak","name":"Gros Peak","lat":43.403244,"lon":-110.5702184,"elevationM":3408},{"id":"node:10610415097","kind":"peak","name":"Red Hill East","lat":43.3547106,"lon":-110.2066684,"elevationM":3180},{"id":"node:10610415098","kind":"peak","name":"Red Hill West","lat":43.35418,"lon":-110.2217754,"elevationM":3172},{"id":"node:10657264637","kind":"peak","name":"Gunsight Summit","lat":43.6083338,"lon":-110.2577755,"elevationM":null},{"id":"node:11233097232","kind":"peak","name":"Peaked Mountain","lat":43.7761878,"lon":-110.9299853,"elevationM":2996},{"id":"node:11367649310","kind":"peak","name":"Ferry Peak","lat":43.2132051,"lon":-110.982893,"elevationM":null},{"id":"node:11367649324","kind":"peak","name":"West Gros Ventre Butte","lat":43.5366296,"lon":-110.7998723,"elevationM":null},{"id":"node:11932016638","kind":"peak","name":"Mary's Nipple","lat":43.7775775,"lon":-110.9231184,"elevationM":3031},{"id":"node:11950128281","kind":"peak","name":"Carrot Ridge","lat":43.9482315,"lon":-110.8867151,"elevationM":2926},{"id":"node:12754616824","kind":"peak","name":"Apres Vous Mountain","lat":43.6077206,"lon":-110.8476695,"elevationM":2898}]}