{"tileKey":"la_p39_lo_p116","version":"v1-1775891056926","entries":[{"id":"node:277142345","kind":"peak","name":"福寿岭","lat":39.9454069,"lon":116.1562855,"elevationM":309},{"id":"node:277142351","kind":"peak","name":"虎头山","lat":39.9535066,"lon":116.1694824,"elevationM":387},{"id":"node:279124501","kind":"peak","name":"猴石崖","lat":39.9993279,"lon":116.1658614,"elevationM":687},{"id":"node:283336453","kind":"peak","name":"白塔山","lat":39.9773122,"lon":116.1797607,"elevationM":510},{"id":"node:285012770","kind":"peak","name":"青松岭","lat":39.95575,"lon":116.1677,"elevationM":357},{"id":"node:559277840","kind":"peak","name":"万寿山","lat":39.9983428,"lon":116.2691606,"elevationM":null},{"id":"node:567834331","kind":"peak","name":"翠微山","lat":39.9653084,"lon":116.1687312,"elevationM":464},{"id":"node:1333233012","kind":"peak","name":"石景山","lat":39.9172071,"lon":116.1417554,"elevationM":null},{"id":"node:1724169999","kind":"peak","name":"八宝山","lat":39.9125047,"lon":116.2362647,"elevationM":null},{"id":"node:1724170006","kind":"peak","name":"田村山","lat":39.9232148,"lon":116.238539,"elevationM":93},{"id":"node:1724170012","kind":"peak","name":"老山","lat":39.9149274,"lon":116.2166856,"elevationM":130},{"id":"node:3289273980","kind":"peak","name":"刀背岭","lat":39.9811496,"lon":116.138923,"elevationM":null},{"id":"node:3289291830","kind":"peak","name":"卧牛台","lat":39.9765189,"lon":116.1330889,"elevationM":421},{"id":"node:3317985362","kind":"peak","name":"天泰山","lat":39.9780574,"lon":116.1546331,"elevationM":431},{"id":"node:3317985365","kind":"peak","name":"荐福山/克勤峪","lat":39.9907899,"lon":116.1405251,"elevationM":797},{"id":"node:3317985384","kind":"peak","name":"香炉峰","lat":39.9910689,"lon":116.1723024,"elevationM":575},{"id":"node:3317985386","kind":"peak","name":"白石岗","lat":39.9850305,"lon":116.1580346,"elevationM":568},{"id":"node:3390471842","kind":"peak","name":"极乐峰","lat":39.8656659,"lon":116.0633823,"elevationM":679},{"id":"node:5319899841","kind":"peak","name":"牛眼尖","lat":39.8848899,"lon":116.0356878,"elevationM":445},{"id":"node:5319899842","kind":"peak","name":"马鞍山","lat":39.8643664,"lon":116.0604234,"elevationM":690},{"id":"node:5324867253","kind":"peak","name":"定都峰","lat":39.9065558,"lon":116.0492202,"elevationM":680},{"id":"node:5827009419","kind":"peak","name":"六国岭","lat":39.8645905,"lon":116.0809742,"elevationM":553},{"id":"node:6019834338","kind":"peak","name":"青龙山","lat":39.9712974,"lon":116.1791359,"elevationM":439},{"id":"node:8479221562","kind":"peak","name":"蟠龙山","lat":39.9416355,"lon":116.1465831,"elevationM":107},{"id":"node:8479221568","kind":"peak","name":"猴山","lat":39.9847604,"lon":116.1125625,"elevationM":625},{"id":"node:8725437667","kind":"peak","name":"玉泉山","lat":39.9927535,"lon":116.242525,"elevationM":153},{"id":"node:8989955521","kind":"peak","name":"刺茅花坨","lat":39.9368357,"lon":116.0059052,"elevationM":990},{"id":"node:9111436682","kind":"peak","name":"九龙山","lat":39.9498337,"lon":116.0437811,"elevationM":853},{"id":"node:9113837858","kind":"peak","name":"四平山","lat":39.9310409,"lon":116.1322719,"elevationM":205},{"id":"node:9119424732","kind":"peak","name":"景山","lat":39.9235271,"lon":116.3904844,"elevationM":88},{"id":"node:9339854010","kind":"peak","name":"红庙岭","lat":39.8991347,"lon":116.056923,"elevationM":624},{"id":"node:9580687515","kind":"peak","name":"平坡山","lat":39.9671568,"lon":116.1816337,"elevationM":331},{"id":"node:9610430945","kind":"peak","name":"狗头岭","lat":39.9935361,"lon":116.1738793,"elevationM":416},{"id":"node:9610431009","kind":"peak","name":"狮王岩","lat":39.985559,"lon":116.1557486,"elevationM":500},{"id":"node:9610431059","kind":"peak","name":"馒头山","lat":39.9982201,"lon":116.1429297,"elevationM":null},{"id":"node:9620278883","kind":"peak","name":"红山头","lat":39.9845793,"lon":116.1918409,"elevationM":256},{"id":"node:9766790360","kind":"peak","name":"河北后山","lat":39.9822596,"lon":116.0036516,"elevationM":555},{"id":"node:9766790362","kind":"peak","name":"傅家坨","lat":39.9648255,"lon":116.0033729,"elevationM":596},{"id":"node:9768674700","kind":"peak","name":"狼腾尖","lat":39.9954889,"lon":116.0137395,"elevationM":500},{"id":"node:9776595411","kind":"peak","name":"北大坨","lat":39.9955574,"lon":116.0255924,"elevationM":402},{"id":"node:9776595761","kind":"peak","name":"峰头岭/京西小华山","lat":39.9690242,"lon":116.0329132,"elevationM":484},{"id":"node:9800675290","kind":"peak","name":"卢师山","lat":39.9596079,"lon":116.1844776,"elevationM":null},{"id":"node:9810461532","kind":"peak","name":"奇遇山","lat":39.9917118,"lon":116.0089489,"elevationM":null},{"id":"node:9823141550","kind":"peak","name":"大坨","lat":39.8526858,"lon":116.0136345,"elevationM":634},{"id":"node:9823141554","kind":"peak","name":"周家坡","lat":39.8492231,"lon":116.0789654,"elevationM":null},{"id":"node:9823141555","kind":"peak","name":"大罗圈","lat":39.871212,"lon":116.0938324,"elevationM":365},{"id":"node:9823141556","kind":"peak","name":"狼坡顶","lat":39.8702473,"lon":116.1055115,"elevationM":350},{"id":"node:9823141557","kind":"peak","name":"石龙山","lat":39.8911669,"lon":116.0729099,"elevationM":445},{"id":"node:9823141558","kind":"peak","name":"西峰岭","lat":39.8903066,"lon":116.064084,"elevationM":542},{"id":"node:9823141559","kind":"peak","name":"草帽山","lat":39.9216419,"lon":116.0823816,"elevationM":304},{"id":"node:9823141560","kind":"peak","name":"万佛山","lat":39.9009232,"lon":116.0734946,"elevationM":350},{"id":"node:9823141561","kind":"peak","name":"绝石梁","lat":39.9203511,"lon":116.0042286,"elevationM":923},{"id":"node:9831364208","kind":"peak","name":"五座山","lat":39.8043738,"lon":116.0002348,"elevationM":465},{"id":"node:9831364209","kind":"peak","name":"大寨山","lat":39.7979569,"lon":116.0088743,"elevationM":461},{"id":"node:9831364210","kind":"peak","name":"二寨山","lat":39.7946641,"lon":116.0087829,"elevationM":371},{"id":"node:9840219831","kind":"peak","name":"宝珠峰","lat":39.905765,"lon":116.0252144,"elevationM":null},{"id":"node:9850629867","kind":"peak","name":"管坨","lat":39.898808,"lon":116.0133325,"elevationM":463},{"id":"node:9868021055","kind":"peak","name":"金字山","lat":39.8461283,"lon":116.0395064,"elevationM":458},{"id":"node:9872575532","kind":"peak","name":"朱砂岭","lat":39.8700989,"lon":116.0063209,"elevationM":null},{"id":"node:9931435405","kind":"peak","name":"树儿岭/平顶山","lat":39.7767194,"lon":116.0007425,"elevationM":280},{"id":"node:9931435406","kind":"peak","name":"三脊洼尖","lat":39.7822808,"lon":116.0037507,"elevationM":301},{"id":"node:10296833141","kind":"peak","name":"金顶山","lat":39.9304258,"lon":116.1686014,"elevationM":130},{"id":"node:10895631007","kind":"peak","name":"土堆","lat":39.9958642,"lon":116.2989074,"elevationM":null},{"id":"node:11091802122","kind":"peak","name":"龙凤岭","lat":39.9858526,"lon":116.0464812,"elevationM":274},{"id":"node:11890936864","kind":"peak","name":"万安山","lat":39.9806892,"lon":116.1803604,"elevationM":450},{"id":"node:12230493708","kind":"peak","name":"红光山","lat":39.9265614,"lon":116.1442147,"elevationM":196},{"id":"node:12428794725","kind":"peak","name":"巨山","lat":39.9514198,"lon":116.201168,"elevationM":null},{"id":"node:12433710805","kind":"peak","name":"枣林台","lat":39.9595433,"lon":116.1948612,"elevationM":null},{"id":"node:12843487358","kind":"peak","name":"鸣远峰","lat":39.8092245,"lon":116.1042627,"elevationM":null},{"id":"node:13439097122","kind":"peak","name":"张飞寨","lat":39.8976259,"lon":116.0271756,"elevationM":447},{"id":"node:13439097127","kind":"peak","name":"佛光顶","lat":39.8915631,"lon":116.0226166,"elevationM":null},{"id":"node:13450982639","kind":"peak","name":"葡山","lat":39.9241599,"lon":116.1066858,"elevationM":null}]}