{"tileKey":"la_p41_lo_m76","version":"v1-1775891056926","entries":[{"id":"node:357275087","kind":"peak","name":"Mount Airy","lat":41.5839654,"lon":-75.9396432,"elevationM":417},{"id":"node:357275566","kind":"peak","name":"Mount Ararat","lat":41.7914726,"lon":-75.4554594,"elevationM":803},{"id":"node:357275586","kind":"peak","name":"Arbutus Peak","lat":41.1598049,"lon":-75.8579739,"elevationM":595},{"id":"node:357275865","kind":"peak","name":"Avery Hill","lat":41.638132,"lon":-75.9213089,"elevationM":374},{"id":"node:357275868","kind":"peak","name":"Avery Mountain","lat":41.5286878,"lon":-75.9299209,"elevationM":425},{"id":"node:357275966","kind":"peak","name":"Bald Barren","lat":41.2495372,"lon":-75.0212842,"elevationM":452},{"id":"node:357276017","kind":"peak","name":"Bald Mountain","lat":41.2381372,"lon":-75.7451922,"elevationM":658},{"id":"node:357276345","kind":"peak","name":"Bear Rock","lat":41.039253,"lon":-75.6465787,"elevationM":587},{"id":"node:357276356","kind":"peak","name":"Bear Trap Mountain","lat":41.3620341,"lon":-75.2207333,"elevationM":529},{"id":"node:357276487","kind":"peak","name":"Beehive","lat":41.0528679,"lon":-75.3835178,"elevationM":561},{"id":"node:357276527","kind":"peak","name":"Belle Mountain","lat":41.2920353,"lon":-75.1440653,"elevationM":576},{"id":"node:357277329","kind":"peak","name":"Big Hickory","lat":41.7617551,"lon":-75.234896,"elevationM":611},{"id":"node:357277394","kind":"peak","name":"Big Shiney Mountain","lat":41.2706375,"lon":-75.6610233,"elevationM":664},{"id":"node:357277440","kind":"peak","name":"Birchard Hill","lat":41.8472989,"lon":-75.844915,"elevationM":555},{"id":"node:357277676","kind":"peak","name":"Blair Hill","lat":41.2661942,"lon":-75.5487982,"elevationM":645},{"id":"node:357278848","kind":"peak","name":"Buck Mountain","lat":41.0156395,"lon":-75.9293667,"elevationM":603},{"id":"node:357279023","kind":"peak","name":"Bull Hill","lat":41.590634,"lon":-75.6918565,"elevationM":381},{"id":"node:357279084","kind":"peak","name":"Bunker Hill","lat":41.3089694,"lon":-75.8946414,"elevationM":470},{"id":"node:357279088","kind":"peak","name":"Bunker Hill","lat":41.5809102,"lon":-75.8201944,"elevationM":361},{"id":"node:357279238","kind":"peak","name":"Bush Mountain","lat":41.2156446,"lon":-75.3104599,"elevationM":611},{"id":"node:357279255","kind":"peak","name":"Bushkos Hill","lat":41.5873016,"lon":-75.6476886,"elevationM":417},{"id":"node:357279639","kind":"peak","name":"Camelback Mountain","lat":41.042313,"lon":-75.3521284,"elevationM":647},{"id":"node:357279757","kind":"peak","name":"Carey Hill","lat":41.722302,"lon":-75.6351872,"elevationM":498},{"id":"node:357279776","kind":"peak","name":"Carlton Hill","lat":41.2725882,"lon":-75.3168484,"elevationM":575},{"id":"node:357279830","kind":"peak","name":"Carpenter Hill","lat":41.5164676,"lon":-75.6740789,"elevationM":493},{"id":"node:357279900","kind":"peak","name":"Cary Mountain","lat":41.5414697,"lon":-75.5740754,"elevationM":627},{"id":"node:357279934","kind":"peak","name":"Casterline Hill","lat":41.6020216,"lon":-75.7557472,"elevationM":369},{"id":"node:357281065","kind":"peak","name":"Church Hill","lat":41.5795234,"lon":-75.6638003,"elevationM":399},{"id":"node:357281068","kind":"peak","name":"Church Hill","lat":41.7820307,"lon":-75.3365662,"elevationM":586},{"id":"node:357281397","kind":"peak","name":"Cobble Hill","lat":41.6595232,"lon":-75.6818554,"elevationM":405},{"id":"node:357281831","kind":"peak","name":"Coon Hill","lat":41.3656369,"lon":-75.6179664,"elevationM":608},{"id":"node:357281836","kind":"peak","name":"Coon Hill","lat":41.697855,"lon":-75.7865804,"elevationM":435},{"id":"node:357282088","kind":"peak","name":"Craig Hill","lat":41.6584093,"lon":-75.996312,"elevationM":355},{"id":"node:357282191","kind":"peak","name":"Cresco Heights","lat":41.1619129,"lon":-75.2948833,"elevationM":523},{"id":"node:357282651","kind":"peak","name":"Dam Hill","lat":41.6286878,"lon":-75.8649178,"elevationM":385},{"id":"node:357282742","kind":"peak","name":"Davidson Hill","lat":41.6009128,"lon":-75.640466,"elevationM":428},{"id":"node:357282821","kind":"peak","name":"Dean Hill","lat":41.7442432,"lon":-75.8790841,"elevationM":470},{"id":"node:357282886","kind":"peak","name":"Deer Mountain","lat":41.0953678,"lon":-75.3507392,"elevationM":507},{"id":"node:357283545","kind":"peak","name":"Dresser Hill","lat":41.2206433,"lon":-75.3596276,"elevationM":673},{"id":"node:357283590","kind":"peak","name":"Dry Hill","lat":41.6222998,"lon":-75.7351907,"elevationM":397},{"id":"node:357284001","kind":"peak","name":"East Mountain","lat":41.5420213,"lon":-75.8396399,"elevationM":475},{"id":"node:357284005","kind":"peak","name":"East Mountain","lat":41.74897,"lon":-75.5774081,"elevationM":719},{"id":"node:357284461","kind":"peak","name":"Elk Hill","lat":41.7106369,"lon":-75.5626857,"elevationM":748},{"id":"node:357284510","kind":"peak","name":"Ellsworth Hill","lat":41.6306318,"lon":-75.9813114,"elevationM":383},{"id":"node:357285017","kind":"peak","name":"Fairground Hill","lat":41.5664668,"lon":-75.7146353,"elevationM":385},{"id":"node:357285773","kind":"peak","name":"Finch Hill","lat":41.6189702,"lon":-75.5576858,"elevationM":532},{"id":"node:357285798","kind":"peak","name":"Finn Hill","lat":41.6314683,"lon":-75.6510216,"elevationM":457},{"id":"node:357285861","kind":"peak","name":"Fish Hill","lat":41.685354,"lon":-75.9363093,"elevationM":414},{"id":"node:357285933","kind":"peak","name":"Flat Rock","lat":41.7289755,"lon":-75.3290665,"elevationM":452},{"id":"node:357286398","kind":"peak","name":"Bear Mountain","lat":41.0875895,"lon":-75.3824065,"elevationM":591},{"id":"node:357286637","kind":"peak","name":"Friendship Hill","lat":41.3325801,"lon":-75.9826998,"elevationM":397},{"id":"node:357287159","kind":"peak","name":"German Hill","lat":41.527299,"lon":-75.8804747,"elevationM":352},{"id":"node:357287618","kind":"peak","name":"Gobblers Knob","lat":41.6986875,"lon":-75.9004743,"elevationM":424},{"id":"node:357287630","kind":"peak","name":"Mount Godfrey","lat":41.173979,"lon":-75.2899043,"elevationM":527},{"id":"node:357287660","kind":"peak","name":"Golf Hill","lat":41.5848103,"lon":-75.2712875,"elevationM":408},{"id":"node:357288441","kind":"peak","name":"Green Mountain","lat":41.0367505,"lon":-75.915477,"elevationM":592},{"id":"node:357288446","kind":"peak","name":"Green Mountain","lat":41.0505134,"lon":-75.8318064,"elevationM":526},{"id":"node:357288923","kind":"peak","name":"Gunn Hill","lat":41.7003572,"lon":-75.6532433,"elevationM":460},{"id":"node:357289678","kind":"peak","name":"Hartley Hill","lat":41.6561895,"lon":-75.7001894,"elevationM":398},{"id":"node:357289712","kind":"peak","name":"Hasbrouck Hill","lat":41.9711898,"lon":-75.7054633,"elevationM":339},{"id":"node:357289787","kind":"peak","name":"Hawks Nest","lat":41.9720296,"lon":-75.3521188,"elevationM":539},{"id":"node:357289853","kind":"peak","name":"Haystack Mountain","lat":41.1798046,"lon":-75.8924194,"elevationM":560},{"id":"node:357290360","kind":"peak","name":"Hickory Knob","lat":41.9859124,"lon":-75.6829623,"elevationM":537},{"id":"node:357290462","kind":"peak","name":"High Knob","lat":41.0759223,"lon":-75.4229628,"elevationM":608},{"id":"node:357290489","kind":"peak","name":"High Knob","lat":41.5931398,"lon":-75.4310151,"elevationM":690},{"id":"node:357290501","kind":"peak","name":"High Knob","lat":41.2998133,"lon":-75.1246201,"elevationM":624},{"id":"node:357290934","kind":"peak","name":"Hogback Hill","lat":41.9967446,"lon":-75.744631,"elevationM":431},{"id":"node:357291923","kind":"peak","name":"Hubbard Mountain","lat":41.5153581,"lon":-75.5965763,"elevationM":618},{"id":"node:357292966","kind":"peak","name":"Jeffers Hill","lat":41.6964668,"lon":-75.7263006,"elevationM":421},{"id":"node:357293126","kind":"peak","name":"Jennings Hill","lat":41.6689651,"lon":-75.9435319,"elevationM":430},{"id":"node:357293388","kind":"peak","name":"Jones Hill","lat":41.7861902,"lon":-75.6771317,"elevationM":486},{"id":"node:357293467","kind":"peak","name":"Kahkhout Mountain","lat":41.0798171,"lon":-75.0696203,"elevationM":282},{"id":"node:357293578","kind":"peak","name":"Keipel Hill","lat":41.2000859,"lon":-75.4512962,"elevationM":610},{"id":"node:357293585","kind":"peak","name":"Kelder Hill","lat":41.9956343,"lon":-75.7037963,"elevationM":511},{"id":"node:357293683","kind":"peak","name":"Kennedy Hill","lat":41.5561908,"lon":-75.6296327,"elevationM":451},{"id":"node:357293686","kind":"peak","name":"Kennedy Hill","lat":41.7995249,"lon":-75.6065743,"elevationM":518},{"id":"node:357293826","kind":"peak","name":"King Hill","lat":41.9734156,"lon":-75.5304575,"elevationM":506},{"id":"node:357293858","kind":"peak","name":"Kingsbury Hill","lat":41.9336967,"lon":-75.3379524,"elevationM":554},{"id":"node:357293903","kind":"peak","name":"Kintner Hill","lat":41.5909097,"lon":-75.9590883,"elevationM":396},{"id":"node:357294266","kind":"peak","name":"Lake Mountain","lat":41.0439757,"lon":-75.605189,"elevationM":666},{"id":"node:357294273","kind":"peak","name":"Lake Sheridan Hill","lat":41.5917439,"lon":-75.7621365,"elevationM":365},{"id":"node:357294502","kind":"peak","name":"Larksville Mountain","lat":41.2798033,"lon":-75.9518652,"elevationM":483},{"id":"node:357294794","kind":"peak","name":"Lee Hill","lat":41.5720225,"lon":-75.703246,"elevationM":358},{"id":"node:357295315","kind":"peak","name":"Little Nescopeck Mountain","lat":41.1136941,"lon":-75.9254767,"elevationM":464},{"id":"node:357295469","kind":"peak","name":"Locust Hill","lat":41.9960914,"lon":-75.6829905,"elevationM":523},{"id":"node:357295659","kind":"peak","name":"Mount Lookout","lat":41.336191,"lon":-75.8476956,"elevationM":449},{"id":"node:357295703","kind":"peak","name":"Low Knob","lat":41.312591,"lon":-75.1212865,"elevationM":607},{"id":"node:357295815","kind":"peak","name":"Luce Hill","lat":41.6878538,"lon":-75.9629771,"elevationM":410},{"id":"node:357295957","kind":"peak","name":"Madden Hill","lat":41.3478687,"lon":-75.0801734,"elevationM":472},{"id":"node:357296074","kind":"peak","name":"Maley Hill","lat":41.3520352,"lon":-75.0890625,"elevationM":470},{"id":"node:357296188","kind":"peak","name":"Mansfield Hill","lat":41.7745313,"lon":-75.3135099,"elevationM":580},{"id":"node:357296324","kind":"peak","name":"Maple Hill","lat":41.9559175,"lon":-75.421288,"elevationM":604},{"id":"node:357296683","kind":"peak","name":"Maunatome Mountain","lat":41.9606338,"lon":-75.7251863,"elevationM":487},{"id":"node:357297566","kind":"peak","name":"Meyers Mountain","lat":41.5298028,"lon":-75.5837981,"elevationM":616},{"id":"node:357297657","kind":"peak","name":"Middle Mountain","lat":41.2362421,"lon":-75.2773563,"elevationM":599},{"id":"node:357297661","kind":"peak","name":"Middle Mountain","lat":41.5450769,"lon":-75.8563071,"elevationM":446},{"id":"node:357297849","kind":"peak","name":"Miller Hill","lat":41.6628547,"lon":-75.8340828,"elevationM":405},{"id":"node:357298212","kind":"peak","name":"Mitchell Hill","lat":41.7025762,"lon":-75.9357536,"elevationM":426},{"id":"node:357298724","kind":"peak","name":"Moores Hill","lat":41.8467515,"lon":-75.3996228,"elevationM":657},{"id":"node:357298800","kind":"peak","name":"Morgan Hill","lat":41.7459113,"lon":-75.7254665,"elevationM":495},{"id":"node:357299096","kind":"peak","name":"Mott Hill","lat":41.8436897,"lon":-75.7043537,"elevationM":530},{"id":"node:357301027","kind":"peak","name":"Mud Pond Mountain","lat":41.280924,"lon":-75.1762889,"elevationM":582},{"id":"node:357301093","kind":"peak","name":"Mulligan Hill","lat":41.6559101,"lon":-75.8443611,"elevationM":391},{"id":"node:357301566","kind":"peak","name":"Nettle Hill","lat":41.8500836,"lon":-75.4565692,"elevationM":693},{"id":"node:357301769","kind":"peak","name":"Newton Hill","lat":41.5520239,"lon":-75.637133,"elevationM":514},{"id":"node:357301801","kind":"peak","name":"Nicholson Hill","lat":41.6400771,"lon":-75.7888035,"elevationM":345},{"id":"node:357301950","kind":"peak","name":"North Knob","lat":41.7153592,"lon":-75.5604633,"elevationM":817},{"id":"node:357302382","kind":"peak","name":"Oak Hill","lat":41.5675766,"lon":-75.9501992,"elevationM":419},{"id":"node:357302406","kind":"peak","name":"Oak Hill","lat":41.9870248,"lon":-75.6212937,"elevationM":525},{"id":"node:357302461","kind":"peak","name":"Oak Knob","lat":41.6775781,"lon":-75.7149116,"elevationM":388},{"id":"node:357303000","kind":"peak","name":"Osterhout Mountain","lat":41.5367435,"lon":-75.8985309,"elevationM":589},{"id":"node:357303276","kind":"peak","name":"Panther Hill","lat":41.2591357,"lon":-75.6127637,"elevationM":662},{"id":"node:357303556","kind":"peak","name":"Penn Hill","lat":41.9181391,"lon":-75.4604566,"elevationM":586},{"id":"node:357303713","kind":"peak","name":"Penny Hill","lat":41.9800782,"lon":-75.7265749,"elevationM":455},{"id":"node:357303838","kind":"peak","name":"Peterson Mountain","lat":41.354524,"lon":-75.8324174,"elevationM":481},{"id":"node:357304016","kind":"peak","name":"Pimple Hill","lat":41.0289774,"lon":-75.5082423,"elevationM":669},{"id":"node:357304167","kind":"peak","name":"Pine Hill","lat":41.0198086,"lon":-75.6660237,"elevationM":556},{"id":"node:357304191","kind":"peak","name":"Pine Hill","lat":41.6375781,"lon":-75.7101898,"elevationM":380},{"id":"node:357304235","kind":"peak","name":"Pine Knob","lat":41.1867576,"lon":-75.2446254,"elevationM":376},{"id":"node:357304252","kind":"peak","name":"Pine Mountain","lat":41.1131498,"lon":-75.0787871,"elevationM":369},{"id":"node:357304317","kind":"peak","name":"Pinnacle Hill","lat":41.2931375,"lon":-75.6335226,"elevationM":564},{"id":"node:357304730","kind":"peak","name":"Pohopoco Mountain","lat":41.0003673,"lon":-75.4846309,"elevationM":612},{"id":"node:357304922","kind":"peak","name":"Pompey Hill","lat":41.6375768,"lon":-75.8538062,"elevationM":361},{"id":"node:357304952","kind":"peak","name":"Poplar Hill","lat":41.8428553,"lon":-75.7607443,"elevationM":509},{"id":"node:357305175","kind":"peak","name":"Prospect Hill","lat":41.5747987,"lon":-75.9599218,"elevationM":462},{"id":"node:357305179","kind":"peak","name":"Prospect Hill","lat":41.6506328,"lon":-75.7718582,"elevationM":399},{"id":"node:357306126","kind":"peak","name":"Rock Hill","lat":41.2538889,"lon":-75.0736111,"elevationM":41},{"id":"node:357306461","kind":"peak","name":"Round Hill","lat":41.6850809,"lon":-75.5829639,"elevationM":540},{"id":"node:357306466","kind":"peak","name":"Round Hill","lat":41.7059107,"lon":-75.7571346,"elevationM":443},{"id":"node:357306470","kind":"peak","name":"Round Hill","lat":41.9931379,"lon":-75.5315682,"elevationM":567},{"id":"node:357306636","kind":"peak","name":"Roundtop","lat":41.9542444,"lon":-75.7535207,"elevationM":482},{"id":"node:357311289","kind":"peak","name":"Salem Hill","lat":41.5503613,"lon":-75.4568493,"elevationM":686},{"id":"node:357311470","kind":"peak","name":"Sarnoski Hill","lat":41.56869,"lon":-75.6660226,"elevationM":407},{"id":"node:357311859","kind":"peak","name":"Seely Hill","lat":41.6339655,"lon":-75.8938078,"elevationM":388},{"id":"node:357311926","kind":"peak","name":"Seven Pines Mountain","lat":41.1575898,"lon":-75.3149049,"elevationM":598},{"id":"node:357312029","kind":"peak","name":"Shaffers Knob","lat":41.2084221,"lon":-75.3240713,"elevationM":634},{"id":"node:357312177","kind":"peak","name":"Sheldon Hill","lat":41.6545206,"lon":-75.9635328,"elevationM":396},{"id":"node:357312446","kind":"peak","name":"Shrawder Mountain","lat":41.9181403,"lon":-75.3929545,"elevationM":637},{"id":"node:357312599","kind":"peak","name":"Shupp Hill","lat":41.5836878,"lon":-75.8921414,"elevationM":371},{"id":"node:357312772","kind":"peak","name":"Slocum Hill","lat":41.8520259,"lon":-75.55935,"elevationM":612},{"id":"node:357312775","kind":"peak","name":"Slocum Hill","lat":41.9359166,"lon":-75.4740678,"elevationM":568},{"id":"node:357312829","kind":"peak","name":"Smith Hill","lat":41.6089776,"lon":-75.2196189,"elevationM":432},{"id":"node:357312872","kind":"peak","name":"Smokey Mountain","lat":41.9559126,"lon":-75.6718513,"elevationM":476},{"id":"node:357312885","kind":"peak","name":"Snake Hill","lat":41.8359144,"lon":-75.5796286,"elevationM":515},{"id":"node:357312911","kind":"peak","name":"Snow Hill","lat":41.1584253,"lon":-75.1924017,"elevationM":397},{"id":"node:357313117","kind":"peak","name":"South Knob","lat":41.7050813,"lon":-75.5607412,"elevationM":792},{"id":"node:357313666","kind":"peak","name":"Squire Hill","lat":41.6275769,"lon":-75.8351945,"elevationM":378},{"id":"node:357315113","kind":"peak","name":"Stonecrop Hill","lat":41.9270214,"lon":-75.8151906,"elevationM":549},{"id":"node:357315281","kind":"peak","name":"Strickland Hill","lat":41.6864659,"lon":-75.8132484,"elevationM":418},{"id":"node:357315286","kind":"peak","name":"Strickland Hill","lat":41.7095206,"lon":-75.9307534,"elevationM":427},{"id":"node:357315471","kind":"peak","name":"Sugarloaf Mountain","lat":41.8223058,"lon":-75.4557365,"elevationM":771},{"id":"node:357315685","kind":"peak","name":"Supko Hill","lat":41.6200797,"lon":-75.6324101,"elevationM":445},{"id":"node:357315954","kind":"peak","name":"Tar Knob","lat":41.1975909,"lon":-75.236014,"elevationM":422},{"id":"node:357315961","kind":"peak","name":"Tarey Hill","lat":41.3623125,"lon":-75.135175,"elevationM":498},{"id":"node:357315990","kind":"peak","name":"Taylor Hill","lat":41.6578542,"lon":-75.92242,"elevationM":358},{"id":"node:357315993","kind":"peak","name":"Taylor Hill","lat":41.9575814,"lon":-75.5690702,"elevationM":522},{"id":"node:357316078","kind":"peak","name":"Thayer Hill","lat":41.6781327,"lon":-75.790192,"elevationM":384},{"id":"node:357316280","kind":"peak","name":"Thomas Hill","lat":41.5997993,"lon":-75.7751924,"elevationM":385},{"id":"node:357316361","kind":"peak","name":"Thorn Hill","lat":41.6475798,"lon":-75.6299098,"elevationM":552},{"id":"node:357316417","kind":"peak","name":"Tiffany Hill","lat":41.7686908,"lon":-75.6429645,"elevationM":509},{"id":"node:357316445","kind":"peak","name":"Tinker Hill","lat":41.6886931,"lon":-75.5287961,"elevationM":534},{"id":"node:357317265","kind":"peak","name":"Tunnel Hill","lat":41.5914659,"lon":-75.8088049,"elevationM":345},{"id":"node:357317325","kind":"peak","name":"Turkey Hill","lat":41.5603561,"lon":-75.6946347,"elevationM":386},{"id":"node:357317363","kind":"peak","name":"Turkey Knoll","lat":41.188978,"lon":-75.3240715,"elevationM":655},{"id":"node:357317471","kind":"peak","name":"Tyler Hill","lat":41.7098107,"lon":-75.1110032,"elevationM":469},{"id":"node:357317478","kind":"peak","name":"Tyler Hill","lat":41.7259093,"lon":-75.9507542,"elevationM":430},{"id":"node:357318445","kind":"peak","name":"Valentine Hill","lat":41.609243,"lon":-75.9679775,"elevationM":428},{"id":"node:357318703","kind":"peak","name":"Vargo Hill","lat":41.6242433,"lon":-75.8915855,"elevationM":389},{"id":"node:357318858","kind":"peak","name":"Vine Hill","lat":41.5848109,"lon":-75.1754509,"elevationM":463},{"id":"node:357318986","kind":"peak","name":"Wallace Hill","lat":41.6311875,"lon":-75.929087,"elevationM":376},{"id":"node:357319298","kind":"peak","name":"Watts Hill","lat":41.5923107,"lon":-75.2565646,"elevationM":389},{"id":"node:357319384","kind":"peak","name":"Weatherby Hill","lat":41.541468,"lon":-75.6546336,"elevationM":481},{"id":"node:357319737","kind":"peak","name":"Mount Yeager","lat":41.0728616,"lon":-75.8524186,"elevationM":561},{"id":"node:357319850","kind":"peak","name":"West Hill","lat":41.3117575,"lon":-75.1385093,"elevationM":605},{"id":"node:357319889","kind":"peak","name":"West Mountain","lat":41.2420346,"lon":-75.2435139,"elevationM":605},{"id":"node:357320398","kind":"peak","name":"Wilbur Hill","lat":41.5067437,"lon":-75.762971,"elevationM":504},{"id":"node:357320443","kind":"peak","name":"Wilkes-Barre Mountain","lat":41.186749,"lon":-75.9279761,"elevationM":432},{"id":"node:357320737","kind":"peak","name":"Mount Wismer","lat":41.236479,"lon":-75.2526809,"elevationM":627},{"id":"node:357320783","kind":"peak","name":"Wolf Hill","lat":41.8167448,"lon":-75.7251879,"elevationM":544},{"id":"node:357320959","kind":"peak","name":"Wright Hill","lat":41.5756327,"lon":-75.7624145,"elevationM":338},{"id":"node:357321030","kind":"peak","name":"Wyoming Mountain","lat":41.2159152,"lon":-75.7832489,"elevationM":618},{"id":"node:357321042","kind":"peak","name":"Yahmer Hill","lat":41.607854,"lon":-75.9940896,"elevationM":435},{"id":"node:357321538","kind":"peak","name":"Big Pine Hill","lat":41.235916,"lon":-75.6357449,"elevationM":690},{"id":"node:357321634","kind":"peak","name":"Cedar Ledge","lat":41.5192434,"lon":-75.977978,"elevationM":409},{"id":"node:357321742","kind":"peak","name":"Dry Land Hill","lat":41.1511952,"lon":-75.6543566,"elevationM":588},{"id":"node:357321760","kind":"peak","name":"East Mountain","lat":41.2581461,"lon":-75.2051791,"elevationM":579},{"id":"node:357321920","kind":"peak","name":"Greenwood Hill","lat":41.5081325,"lon":-75.8696412,"elevationM":360},{"id":"node:357322364","kind":"peak","name":"Oak Hill","lat":41.9978578,"lon":-75.6396274,"elevationM":522},{"id":"node:357322436","kind":"peak","name":"Mount Pisgah","lat":41.2825814,"lon":-75.6926909,"elevationM":590},{"id":"node:357322466","kind":"peak","name":"Pine Mountain","lat":41.0853616,"lon":-75.8215839,"elevationM":433},{"id":"node:357322566","kind":"peak","name":"Round Top","lat":41.678687,"lon":-75.9877005,"elevationM":427},{"id":"node:357334821","kind":"peak","name":"Bald Hill","lat":41.3987015,"lon":-75.0729501,"elevationM":476},{"id":"node:357334857","kind":"peak","name":"Bell Mountain","lat":41.477857,"lon":-75.6604675,"elevationM":606},{"id":"node:357334873","kind":"peak","name":"Big Hill","lat":41.4117564,"lon":-75.1637861,"elevationM":531},{"id":"node:357334894","kind":"peak","name":"Briar Hill","lat":41.4145334,"lon":-75.2593446,"elevationM":426},{"id":"node:357334907","kind":"peak","name":"Buckhorn Mountain","lat":41.4548116,"lon":-75.1543406,"elevationM":429},{"id":"node:357334937","kind":"peak","name":"Captain White Hill","lat":41.5000771,"lon":-75.7443594,"elevationM":422},{"id":"node:357334973","kind":"peak","name":"Mount Cobb","lat":41.4089718,"lon":-75.4974069,"elevationM":555},{"id":"node:357335197","kind":"peak","name":"Gates Hill","lat":41.3964788,"lon":-75.1562862,"elevationM":514},{"id":"node:357335246","kind":"peak","name":"Griffin Hill","lat":41.4800773,"lon":-75.7799161,"elevationM":390},{"id":"node:357335404","kind":"peak","name":"Little Shiney Mountain","lat":41.2728594,"lon":-75.6893574,"elevationM":642},{"id":"node:357335471","kind":"peak","name":"Miller Mountain","lat":41.4892437,"lon":-75.9518661,"elevationM":672},{"id":"node:357335661","kind":"peak","name":"Pinnacle Rock","lat":41.4305532,"lon":-75.7522055,"elevationM":681},{"id":"node:357335669","kind":"peak","name":"Post Hill","lat":41.492577,"lon":-75.8768637,"elevationM":449},{"id":"node:357335684","kind":"peak","name":"Prospect Hill","lat":41.4856364,"lon":-75.5785203,"elevationM":281},{"id":"node:357335901","kind":"peak","name":"Shaver Mountain","lat":41.4728551,"lon":-75.9521438,"elevationM":657},{"id":"node:357335909","kind":"peak","name":"Shimers Mountain","lat":41.4637006,"lon":-75.0998943,"elevationM":382},{"id":"node:357335961","kind":"peak","name":"Square Top","lat":41.4684108,"lon":-75.8121393,"elevationM":355},{"id":"node:357336245","kind":"peak","name":"West Mountain","lat":41.4573009,"lon":-75.7021357,"elevationM":659},{"id":"node:357336387","kind":"peak","name":"Bald Mountain","lat":41.4364673,"lon":-75.7343589,"elevationM":641},{"id":"node:357344674","kind":"peak","name":"Pinnacle Rock","lat":41.4282044,"lon":-75.7523178,"elevationM":685},{"id":"node:357364341","kind":"peak","name":"Lackawanna Mountain","lat":41.6584161,"lon":-75.4899061,"elevationM":677},{"id":"node:357365532","kind":"peak","name":"Meachem Hill","lat":41.6822982,"lon":-75.9751999,"elevationM":410},{"id":"node:357369291","kind":"peak","name":"Mount Sophia","lat":41.1150907,"lon":-75.3012938,"elevationM":386},{"id":"node:357548693","kind":"peak","name":"Big Fork Mountain","lat":41.9298099,"lon":-75.1140569,"elevationM":665},{"id":"node:357549131","kind":"peak","name":"Bittersweet Hill","lat":41.943143,"lon":-75.1660027,"elevationM":679},{"id":"node:357549881","kind":"peak","name":"Bouchoux Hill","lat":41.8806433,"lon":-75.1698924,"elevationM":538},{"id":"node:357555142","kind":"peak","name":"Coon Hill","lat":41.9956418,"lon":-75.282672,"elevationM":576},{"id":"node:357556327","kind":"peak","name":"Deep Hollow Hill","lat":41.6064777,"lon":-75.0265568,"elevationM":380},{"id":"node:357558170","kind":"peak","name":"Elm Tree Ridge","lat":41.9356431,"lon":-75.157947,"elevationM":655},{"id":"node:357563874","kind":"peak","name":"Hawks Nest","lat":41.8648101,"lon":-75.101557,"elevationM":545},{"id":"node:357566681","kind":"peak","name":"Jensen Hill","lat":41.8670322,"lon":-75.1543365,"elevationM":513},{"id":"node:357566901","kind":"peak","name":"Johnny Ridge","lat":41.9259208,"lon":-75.1718364,"elevationM":595},{"id":"node:357570875","kind":"peak","name":"McCoys Knob","lat":41.9020316,"lon":-75.2587837,"elevationM":518},{"id":"node:357577599","kind":"peak","name":"Point Mountain","lat":41.9489753,"lon":-75.287395,"elevationM":421},{"id":"node:357581667","kind":"peak","name":"Rattlesnake Hill","lat":41.8931433,"lon":-75.159892,"elevationM":563},{"id":"node:357592300","kind":"peak","name":"Taylor Hill","lat":41.8806434,"lon":-75.1332246,"elevationM":563},{"id":"node:357596574","kind":"peak","name":"Sam Miller Hill","lat":41.8742546,"lon":-75.0873899,"elevationM":535},{"id":"node:752874934","kind":"peak","name":"Mount Mohican","lat":41.0150423,"lon":-75.0423292,"elevationM":480},{"id":"node:3070505844","kind":"peak","name":"Campbell's Ledge","lat":41.3592987,"lon":-75.7943535,"elevationM":null},{"id":"node:4085892172","kind":"peak","name":"Carr Hill","lat":41.9997039,"lon":-75.8596305,"elevationM":null},{"id":"node:4198330730","kind":"peak","name":"Montage Mountain","lat":41.3477895,"lon":-75.6498991,"elevationM":602},{"id":"node:7824729461","kind":"peak","name":"Burleigh Ridge","lat":41.3413086,"lon":-75.1017737,"elevationM":null},{"id":"node:8438246697","kind":"peak","name":"Baby Bell","lat":41.4640774,"lon":-75.6799655,"elevationM":588},{"id":"node:9244992415","kind":"peak","name":"Stone Tower","lat":41.2050769,"lon":-75.6325224,"elevationM":636},{"id":"node:11154666548","kind":"peak","name":"Chestnut Mountain","lat":41.2086231,"lon":-75.3036738,"elevationM":592},{"id":"node:11375700287","kind":"peak","name":"Jehu Mountain","lat":41.9519029,"lon":-75.1828465,"elevationM":null}]}