{"tileKey":"la_p26_lo_m81","version":"v1-1775891056926","entries":[{"id":"node:358699850","kind":"peak","name":"Maple Mound","lat":26.6639571,"lon":-80.9975661,"elevationM":5},{"id":"node:358707888","kind":"peak","name":"Tonys Mound","lat":26.5545166,"lon":-80.9403429,"elevationM":5},{"id":"node:358734233","kind":"peak","name":"Big Mound","lat":26.8747803,"lon":-80.4775526,"elevationM":6},{"id":"node:358734281","kind":"peak","name":"Melaleuca Head","lat":26.0117583,"lon":-80.7478397,"elevationM":2},{"id":"node:5814467442","kind":"peak","name":"Monarch Hill Renewable Energy Park","lat":26.2814037,"lon":-80.1644609,"elevationM":70}]}