{"tileKey":"la_p25_lo_p65","version":"v1-1775891056926","entries":[{"id":"node:4078237898","kind":"volcano","name":"Chandragup 1","lat":25.4453602,"lon":65.8654349,"elevationM":100},{"id":"node:4078667494","kind":"volcano","name":"Chandragup 2","lat":25.4520748,"lon":65.874055,"elevationM":100},{"id":"node:4082996364","kind":"peak","name":"Jogen Mountain","lat":25.6335432,"lon":65.5774569,"elevationM":750},{"id":"node:4083024170","kind":"peak","name":"Ghraij Mountain","lat":25.5908024,"lon":65.5934389,"elevationM":650},{"id":"node:4540389993","kind":"volcano","name":"Koh-e-Hanif","lat":25.5752385,"lon":65.9234968,"elevationM":null},{"id":"node:8568003612","kind":"volcano","name":"Chandragup 3","lat":25.4430874,"lon":65.865772,"elevationM":60},{"id":"node:11652185182","kind":"volcano","name":"Sangal","lat":25.5538273,"lon":65.735945,"elevationM":null}]}