{"tileKey":"la_p21_lo_p45","version":"v1-1775891056926","entries":[{"id":"node:1236412559","kind":"peak","name":"سود السهب","lat":21.149167,"lon":45.912222,"elevationM":null},{"id":"node:1236412623","kind":"peak","name":"خشم مشلح","lat":21.131111,"lon":45.453333,"elevationM":null},{"id":"node:6777059309","kind":"peak","name":"تل الحمد","lat":21.3765621,"lon":45.4879456,"elevationM":null},{"id":"node:6779342942","kind":"peak","name":"حمة ابن مواش","lat":21.1699045,"lon":45.9083195,"elevationM":null},{"id":"node:6779818324","kind":"peak","name":"خشم الشجري","lat":21.8413281,"lon":45.7870869,"elevationM":null},{"id":"node:6779880364","kind":"peak","name":"خشم مكسر","lat":21.8170452,"lon":45.6659584,"elevationM":null},{"id":"node:6780120621","kind":"peak","name":"جبل الهمل","lat":21.9953156,"lon":45.7939339,"elevationM":null},{"id":"node:6780240481","kind":"peak","name":"جعلان الأقرع","lat":21.6273419,"lon":45.5994005,"elevationM":null},{"id":"node:6783763455","kind":"peak","name":"خطامة حرصى","lat":21.2696171,"lon":45.5114632,"elevationM":null},{"id":"node:7159303769","kind":"peak","name":"جبال طويق","lat":21.7255532,"lon":45.8880853,"elevationM":null},{"id":"node:7559980895","kind":"peak","name":"هويمل الجعلان","lat":21.5635533,"lon":45.5456892,"elevationM":null},{"id":"node:8462952066","kind":"peak","name":"وصيفرين","lat":21.2401692,"lon":45.6103442,"elevationM":null},{"id":"node:8517652338","kind":"peak","name":"عرق الطبول","lat":21.0714393,"lon":45.0171926,"elevationM":null},{"id":"node:11870950486","kind":"peak","name":"الجعلان","lat":21.5391662,"lon":45.5889736,"elevationM":null},{"id":"node:11871306775","kind":"peak","name":"فرد ابن مواش","lat":21.2026107,"lon":45.95347,"elevationM":null},{"id":"node:11871874757","kind":"peak","name":"قرون","lat":21.0363973,"lon":45.586548,"elevationM":null},{"id":"node:11871883225","kind":"peak","name":"خشم الحميمة","lat":21.6692544,"lon":45.656536,"elevationM":null},{"id":"node:11871883274","kind":"peak","name":"خشم الجعلان","lat":21.6139967,"lon":45.6390764,"elevationM":null},{"id":"node:11871883581","kind":"peak","name":"فردة الهامل","lat":21.940851,"lon":45.905413,"elevationM":null},{"id":"node:11871883724","kind":"peak","name":"خشم حميد","lat":21.8802874,"lon":45.7876711,"elevationM":null}]}