{"tileKey":"la_p62_lo_m158","version":"v1-1775891056926","entries":[{"id":"node:5432951731","kind":"peak","name":"Camelback Mountain","lat":62.5438355,"lon":-157.3485089,"elevationM":840},{"id":"node:6248901941","kind":"peak","name":"Twin Buttes","lat":62.0485049,"lon":-157.8639114,"elevationM":604},{"id":"node:11660429622","kind":"peak","name":"Lookout Mountain","lat":62.1245571,"lon":-157.9932193,"elevationM":656},{"id":"node:11660571479","kind":"peak","name":"Chicken Mountain","lat":62.3864387,"lon":-157.9643985,"elevationM":726},{"id":"node:11661426743","kind":"peak","name":"Shoaty Mountain","lat":62.5937541,"lon":-157.0356435,"elevationM":463}]}