{"tileKey":"la_p24_lo_p40","version":"v1-1775891056926","entries":[{"id":"node:1236693218","kind":"peak","name":"ضليع القبيبة","lat":24.0174598,"lon":40.4067085,"elevationM":null},{"id":"node:1236694248","kind":"peak","name":"جبل أبو دخين","lat":24.9480544,"lon":40.0989448,"elevationM":null},{"id":"node:1236695012","kind":"peak","name":"جبل المصيقر","lat":24.9107376,"lon":40.6182978,"elevationM":null},{"id":"node:1236695062","kind":"peak","name":"جبال حويقات","lat":24.7890202,"lon":40.6710284,"elevationM":null},{"id":"node:1236695078","kind":"peak","name":"جِبال الضاين","lat":24.6561623,"lon":40.6756506,"elevationM":null},{"id":"node:1237968686","kind":"peak","name":"جبال رحرحان","lat":24.8932393,"lon":40.8369712,"elevationM":null},{"id":"node:1237968690","kind":"peak","name":"ضلعان الزنيد","lat":24.880833,"lon":40.896389,"elevationM":null},{"id":"node:5990193596","kind":"peak","name":"جبل أبو حلفا","lat":24.9855493,"lon":40.1895835,"elevationM":null},{"id":"node:5992955619","kind":"peak","name":"جبل أنياب","lat":24.9996735,"lon":40.1483048,"elevationM":null},{"id":"node:8845217025","kind":"peak","name":"جبال القعساء الطويله","lat":24.8562669,"lon":40.6167704,"elevationM":null},{"id":"node:9941452918","kind":"peak","name":"دليم","lat":24.8432864,"lon":40.5664794,"elevationM":null},{"id":"node:11870048247","kind":"peak","name":"حَزم الناعِمَة","lat":24.553971,"lon":40.0744158,"elevationM":null},{"id":"node:11870226001","kind":"peak","name":"جبل مطعمة","lat":24.9293807,"lon":40.7285615,"elevationM":null},{"id":"node:11870275501","kind":"peak","name":"جبل شقر","lat":24.938208,"lon":40.2347547,"elevationM":null},{"id":"node:11870738076","kind":"peak","name":"جبل الشقرة","lat":24.7575532,"lon":40.2650401,"elevationM":null},{"id":"node:11870738308","kind":"peak","name":"جبل أمّ عامر","lat":24.8532107,"lon":40.5192888,"elevationM":null},{"id":"node:11870738580","kind":"peak","name":"جبال السدير","lat":24.6681562,"lon":40.0520668,"elevationM":null},{"id":"node:11870738694","kind":"peak","name":"جبال الصويدرة","lat":24.7345867,"lon":40.1708022,"elevationM":null},{"id":"node:11871306714","kind":"peak","name":"جبال عنيزة","lat":24.8391797,"lon":40.0806296,"elevationM":null},{"id":"node:11871306814","kind":"peak","name":"جبال الظويهريات","lat":24.8097247,"lon":40.2169225,"elevationM":null},{"id":"node:11871307022","kind":"peak","name":"ذرع الحصان","lat":24.7477238,"lon":40.2118825,"elevationM":null},{"id":"node:11871539241","kind":"peak","name":"جبال أم حبل","lat":24.7561891,"lon":40.0740104,"elevationM":null},{"id":"node:11871539759","kind":"peak","name":"جبال الخشبي","lat":24.9021631,"lon":40.7577771,"elevationM":null},{"id":"node:11871652302","kind":"peak","name":"جبال المرير","lat":24.3591373,"lon":40.4716496,"elevationM":null},{"id":"node:11871652500","kind":"peak","name":"جبال أم الطرف","lat":24.759442,"lon":40.1528125,"elevationM":null},{"id":"node:11871754939","kind":"peak","name":"جبل القنينات","lat":24.9660401,"lon":40.455324,"elevationM":null},{"id":"node:11871768630","kind":"peak","name":"جبل الغراب","lat":24.0834933,"lon":40.1738812,"elevationM":null},{"id":"node:11871768662","kind":"peak","name":"جبل تعار","lat":24.1647241,"lon":40.3735092,"elevationM":null},{"id":"node:11871768746","kind":"peak","name":"ضليعات الدونك","lat":24.220113,"lon":40.2575013,"elevationM":null},{"id":"node:11871768842","kind":"peak","name":"ضِلعان الصَفر","lat":24.6984688,"lon":40.8942988,"elevationM":null},{"id":"node:11871768847","kind":"peak","name":"جبل حنوس المنيّة","lat":24.1359159,"lon":40.5648331,"elevationM":null},{"id":"node:11871768861","kind":"peak","name":"جبل شدخ","lat":24.6028383,"lon":40.5026633,"elevationM":null},{"id":"node:11871768881","kind":"peak","name":"جبال الإبهاة","lat":24.402703,"lon":40.6691427,"elevationM":null},{"id":"node:11871768983","kind":"peak","name":"جبل عين العنكبوت","lat":24.0843706,"lon":40.2694437,"elevationM":null},{"id":"node:11871883179","kind":"peak","name":"ضليعات أبو حبل","lat":24.0110985,"lon":40.9710021,"elevationM":null},{"id":"node:11871883183","kind":"peak","name":"ضلعان القرن","lat":24.2667079,"lon":40.2886055,"elevationM":null},{"id":"node:11871883187","kind":"peak","name":"جبل العويقر","lat":24.1210526,"lon":40.3355447,"elevationM":null},{"id":"node:11871883229","kind":"peak","name":"جبل الأفيهد","lat":24.3887087,"lon":40.1336617,"elevationM":null},{"id":"node:11871883262","kind":"peak","name":"ضليع أثيثية","lat":24.4062791,"lon":40.9773586,"elevationM":null},{"id":"node:11871883280","kind":"peak","name":"جبل الحَرشاء","lat":24.118582,"lon":40.8829094,"elevationM":null},{"id":"node:11871883282","kind":"peak","name":"جبال فخاذ","lat":24.3576578,"lon":40.32701,"elevationM":null},{"id":"node:11871883299","kind":"peak","name":"شقران علية","lat":24.2720578,"lon":40.4964475,"elevationM":null},{"id":"node:11871883367","kind":"peak","name":"جبال الدبة","lat":24.9666834,"lon":40.5760297,"elevationM":null},{"id":"node:11871883390","kind":"peak","name":"جبال القديرة","lat":24.2382546,"lon":40.0857148,"elevationM":null},{"id":"node:11871883500","kind":"peak","name":"جبال الصخرة","lat":24.0995754,"lon":40.6877702,"elevationM":null},{"id":"node:11871883512","kind":"peak","name":"جبال غزال","lat":24.7216661,"lon":40.4217609,"elevationM":null},{"id":"node:11871883534","kind":"peak","name":"حزم صماخ","lat":24.6128578,"lon":40.0941086,"elevationM":null},{"id":"node:11871883584","kind":"peak","name":"جبل القهد","lat":24.1180723,"lon":40.0223605,"elevationM":null},{"id":"node:11871883621","kind":"peak","name":"جبال كشر","lat":24.8547872,"lon":40.3757468,"elevationM":null},{"id":"node:11871883635","kind":"peak","name":"جبل العضيمية","lat":24.9481311,"lon":40.6636737,"elevationM":null},{"id":"node:11871883694","kind":"peak","name":"جبال العبدلية","lat":24.1546367,"lon":40.746644,"elevationM":null},{"id":"node:11871883717","kind":"peak","name":"جبال قرينين","lat":24.2194195,"lon":40.7059469,"elevationM":null},{"id":"node:11871883742","kind":"peak","name":"جبل أظلم","lat":24.8239939,"lon":40.3431861,"elevationM":null},{"id":"node:11871883776","kind":"peak","name":"تِلال الشَقران","lat":24.2277348,"lon":40.8082404,"elevationM":null},{"id":"node:11871883821","kind":"peak","name":"جَبَل المَعقَر","lat":24.253314,"lon":40.2096288,"elevationM":null},{"id":"node:11871883882","kind":"peak","name":"جبل فريح","lat":24.1591559,"lon":40.9009378,"elevationM":null},{"id":"node:11871883904","kind":"peak","name":"جبل العبد","lat":24.7341304,"lon":40.6065854,"elevationM":null},{"id":"node:11871883994","kind":"peak","name":"حرة الناعمة","lat":24.4278672,"lon":40.1939453,"elevationM":null},{"id":"node:11871884001","kind":"peak","name":"جبال الزينات","lat":24.04448,"lon":40.893924,"elevationM":null},{"id":"node:13081609949","kind":"peak","name":"القَرِين","lat":24.1828641,"lon":40.9783655,"elevationM":null},{"id":"node:13568652063","kind":"peak","name":"جبال الحويدات","lat":24.7608223,"lon":40.7480335,"elevationM":null}]}