{"tileKey":"la_p41_lo_p41","version":"v1-1775891056926","entries":[{"id":"node:159708110","kind":"peak","name":"Korgöl Tepe","lat":41.0409206,"lon":41.3312356,"elevationM":2906},{"id":"node:838796882","kind":"peak","name":"Gora Gerat-Kesun","lat":41.5221726,"lon":41.9796223,"elevationM":2047},{"id":"node:838797429","kind":"peak","name":"Geçit Tepesi","lat":41.0338788,"lon":41.93819,"elevationM":2376},{"id":"node:838799245","kind":"peak","name":"Kurt Dağı","lat":41.055,"lon":41.6383836,"elevationM":3198},{"id":"node:1851529369","kind":"peak","name":"Avcıkilisesi Tepesi","lat":41.2260244,"lon":41.8266947,"elevationM":1711},{"id":"node:1851529378","kind":"peak","name":"Bal Dağı","lat":41.0624859,"lon":41.9276243,"elevationM":2047},{"id":"node:1851529408","kind":"peak","name":"Buzhanebaşı Tepesi","lat":41.1138891,"lon":41.9361588,"elevationM":1526},{"id":"node:1851529661","kind":"peak","name":"Kıble Sırtı","lat":41.271576,"lon":41.962952,"elevationM":1955},{"id":"node:1851529685","kind":"peak","name":"Kırmızıkaya Tepesi","lat":41.0642772,"lon":41.8412314,"elevationM":1746},{"id":"node:1851529814","kind":"peak","name":"Uğrak Dağı","lat":41.2053661,"lon":41.928762,"elevationM":2210},{"id":"node:1851529819","kind":"peak","name":"Uğrak Sırtı","lat":41.167961,"lon":41.915176,"elevationM":1462},{"id":"node:1851529892","kind":"peak","name":"Zara Dağı","lat":41.0854902,"lon":41.9470137,"elevationM":1990},{"id":"node:1851538595","kind":"peak","name":"İnce Sırt","lat":41.255188,"lon":41.867115,"elevationM":1830},{"id":"node:2214397559","kind":"peak","name":"Karçal Dağları","lat":41.3409523,"lon":41.9896951,"elevationM":3428},{"id":"node:2214493347","kind":"peak","name":"Sivri Tepe","lat":41.0293255,"lon":41.4787526,"elevationM":2969},{"id":"node:2214493348","kind":"peak","name":"Soğuksu Sırtı","lat":41.047962,"lon":41.461548,"elevationM":2642},{"id":"node:2303469074","kind":"peak","name":"Alan Dağı","lat":41.0662395,"lon":41.0986763,"elevationM":1263},{"id":"node:2429762936","kind":"peak","name":"Kesik Tepe","lat":41.273521,"lon":41.909336,"elevationM":2438},{"id":"node:2429766328","kind":"peak","name":"Abano Sırtı","lat":41.4069057,"lon":41.9543098,"elevationM":1554},{"id":"node:2465796413","kind":"peak","name":"Halkalıtaş Tepesi","lat":41.0304277,"lon":41.13296,"elevationM":2130},{"id":"node:4418528645","kind":"peak","name":"მტირალა","lat":41.6577775,"lon":41.800308,"elevationM":1335},{"id":"node:4825346020","kind":"peak","name":"Sancak Tepe","lat":41.1035442,"lon":41.3259705,"elevationM":3103},{"id":"node:5124174452","kind":"peak","name":"ხოხნა","lat":41.5567794,"lon":41.8805874,"elevationM":1258},{"id":"node:5139858078","kind":"peak","name":"თავ-კუდიანი","lat":41.6768664,"lon":41.7577053,"elevationM":507},{"id":"node:5139929963","kind":"peak","name":"ჩაქვისთავი","lat":41.6395299,"lon":41.889781,"elevationM":1549},{"id":"node:5139937986","kind":"peak","name":"მახუნცეთი","lat":41.609351,"lon":41.8421269,"elevationM":1387},{"id":"node:5140511588","kind":"peak","name":"ბოლოკო","lat":41.4944913,"lon":41.6380243,"elevationM":1531},{"id":"node:5141821869","kind":"peak","name":"კორხუ","lat":41.6660867,"lon":41.8576248,"elevationM":918},{"id":"node:5143008226","kind":"peak","name":"დიდი მტირალა","lat":41.6269313,"lon":41.8225073,"elevationM":1381},{"id":"node:5143013686","kind":"peak","name":"ცხენეული","lat":41.6513314,"lon":41.7729301,"elevationM":852},{"id":"node:5143027649","kind":"peak","name":"ლაშის-თავი","lat":41.6860104,"lon":41.8067012,"elevationM":745},{"id":"node:5143047165","kind":"peak","name":"ხარხანისი","lat":41.6060891,"lon":41.7970676,"elevationM":1314},{"id":"node:5143047905","kind":"peak","name":"ჭინკაძე","lat":41.5918108,"lon":41.7801971,"elevationM":1307},{"id":"node:5143051104","kind":"peak","name":"ახალშენი","lat":41.6022864,"lon":41.7475604,"elevationM":1078},{"id":"node:5143052467","kind":"peak","name":"კავკეტი","lat":41.6169147,"lon":41.7629026,"elevationM":956},{"id":"node:5143057152","kind":"peak","name":"ყიბლისთა","lat":41.6133111,"lon":41.7396942,"elevationM":883},{"id":"node:5143070115","kind":"peak","name":"აგარისთავი","lat":41.6353846,"lon":41.8817441,"elevationM":1449},{"id":"node:5143080042","kind":"peak","name":"წონიორისის თავი","lat":41.6440818,"lon":41.926959,"elevationM":1434},{"id":"node:5143087679","kind":"peak","name":"მორვილი","lat":41.6860119,"lon":41.9547731,"elevationM":1726},{"id":"node:5143091660","kind":"peak","name":"თელიათხევი","lat":41.7183667,"lon":41.932393,"elevationM":1563},{"id":"node:5143092574","kind":"peak","name":"კლდე პეტლეპი","lat":41.7010265,"lon":41.9626886,"elevationM":1645},{"id":"node:5143101897","kind":"peak","name":"ტირატი","lat":41.7290721,"lon":41.8972691,"elevationM":1379},{"id":"node:5143107413","kind":"peak","name":"დაგვა","lat":41.7193019,"lon":41.854522,"elevationM":1193},{"id":"node:5143111681","kind":"peak","name":"ბეზონის მტა","lat":41.7119898,"lon":41.8920158,"elevationM":1476},{"id":"node:5143208849","kind":"peak","name":"გომანეთი","lat":41.6928566,"lon":41.8599453,"elevationM":927},{"id":"node:5143208850","kind":"peak","name":"საკვერნია","lat":41.7053212,"lon":41.8385306,"elevationM":770},{"id":"node:5143267061","kind":"peak","name":"მელისციხე","lat":41.7093935,"lon":41.8469793,"elevationM":781},{"id":"node:5143297080","kind":"peak","name":"ორბეზა","lat":41.6736253,"lon":41.9132566,"elevationM":1405},{"id":"node:5143922225","kind":"peak","name":"ქობრონის-სერი","lat":41.7540737,"lon":41.9244072,"elevationM":1326},{"id":"node:5155488499","kind":"peak","name":"მთავარანგელოზი","lat":41.5258407,"lon":41.7466013,"elevationM":887},{"id":"node:5155488932","kind":"peak","name":"მილისი","lat":41.5325596,"lon":41.8209411,"elevationM":986},{"id":"node:5166837530","kind":"peak","name":"სანოვარდო","lat":41.5532366,"lon":41.9410044,"elevationM":1522},{"id":"node:5166837531","kind":"peak","name":"დიდვაკე","lat":41.5435547,"lon":41.9439608,"elevationM":1670},{"id":"node:6432601100","kind":"peak","name":"ანარია","lat":41.6149758,"lon":41.6687787,"elevationM":361},{"id":"node:6432601101","kind":"peak","name":"ხეჩოკეტი","lat":41.6038749,"lon":41.6845321,"elevationM":369},{"id":"node:6432601104","kind":"peak","name":"არპაზონი","lat":41.5803586,"lon":41.6833218,"elevationM":404},{"id":"node:6440978923","kind":"peak","name":"ერგე","lat":41.6002524,"lon":41.7208473,"elevationM":896},{"id":"node:6440978925","kind":"peak","name":"ტალახნარა","lat":41.5616937,"lon":41.7196818,"elevationM":760},{"id":"node:7310788073","kind":"peak","name":"Gudashev","lat":41.0132634,"lon":41.3304887,"elevationM":3406},{"id":"node:7312123628","kind":"peak","name":"Gül Dağı","lat":41.143818,"lon":41.4711089,"elevationM":3371},{"id":"node:7312123629","kind":"peak","name":"Samurkele","lat":41.1159831,"lon":41.4506607,"elevationM":3251},{"id":"node:7312123631","kind":"peak","name":"Zalikon","lat":41.1011017,"lon":41.4706793,"elevationM":3168},{"id":"node:7312123632","kind":"peak","name":"Çatalkaya","lat":41.1572758,"lon":41.3944391,"elevationM":2958},{"id":"node:7312123634","kind":"peak","name":"Kurulgöl Tepe","lat":41.1125526,"lon":41.3919322,"elevationM":2733},{"id":"node:7312123635","kind":"peak","name":"Öküuzboğan Tepe","lat":41.0916805,"lon":41.3878291,"elevationM":3038},{"id":"node:7312123636","kind":"peak","name":"Kızıl Tepe","lat":41.0873637,"lon":41.3955072,"elevationM":2961},{"id":"node:7312123637","kind":"peak","name":"Moğlasıl Tepe","lat":41.0862962,"lon":41.4095802,"elevationM":3076},{"id":"node:7312123638","kind":"peak","name":"Marsis","lat":41.0871137,"lon":41.4176565,"elevationM":3334},{"id":"node:7312123639","kind":"peak","name":"Çışkar Tepe","lat":41.0887749,"lon":41.3826171,"elevationM":2939},{"id":"node:7312123640","kind":"peak","name":"Kor Tepe","lat":41.0838468,"lon":41.3720125,"elevationM":2900},{"id":"node:7312123641","kind":"peak","name":"Şorakbaşı","lat":41.0772476,"lon":41.3580079,"elevationM":3118},{"id":"node:7312123642","kind":"peak","name":"Çorak Sivrisi","lat":41.0862027,"lon":41.318862,"elevationM":3075},{"id":"node:7312123643","kind":"peak","name":"Dua Tepe","lat":41.082779,"lon":41.3024345,"elevationM":2929},{"id":"node:7312123644","kind":"peak","name":"Gürcü Gölü Tepe","lat":41.0680085,"lon":41.3416334,"elevationM":3066},{"id":"node:7312123647","kind":"peak","name":"Karataş Tepe","lat":41.0594221,"lon":41.3871917,"elevationM":3101},{"id":"node:7312123648","kind":"peak","name":"Gudashev","lat":41.0490177,"lon":41.3653264,"elevationM":3406},{"id":"node:7312123649","kind":"peak","name":"Marsis Tepe","lat":41.0469787,"lon":41.3866446,"elevationM":2907},{"id":"node:7312123650","kind":"peak","name":"İntor Tepe","lat":41.0473482,"lon":41.3389903,"elevationM":3101},{"id":"node:7312123651","kind":"peak","name":"İntorbaşı","lat":41.0293646,"lon":41.3217064,"elevationM":3169},{"id":"node:7312123652","kind":"peak","name":"Barhal Aşıtı","lat":41.0216599,"lon":41.3197035,"elevationM":3170},{"id":"node:7312123653","kind":"peak","name":"Doniket","lat":41.0178345,"lon":41.3216703,"elevationM":3315},{"id":"node:7312123654","kind":"peak","name":"Asağı Karataş Tepe","lat":41.0155064,"lon":41.3420777,"elevationM":3322},{"id":"node:7312123655","kind":"peak","name":"Başkaya Tepe","lat":41.0170721,"lon":41.3501793,"elevationM":3179},{"id":"node:7312123656","kind":"peak","name":"Karataş Tepe","lat":41.028017,"lon":41.3490245,"elevationM":3253},{"id":"node:8682427023","kind":"peak","name":"Barbareti","lat":41.1314862,"lon":41.7899535,"elevationM":1988},{"id":"node:8988416126","kind":"peak","name":"ქვის კვერცხი 14.47 17.08.25","lat":41.7434606,"lon":41.8708269,"elevationM":1208},{"id":"node:8988620282","kind":"peak","name":"სკურდა","lat":41.7712987,"lon":41.9008939,"elevationM":1171},{"id":"node:9247431632","kind":"peak","name":"Kurvi","lat":41.7145342,"lon":41.9860246,"elevationM":1588},{"id":"node:9249069565","kind":"peak","name":"მურაშკანი","lat":41.5175717,"lon":41.9479326,"elevationM":1881},{"id":"node:9251883510","kind":"peak","name":"ტყემლებისმთა","lat":41.7254806,"lon":41.7949766,"elevationM":691},{"id":"node:11109133212","kind":"peak","name":"სამება","lat":41.632385,"lon":41.6937615,"elevationM":333}]}