{"tileKey":"la_p53_lo_m4","version":"v1-1775891056926","entries":[{"id":"node:20950099","kind":"peak","name":"Waun-y-Llyn","lat":53.11334,"lon":-3.0701433,"elevationM":289},{"id":"node:29580544","kind":"peak","name":"Tryfan","lat":53.1149311,"lon":-3.997578,"elevationM":918},{"id":"node:29779561","kind":"peak","name":"Ruabon Mountain","lat":53.003263,"lon":-3.1398194,"elevationM":502},{"id":"node:29779855","kind":"peak","name":"Maesyrychen Mountain","lat":53.0025526,"lon":-3.209577,"elevationM":421},{"id":"node:104406760","kind":"peak","name":"Yr Elen","lat":53.1665724,"lon":-3.9852043,"elevationM":962},{"id":"node:104406794","kind":"peak","name":"Carnedd Gwenllian","lat":53.182957,"lon":-3.9663499,"elevationM":926},{"id":"node:104406834","kind":"peak","name":"Foel Fras","lat":53.1946537,"lon":-3.9525693,"elevationM":942},{"id":"node:249925057","kind":"peak","name":"Drum","lat":53.2076133,"lon":-3.9353106,"elevationM":770},{"id":"node:254474716","kind":"peak","name":"Llwytmor","lat":53.2039057,"lon":-3.9634993,"elevationM":849},{"id":"node:254474761","kind":"peak","name":"Foel-ganol","lat":53.2251191,"lon":-3.9667462,"elevationM":536},{"id":"node:254486998","kind":"peak","name":"Moel Eilio","lat":53.1752818,"lon":-3.8751503,"elevationM":546},{"id":"node:255133887","kind":"peak","name":"Pen y Benar","lat":53.0338195,"lon":-3.8940437,"elevationM":431},{"id":"node:279947153","kind":"peak","name":"Moel Famau","lat":53.1541445,"lon":-3.2555194,"elevationM":551},{"id":"node:286510563","kind":"peak","name":"Moel Gyw","lat":53.1082206,"lon":-3.239535,"elevationM":467},{"id":"node:296376026","kind":"peak","name":"Foel Lwyd","lat":53.2326452,"lon":-3.9194574,"elevationM":603},{"id":"node:296376220","kind":"peak","name":"Drosgl","lat":53.2215513,"lon":-3.9392505,"elevationM":621},{"id":"node:296376256","kind":"peak","name":"Pen Y Castell","lat":53.2016474,"lon":-3.9149319,"elevationM":620},{"id":"node:315967041","kind":"peak","name":"Moel Siabod","lat":53.0731995,"lon":-3.933995,"elevationM":872},{"id":"node:331573435","kind":"peak","name":"Great Orme","lat":53.3325491,"lon":-3.8523505,"elevationM":207},{"id":"node:332215843","kind":"peak","name":"Bera Mawr","lat":53.195367,"lon":-3.9851824,"elevationM":794},{"id":"node:334520882","kind":"peak","name":"Mynydd Rhyd Ddu","lat":53.0185765,"lon":-3.4107374,"elevationM":389},{"id":"node:335171400","kind":"peak","name":"Y Foel Goch","lat":53.1047259,"lon":-3.9763653,"elevationM":805},{"id":"node:335172196","kind":"peak","name":"Gallt yr Ogof","lat":53.1079488,"lon":-3.965662,"elevationM":763},{"id":"node:340243577","kind":"peak","name":"Pen yr Helgi Du","lat":53.1475575,"lon":-3.9475186,"elevationM":833},{"id":"node:340243624","kind":"peak","name":"Pen Llithrig y Wrach","lat":53.142251,"lon":-3.9207771,"elevationM":799},{"id":"node:340243634","kind":"peak","name":"Creigau Gleision","lat":53.1358328,"lon":-3.9013076,"elevationM":678},{"id":"node:343561431","kind":"peak","name":"Creigiau Gleision North Top","lat":53.142329,"lon":-3.894677,"elevationM":634},{"id":"node:343561445","kind":"peak","name":"Craig Wen","lat":53.1243205,"lon":-3.9008026,"elevationM":548},{"id":"node:380771902","kind":"peak","name":"Foel Fenlli","lat":53.1313497,"lon":-3.2497021,"elevationM":511},{"id":"node:398662603","kind":"peak","name":"Fron Hen","lat":53.1347343,"lon":-3.2322502,"elevationM":458},{"id":"node:454285649","kind":"peak","name":"Moel Dyrnogydd","lat":53.023909,"lon":-3.9460237,"elevationM":522},{"id":"node:533929131","kind":"peak","name":"Moel Marchyria","lat":53.0022172,"lon":-3.8504373,"elevationM":487},{"id":"node:586438334","kind":"peak","name":"Mynydd Pant","lat":53.3183156,"lon":-3.7872443,"elevationM":130},{"id":"node:649511643","kind":"peak","name":"Foel Lus","lat":53.2674858,"lon":-3.9022287,"elevationM":362},{"id":"node:649511719","kind":"peak","name":"Allt Wen","lat":53.2775155,"lon":-3.8829369,"elevationM":255},{"id":"node:649545099","kind":"peak","name":"Penmaen-Bach","lat":53.2845548,"lon":-3.8803747,"elevationM":245},{"id":"node:662710114","kind":"peak","name":"Bryn Cŵn","lat":53.2370825,"lon":-3.8237203,"elevationM":104},{"id":"node:696957357","kind":"peak","name":"Bera Bach","lat":53.1902242,"lon":-3.9882506,"elevationM":807},{"id":"node:696957367","kind":"peak","name":"Craig Hafodwen","lat":53.2598916,"lon":-3.9048557,"elevationM":381},{"id":"node:761497974","kind":"peak","name":"Carnedd Llewelyn","lat":53.1601041,"lon":-3.9703023,"elevationM":1064},{"id":"node:1089144202","kind":"peak","name":"Cyrn y Brain","lat":53.0313355,"lon":-3.182191,"elevationM":565},{"id":"node:1089148592","kind":"peak","name":"Esclusham Mountain","lat":53.0498192,"lon":-3.1098166,"elevationM":457},{"id":"node:1123201061","kind":"peak","name":"Mynydd Cricor","lat":53.0462706,"lon":-3.2713082,"elevationM":340},{"id":"node:1328595461","kind":"peak","name":"Crimpiau","lat":53.1182588,"lon":-3.8945588,"elevationM":475},{"id":"node:1328601469","kind":"peak","name":"Craiglwyn","lat":53.13011,"lon":-3.8990829,"elevationM":623},{"id":"node:1328605869","kind":"peak","name":"Penardda","lat":53.1810673,"lon":-3.8549143,"elevationM":402},{"id":"node:1330509521","kind":"peak","name":"Mynydd y Dref","lat":53.2826612,"lon":-3.861678,"elevationM":247},{"id":"node:1445849297","kind":"peak","name":"Mynydd Bodran","lat":53.22334,"lon":-3.5884367,"elevationM":287},{"id":"node:1599277956","kind":"peak","name":"Braich Bryn-engan","lat":53.0949783,"lon":-3.9047418,"elevationM":337},{"id":"node:1860791432","kind":"peak","name":"Moel y Faen","lat":53.0182354,"lon":-3.2141149,"elevationM":548},{"id":"node:1860791433","kind":"peak","name":"Moel y Gamelin","lat":53.0095963,"lon":-3.2290294,"elevationM":577},{"id":"node:2264706662","kind":"peak","name":"Gop Hill","lat":53.3104164,"lon":-3.3723451,"elevationM":248},{"id":"node:2329810292","kind":"peak","name":"Yr Aryg","lat":53.1871056,"lon":-3.976432,"elevationM":876},{"id":"node:2525358989","kind":"peak","name":"Moel Morfydd","lat":53.0025784,"lon":-3.2537012,"elevationM":549},{"id":"node:2618867763","kind":"peak","name":"Y Ro Wen","lat":53.0325966,"lon":-3.8717118,"elevationM":599},{"id":"node:2665983935","kind":"peak","name":"Moel Druman","lat":53.0094875,"lon":-3.9816007,"elevationM":676},{"id":"node:2666032931","kind":"peak","name":"Bryn Tryfan","lat":53.1121663,"lon":-3.9987554,"elevationM":831},{"id":"node:2738992536","kind":"peak","name":"Eglwyseg Mountain","lat":53.0096563,"lon":-3.1465619,"elevationM":511},{"id":"node:2755123931","kind":"peak","name":"Cribau","lat":53.0130865,"lon":-3.9359855,"elevationM":483},{"id":"node:2757340026","kind":"peak","name":"Moelfre Isaf","lat":53.2469849,"lon":-3.5729212,"elevationM":315},{"id":"node:2757340031","kind":"peak","name":"Talgrwn-Mawr","lat":53.2494243,"lon":-3.5553474,"elevationM":232},{"id":"node:2757340034","kind":"peak","name":"The Warren","lat":53.2697947,"lon":-3.5625572,"elevationM":189},{"id":"node:2762633685","kind":"peak","name":"Moel Hiraddug","lat":53.2926258,"lon":-3.4063184,"elevationM":262},{"id":"node:2763907690","kind":"peak","name":"Yr Arddu","lat":53.0374462,"lon":-3.9796232,"elevationM":589},{"id":"node:2763908047","kind":"peak","name":"Cerrig Cochion","lat":53.0400667,"lon":-3.996306,"elevationM":550},{"id":"node:2763908053","kind":"peak","name":"Carnedd y Cribau","lat":53.0640718,"lon":-3.9769705,"elevationM":591},{"id":"node:2767274742","kind":"peak","name":"Moel Meirch","lat":53.0337664,"lon":-3.997914,"elevationM":608},{"id":"node:2772189994","kind":"peak","name":"Moel Penamnen","lat":53.0170926,"lon":-3.9151073,"elevationM":628},{"id":"node:2772604845","kind":"peak","name":"Moel Gid","lat":53.0735441,"lon":-3.9483229,"elevationM":733},{"id":"node:2772604910","kind":"peak","name":"Foel Goch","lat":53.043686,"lon":-3.9751332,"elevationM":520},{"id":"node:2772604933","kind":"peak","name":"Moel Farlwyd","lat":53.0194724,"lon":-3.9284398,"elevationM":577},{"id":"node:2780646449","kind":"peak","name":"Marian Ffrith","lat":53.2896288,"lon":-3.3922706,"elevationM":238},{"id":"node:2780646452","kind":"peak","name":"Mynydd Y Cwm","lat":53.2795238,"lon":-3.3918941,"elevationM":302},{"id":"node:2812227911","kind":"peak","name":"Coed Y Garreg","lat":53.2944028,"lon":-3.3014038,"elevationM":246},{"id":"node:2818166722","kind":"peak","name":"Penycloddiau","lat":53.2008759,"lon":-3.308142,"elevationM":440},{"id":"node:2818176501","kind":"peak","name":"Moel Llys-y-coed","lat":53.1799189,"lon":-3.2710664,"elevationM":461},{"id":"node:2819393103","kind":"peak","name":"Axton Hill","lat":53.3123258,"lon":-3.3434431,"elevationM":229},{"id":"node:2819393112","kind":"peak","name":"Moel Maenefa","lat":53.2588512,"lon":-3.3699149,"elevationM":287},{"id":"node:2819450747","kind":"peak","name":"Moel y Parc","lat":53.2197543,"lon":-3.3204087,"elevationM":395},{"id":"node:2832649976","kind":"peak","name":"Wern-fach","lat":53.2371347,"lon":-3.6204461,"elevationM":280},{"id":"node:2854150023","kind":"peak","name":"Cefn Du","lat":53.2433298,"lon":-3.3558402,"elevationM":268},{"id":"node:2932325664","kind":"peak","name":"Halkyn Mountain","lat":53.2381808,"lon":-3.2065368,"elevationM":291},{"id":"node:2949921324","kind":"peak","name":"Mynydd Garthmyn","lat":53.0904726,"lon":-3.7849347,"elevationM":251},{"id":"node:2997300940","kind":"peak","name":"Moelfre","lat":53.2511816,"lon":-3.9239439,"elevationM":431},{"id":"node:2997300941","kind":"peak","name":"Carnedd Y Ddelw","lat":53.2162899,"lon":-3.936629,"elevationM":688},{"id":"node:3017175054","kind":"peak","name":"Mynydd Y Gaer","lat":53.2331093,"lon":-3.5402242,"elevationM":275},{"id":"node:3017253297","kind":"peak","name":"Moel Fodiar","lat":53.1992717,"lon":-3.5310841,"elevationM":388},{"id":"node:3017253298","kind":"peak","name":"Mynydd Y Gyrt","lat":53.2111357,"lon":-3.5474179,"elevationM":296},{"id":"node:3025804561","kind":"peak","name":"Bwrdd Arthur","lat":53.1919848,"lon":-3.5574577,"elevationM":232},{"id":"node:3025804577","kind":"peak","name":"Moel Emwnt","lat":53.1999829,"lon":-3.6024736,"elevationM":360},{"id":"node:3025804579","kind":"peak","name":"Pen-Y-Coed","lat":53.2338538,"lon":-3.5578013,"elevationM":194},{"id":"node:3037770437","kind":"peak","name":"Cerrig Heilyn","lat":53.3041669,"lon":-3.4153133,"elevationM":38},{"id":"node:3073716000","kind":"peak","name":"Foel Goch","lat":53.0885308,"lon":-3.4951805,"elevationM":519},{"id":"node:3073739728","kind":"peak","name":"Bryn Maen","lat":53.1085372,"lon":-3.5362031,"elevationM":455},{"id":"node:3073739729","kind":"peak","name":"Bryniaur Hafod","lat":53.0956132,"lon":-3.5424884,"elevationM":408},{"id":"node:3073754083","kind":"peak","name":"Bryn Trillyn","lat":53.1185722,"lon":-3.5741826,"elevationM":493},{"id":"node:3074046682","kind":"peak","name":"Tir Mostyn","lat":53.109841,"lon":-3.5061744,"elevationM":492},{"id":"node:3074046683","kind":"peak","name":"Cefn Llys-Gwr","lat":53.1116737,"lon":-3.5927293,"elevationM":443},{"id":"node:3074093185","kind":"peak","name":"Craig yr Iyrchen","lat":53.0536619,"lon":-3.5830829,"elevationM":471},{"id":"node:3074093186","kind":"peak","name":"Mynydd Poeth","lat":53.0484389,"lon":-3.5619848,"elevationM":414},{"id":"node:3075942053","kind":"peak","name":"Pen Ffridd Hendre","lat":53.0483758,"lon":-3.4988829,"elevationM":396},{"id":"node:3075989476","kind":"peak","name":"Llys Y Frenhines","lat":53.0854117,"lon":-3.3978892,"elevationM":410},{"id":"node:3076445169","kind":"peak","name":"Pen Y Corddyn Mawr","lat":53.2727069,"lon":-3.6272322,"elevationM":172},{"id":"node:3077172713","kind":"peak","name":"Boncyn Foel-Bach","lat":53.0592272,"lon":-3.4062226,"elevationM":405},{"id":"node:3141551922","kind":"peak","name":"Pen-Yr-Allt","lat":53.2605027,"lon":-3.5707513,"elevationM":169},{"id":"node:3141551923","kind":"peak","name":"Tower Hill","lat":53.2706004,"lon":-3.576252,"elevationM":178},{"id":"node:3141556935","kind":"peak","name":"Pen-y-groesffordd","lat":53.2866656,"lon":-3.6287053,"elevationM":128},{"id":"node:3141556936","kind":"peak","name":"Coed Bettws","lat":53.2722949,"lon":-3.6128996,"elevationM":153},{"id":"node:3141556937","kind":"peak","name":"Bryn Castell Gwrych","lat":53.2798003,"lon":-3.6073635,"elevationM":183},{"id":"node:3141556938","kind":"peak","name":"Bryn Gwenallt","lat":53.2731925,"lon":-3.5924719,"elevationM":153},{"id":"node:3141556939","kind":"peak","name":"Cefn Yr Ogof","lat":53.281651,"lon":-3.6259587,"elevationM":204},{"id":"node:3235053659","kind":"peak","name":"Swch Y Llan","lat":53.0288449,"lon":-3.5971848,"elevationM":330},{"id":"node:3235304824","kind":"peak","name":"Pen Ffridd-Sarn","lat":53.0031306,"lon":-3.7299439,"elevationM":441},{"id":"node:3260948793","kind":"peak","name":"St Elmos Summer House","lat":53.3250435,"lon":-3.375403,"elevationM":235},{"id":"node:3287608215","kind":"peak","name":"Moel Gwern-Nannau","lat":53.0005206,"lon":-3.578568,"elevationM":452},{"id":"node:3287610661","kind":"peak","name":"Moel Eglwys","lat":53.0180534,"lon":-3.6320835,"elevationM":448},{"id":"node:3287612184","kind":"peak","name":"Garn Prys","lat":53.021048,"lon":-3.6606007,"elevationM":530},{"id":"node:3294934414","kind":"peak","name":"Thurstaston Hill","lat":53.3535102,"lon":-3.1363913,"elevationM":91},{"id":"node:3294937396","kind":"peak","name":"Bidston Hill","lat":53.4011907,"lon":-3.073854,"elevationM":70},{"id":"node:3295245949","kind":"peak","name":"Y Drum","lat":53.0204008,"lon":-3.529125,"elevationM":417},{"id":"node:3295250891","kind":"peak","name":"Llechwedd","lat":53.0432151,"lon":-3.5378369,"elevationM":450},{"id":"node:3295555785","kind":"peak","name":"Cefn Y Cist","lat":53.0250281,"lon":-3.1304639,"elevationM":492},{"id":"node:3295559643","kind":"peak","name":"Plas-Gwyn","lat":53.0694924,"lon":-3.1102507,"elevationM":378},{"id":"node:3295560751","kind":"peak","name":"Pen-Llan-y-gwr","lat":53.0835432,"lon":-3.0984276,"elevationM":378},{"id":"node:3295563661","kind":"peak","name":"Pen Tan-y-Bryn","lat":53.0773949,"lon":-3.1208508,"elevationM":350},{"id":"node:3295564555","kind":"peak","name":"Caergwrle Castle","lat":53.1073315,"lon":-3.0369743,"elevationM":137},{"id":"node:3295564876","kind":"peak","name":"Cefn","lat":53.0703175,"lon":-3.0399554,"elevationM":210},{"id":"node:3295565671","kind":"peak","name":"Pen-Rhos","lat":53.0731151,"lon":-3.0728715,"elevationM":280},{"id":"node:3295567461","kind":"peak","name":"Windy Hill","lat":53.0863563,"lon":-3.0353169,"elevationM":170},{"id":"node:3295569017","kind":"peak","name":"Caer Estyn","lat":53.1098665,"lon":-3.02648,"elevationM":150},{"id":"node:3295709263","kind":"peak","name":"Moel Fodig","lat":53.0011396,"lon":-3.3475217,"elevationM":240},{"id":"node:3295711382","kind":"peak","name":"Moel Garegog","lat":53.0641488,"lon":-3.1705388,"elevationM":413},{"id":"node:3295712015","kind":"peak","name":"Tyddyn-Roger","lat":53.1030932,"lon":-3.3642959,"elevationM":257},{"id":"node:3295712138","kind":"peak","name":"Moel Llanfair","lat":53.0996194,"lon":-3.2421216,"elevationM":447},{"id":"node:3295712461","kind":"peak","name":"Moel y Plas","lat":53.0893241,"lon":-3.2393106,"elevationM":440},{"id":"node:3295712517","kind":"peak","name":"Moel Seisiog","lat":53.1007403,"lon":-3.7030753,"elevationM":468},{"id":"node:3295712518","kind":"peak","name":"Moel Llyn","lat":53.1023378,"lon":-3.645955,"elevationM":448},{"id":"node:3295713248","kind":"peak","name":"Cefn Du","lat":53.0790134,"lon":-3.4166798,"elevationM":422},{"id":"node:3295713638","kind":"peak","name":"Foel Gasnach","lat":53.0860217,"lon":-3.4422921,"elevationM":405},{"id":"node:3295713883","kind":"peak","name":"Foel Frech","lat":53.0746177,"lon":-3.4744009,"elevationM":453},{"id":"node:3295714051","kind":"peak","name":"Moel Derwydd","lat":53.0968751,"lon":-3.6699017,"elevationM":395},{"id":"node:3295714469","kind":"peak","name":"Penyr Orsedd","lat":53.085793,"lon":-3.6545595,"elevationM":442},{"id":"node:3295714482","kind":"peak","name":"Penbryn-ci","lat":53.0924684,"lon":-3.6856946,"elevationM":448},{"id":"node:3295716577","kind":"peak","name":"Moel y Gaseg-wen","lat":53.1111875,"lon":-3.636063,"elevationM":434},{"id":"node:3295716808","kind":"peak","name":"Llys Dymper","lat":53.1184384,"lon":-3.653315,"elevationM":465},{"id":"node:3295717361","kind":"peak","name":"Foelasfechan","lat":53.121748,"lon":-3.7138685,"elevationM":417},{"id":"node:3295717599","kind":"peak","name":"Moel Maelogan","lat":53.1369403,"lon":-3.7250694,"elevationM":424},{"id":"node:3295717654","kind":"peak","name":"Foel Gasyth","lat":53.1484725,"lon":-3.4629854,"elevationM":378},{"id":"node:3295718135","kind":"peak","name":"Gorsedd Bran","lat":53.1248979,"lon":-3.5419738,"elevationM":513},{"id":"node:3295718988","kind":"peak","name":"Craig Bron-banog","lat":53.0559891,"lon":-3.4656998,"elevationM":502},{"id":"node:3295721965","kind":"peak","name":"Pen Uchaf Gwydyr","lat":53.1213617,"lon":-3.8068017,"elevationM":270},{"id":"node:3295722967","kind":"peak","name":"Cefn Cyfarwydd","lat":53.1611649,"lon":-3.8498798,"elevationM":419},{"id":"node:3300193289","kind":"peak","name":"Allt-fawr","lat":53.008171,"lon":-3.9663225,"elevationM":698},{"id":"node:3300417179","kind":"peak","name":"Hawarden Castle","lat":53.1808329,"lon":-3.0197357,"elevationM":90},{"id":"node:3300439267","kind":"peak","name":"Bersham Tip","lat":53.0258238,"lon":-3.0275657,"elevationM":100},{"id":"node:3300440032","kind":"peak","name":"Minera Mountain","lat":53.0469584,"lon":-3.0956938,"elevationM":400},{"id":"node:3301019610","kind":"peak","name":"Hilbre Island","lat":53.3824369,"lon":-3.2271192,"elevationM":16},{"id":"node:3327074259","kind":"peak","name":"Foel Dduarth","lat":53.2240115,"lon":-3.9761142,"elevationM":450},{"id":"node:3329886367","kind":"peak","name":"Foel Frech","lat":53.0088054,"lon":-3.6800348,"elevationM":491},{"id":"node:3329886790","kind":"peak","name":"Copa Ceiliog","lat":53.0177259,"lon":-3.6724817,"elevationM":487},{"id":"node:3329892807","kind":"peak","name":"Foel Boeth","lat":53.0140184,"lon":-3.7834899,"elevationM":509},{"id":"node:3329893963","kind":"peak","name":"Foel-Ddu","lat":53.0121981,"lon":-3.7604015,"elevationM":445},{"id":"node:3329894293","kind":"peak","name":"Cefn Cerrigellgwm","lat":53.0104294,"lon":-3.7146108,"elevationM":382},{"id":"node:3329903165","kind":"peak","name":"Pen y Bedw","lat":53.0067756,"lon":-3.8217919,"elevationM":527},{"id":"node:3329906170","kind":"peak","name":"Pen y Bedw East Top","lat":53.0074987,"lon":-3.81411,"elevationM":527},{"id":"node:3329906370","kind":"peak","name":"Clogwyn-Brith","lat":53.0733992,"lon":-3.8040464,"elevationM":190},{"id":"node:3329906371","kind":"peak","name":"Mynydd-Bychan","lat":53.0785427,"lon":-3.8089387,"elevationM":260},{"id":"node:3329909531","kind":"peak","name":"Bryniau Duon","lat":53.0017657,"lon":-3.8051836,"elevationM":477},{"id":"node:3329913753","kind":"peak","name":"Drosgol","lat":53.0476342,"lon":-3.8557808,"elevationM":455},{"id":"node:3329916213","kind":"peak","name":"Moel Pen-Y-Bryn","lat":53.0304618,"lon":-3.8218133,"elevationM":428},{"id":"node:3329916705","kind":"peak","name":"Ro-Lwyd","lat":53.0382812,"lon":-3.8473265,"elevationM":533},{"id":"node:3329919161","kind":"peak","name":"Iwerddon","lat":53.056424,"lon":-3.8087127,"elevationM":363},{"id":"node:3329933293","kind":"peak","name":"Dinas Mawr","lat":53.0693898,"lon":-3.7792198,"elevationM":254},{"id":"node:3329933660","kind":"peak","name":"Pen Y Rhiwlas","lat":53.08143,"lon":-3.758127,"elevationM":329},{"id":"node:3329947118","kind":"peak","name":"Mynydd Cribau","lat":53.0848455,"lon":-3.8550727,"elevationM":345},{"id":"node:3329948604","kind":"peak","name":"Moel Trefriw","lat":53.0939564,"lon":-3.7632339,"elevationM":325},{"id":"node:3329948605","kind":"peak","name":"Pen Pentre-Bach","lat":53.0962242,"lon":-3.7774603,"elevationM":240},{"id":"node:3329960504","kind":"peak","name":"Cefn y Capel","lat":53.1057226,"lon":-3.9409579,"elevationM":460},{"id":"node:3329970096","kind":"peak","name":"Clogwyn Dolwyddelan","lat":53.0528194,"lon":-3.9159482,"elevationM":283},{"id":"node:3329984626","kind":"peak","name":"Moel Llechwedd Hafod","lat":53.021944,"lon":-3.8511889,"elevationM":472},{"id":"node:3329996317","kind":"peak","name":"Foel-Fras","lat":53.0156297,"lon":-3.8975254,"elevationM":586},{"id":"node:3329996318","kind":"peak","name":"Moel Bowydd","lat":53.0053625,"lon":-3.919647,"elevationM":490},{"id":"node:3358724726","kind":"peak","name":"Pen-Y-Garw","lat":53.0367666,"lon":-3.7915503,"elevationM":288},{"id":"node:3358724733","kind":"peak","name":"Rhiw Lwyd","lat":53.031644,"lon":-3.7702857,"elevationM":398},{"id":"node:3358724734","kind":"peak","name":"Bryn-Llech","lat":53.027992,"lon":-3.7743198,"elevationM":398},{"id":"node:3368152903","kind":"peak","name":"Ffrith Mountain","lat":53.160913,"lon":-3.2325381,"elevationM":378},{"id":"node:3368166829","kind":"peak","name":"Moel Plas-Yw","lat":53.1925502,"lon":-3.2699388,"elevationM":420},{"id":"node:3368166830","kind":"peak","name":"Moel Arthur","lat":53.1844759,"lon":-3.2807535,"elevationM":452},{"id":"node:3368182934","kind":"peak","name":"Bryn Golau","lat":53.2150164,"lon":-3.2858818,"elevationM":302},{"id":"node:3368182935","kind":"peak","name":"Bryn yr Eithin","lat":53.2268681,"lon":-3.2969325,"elevationM":230},{"id":"node:3368219253","kind":"peak","name":"Moel y Gaer","lat":53.0080184,"lon":-3.2428169,"elevationM":504},{"id":"node:3368228461","kind":"peak","name":"Moel Truan","lat":53.0112848,"lon":-3.3231759,"elevationM":342},{"id":"node:3368258464","kind":"peak","name":"Mwdwl-Eithin","lat":53.0104972,"lon":-3.5073471,"elevationM":470},{"id":"node:3371192232","kind":"peak","name":"Pen Llyn Cyfynwy","lat":53.0803518,"lon":-3.173659,"elevationM":396},{"id":"node:3371194941","kind":"peak","name":"Fron Hafod","lat":53.0523338,"lon":-3.175719,"elevationM":417},{"id":"node:3371196758","kind":"peak","name":"Moel y Waun","lat":53.0720244,"lon":-3.2426455,"elevationM":412},{"id":"node:3371196869","kind":"peak","name":"Moel yr Accre","lat":53.0655521,"lon":-3.2400276,"elevationM":410},{"id":"node:3371198521","kind":"peak","name":"Moel y Gelli","lat":53.0813572,"lon":-3.2453491,"elevationM":361},{"id":"node:3371198568","kind":"peak","name":"Moel Eithinen","lat":53.1234971,"lon":-3.245907,"elevationM":434},{"id":"node:3371201730","kind":"peak","name":"Gyrn","lat":53.1181272,"lon":-3.2472803,"elevationM":384},{"id":"node:3371216915","kind":"peak","name":"Moel Y Gaer","lat":53.1459158,"lon":-3.2747354,"elevationM":330},{"id":"node:3371218174","kind":"peak","name":"Moel Dywyll","lat":53.1596769,"lon":-3.2712418,"elevationM":475},{"id":"node:3371218930","kind":"peak","name":"Moel Evan","lat":53.1979814,"lon":-3.264543,"elevationM":358},{"id":"node:3381807855","kind":"peak","name":"Braich Llwyd","lat":53.0664201,"lon":-3.9906359,"elevationM":463},{"id":"node:3390340682","kind":"peak","name":"Mwdwl-Eithin","lat":53.0724255,"lon":-3.6179855,"elevationM":527},{"id":"node:3390355694","kind":"peak","name":"Ffridd Brynhelen","lat":53.0544762,"lon":-3.5421541,"elevationM":388},{"id":"node:3390371737","kind":"peak","name":"Bryn Prys","lat":53.0369582,"lon":-3.6804702,"elevationM":324},{"id":"node:3390373849","kind":"peak","name":"Cefnen Wen","lat":53.0729142,"lon":-3.6672638,"elevationM":402},{"id":"node:3437247439","kind":"peak","name":"Garreg Fawr","lat":53.2526318,"lon":-3.3777797,"elevationM":175},{"id":"node:3437265041","kind":"peak","name":"Pengwern","lat":53.1983717,"lon":-3.5382472,"elevationM":352},{"id":"node:3437265765","kind":"peak","name":"Fron Fawr","lat":53.2254083,"lon":-3.5625158,"elevationM":230},{"id":"node:3437272962","kind":"peak","name":"Mynydd Bodrochwyn","lat":53.2384362,"lon":-3.5905368,"elevationM":281},{"id":"node:3437284718","kind":"peak","name":"Mynydd Dir","lat":53.2271938,"lon":-3.6243997,"elevationM":314},{"id":"node:3437287473","kind":"peak","name":"Moelfre Uchaf","lat":53.2301482,"lon":-3.6522089,"elevationM":396},{"id":"node:3437288735","kind":"peak","name":"Mynydd Esgair-Ebrill","lat":53.2052481,"lon":-3.7502919,"elevationM":372},{"id":"node:3437289248","kind":"peak","name":"Mynydd Glyn-Lws","lat":53.2371608,"lon":-3.6652766,"elevationM":298},{"id":"node:3437289282","kind":"peak","name":"Mynydd Branar","lat":53.2315868,"lon":-3.691176,"elevationM":326},{"id":"node:3437289826","kind":"peak","name":"Cloliau","lat":53.2232629,"lon":-3.7241565,"elevationM":340},{"id":"node:3437295203","kind":"peak","name":"Moel Gyffylog","lat":53.2239823,"lon":-3.7640892,"elevationM":340},{"id":"node:3437296856","kind":"peak","name":"Bryniau Gleision","lat":53.1986416,"lon":-3.7326752,"elevationM":333},{"id":"node:3437297134","kind":"peak","name":"Foel Caledeiriau","lat":53.1857214,"lon":-3.7388764,"elevationM":318},{"id":"node:3437299193","kind":"peak","name":"Moel Pentre Wern","lat":53.1907099,"lon":-3.6737309,"elevationM":250},{"id":"node:3437310690","kind":"peak","name":"Moel Unben","lat":53.1962379,"lon":-3.6333261,"elevationM":358},{"id":"node:3437324528","kind":"peak","name":"Ffrith Bedwyn","lat":53.1901957,"lon":-3.6298714,"elevationM":306},{"id":"node:3437328052","kind":"peak","name":"Tre-pys-llygod","lat":53.2043538,"lon":-3.6567724,"elevationM":320},{"id":"node:3437328241","kind":"peak","name":"Tre-pys-llygod West Top","lat":53.2031129,"lon":-3.6679494,"elevationM":308},{"id":"node:3437328563","kind":"peak","name":"Pen Y Mwdwl","lat":53.1883443,"lon":-3.6142717,"elevationM":359},{"id":"node:3437328959","kind":"peak","name":"Moel Dowel","lat":53.1876114,"lon":-3.606032,"elevationM":339},{"id":"node:3437329780","kind":"peak","name":"Y Foel","lat":53.2099003,"lon":-3.5825144,"elevationM":310},{"id":"node:3437330078","kind":"peak","name":"Moel Iago","lat":53.2141023,"lon":-3.5891233,"elevationM":260},{"id":"node:3437336179","kind":"peak","name":"Bryn Meiriadog","lat":53.2381368,"lon":-3.482586,"elevationM":164},{"id":"node:3437349472","kind":"peak","name":"Hersedd","lat":53.2098104,"lon":-3.2120262,"elevationM":256},{"id":"node:3437350186","kind":"peak","name":"Pen y Ball","lat":53.2721091,"lon":-3.2395249,"elevationM":255},{"id":"node:3437354344","kind":"peak","name":"Pen y Gefn","lat":53.2770182,"lon":-3.2964621,"elevationM":233},{"id":"node:3437357555","kind":"peak","name":"Moel Y Gaer","lat":53.2125989,"lon":-3.1829511,"elevationM":303},{"id":"node:3437383694","kind":"peak","name":"Poll Hill","lat":53.3333664,"lon":-3.1010437,"elevationM":106},{"id":"node:3437749590","kind":"peak","name":"Bonc Yr Hafod","lat":53.0149358,"lon":-3.0269916,"elevationM":150},{"id":"node:3439308272","kind":"peak","name":"Moel Rhiwlug","lat":53.0833494,"lon":-3.6654552,"elevationM":433},{"id":"node:3439312826","kind":"peak","name":"Pen Bwlch Y Garnedd","lat":53.0794955,"lon":-3.6343845,"elevationM":460},{"id":"node:3439316043","kind":"peak","name":"Cerrig Caws","lat":53.0988258,"lon":-3.567179,"elevationM":459},{"id":"node:3439316258","kind":"peak","name":"Bryn y Gors-goch","lat":53.0902443,"lon":-3.5584029,"elevationM":423},{"id":"node:3439317898","kind":"peak","name":"Bryn Hafod-y-llan","lat":53.06476,"lon":-3.5744532,"elevationM":390},{"id":"node:3439322699","kind":"peak","name":"Moel Bengam","lat":53.1260282,"lon":-3.59737,"elevationM":449},{"id":"node:3439324132","kind":"peak","name":"Cerrigoerion","lat":53.0898963,"lon":-3.4100016,"elevationM":330},{"id":"node:3439324670","kind":"peak","name":"Boncyn Melyn","lat":53.0994572,"lon":-3.5067328,"elevationM":480},{"id":"node:3439329123","kind":"peak","name":"Boncyn Nadroedd","lat":53.0746358,"lon":-3.4534748,"elevationM":380},{"id":"node:3439329124","kind":"peak","name":"Bryn Du","lat":53.0768015,"lon":-3.4439476,"elevationM":370},{"id":"node:3439335192","kind":"peak","name":"Bryniau'r-plas","lat":53.0369899,"lon":-3.2373317,"elevationM":392},{"id":"node:3439351200","kind":"peak","name":"Newtown Mountain","lat":53.0055417,"lon":-3.1002614,"elevationM":315},{"id":"node:3439353526","kind":"peak","name":"Hope Mountain","lat":53.1045459,"lon":-3.0548557,"elevationM":327},{"id":"node:3439360487","kind":"peak","name":"Pen Rhiw","lat":53.0980375,"lon":-3.0624382,"elevationM":100},{"id":"node:3439363283","kind":"peak","name":"Cae Rheinallt","lat":53.0935559,"lon":-3.106279,"elevationM":324},{"id":"node:3470411020","kind":"peak","name":"Cefn y Gader","lat":53.0372664,"lon":-3.1348522,"elevationM":455},{"id":"node:3470454699","kind":"peak","name":"Foel Eglwyseg","lat":53.012861,"lon":-3.181587,"elevationM":433},{"id":"node:3487041526","kind":"peak","name":"Moel Lledr","lat":53.0224945,"lon":-3.9665305,"elevationM":405},{"id":"node:3487042192","kind":"peak","name":"Moel Fleiddiau","lat":53.0222775,"lon":-3.9784713,"elevationM":460},{"id":"node:3493512007","kind":"peak","name":"Mynydd Bettws","lat":53.0006887,"lon":-3.4236756,"elevationM":318},{"id":"node:3498179269","kind":"peak","name":"Fron-Gynnen","lat":53.229824,"lon":-3.7462617,"elevationM":316},{"id":"node:3498179430","kind":"peak","name":"Bryn Euryn","lat":53.3026301,"lon":-3.753965,"elevationM":131},{"id":"node:3498183661","kind":"peak","name":"Bryn Maelgwyn","lat":53.3080922,"lon":-3.808446,"elevationM":100},{"id":"node:3498187971","kind":"peak","name":"Castell Deganwy","lat":53.2977924,"lon":-3.8296377,"elevationM":107},{"id":"node:3498192240","kind":"peak","name":"Ffrith y Mynydd","lat":53.2638683,"lon":-3.7582565,"elevationM":250},{"id":"node:3498192275","kind":"peak","name":"Bryniau","lat":53.2554416,"lon":-3.8043261,"elevationM":90},{"id":"node:3498192498","kind":"peak","name":"Cefn Du","lat":53.2411644,"lon":-3.7457896,"elevationM":345},{"id":"node:3498196293","kind":"peak","name":"Prenol","lat":53.2422174,"lon":-3.7897349,"elevationM":180},{"id":"node:3498196634","kind":"peak","name":"Mynydd Cauedig","lat":53.2105141,"lon":-3.807416,"elevationM":220},{"id":"node:3498197009","kind":"peak","name":"Mynydd Goleugell","lat":53.2091519,"lon":-3.7578917,"elevationM":350},{"id":"node:3498197905","kind":"peak","name":"Mynydd Ty-Mawr","lat":53.1986129,"lon":-3.7544585,"elevationM":389},{"id":"node:3498198016","kind":"peak","name":"Cefn Pentre-Felin","lat":53.1986,"lon":-3.7903035,"elevationM":170},{"id":"node:3498198094","kind":"peak","name":"Bryn Eglwysbach","lat":53.2251483,"lon":-3.7776757,"elevationM":253},{"id":"node:3498198526","kind":"peak","name":"Bryn-Saith-Eglwys","lat":53.1532912,"lon":-3.7835765,"elevationM":180},{"id":"node:3498198616","kind":"peak","name":"Cefn Efran","lat":53.131784,"lon":-3.7510253,"elevationM":342},{"id":"node:3498198677","kind":"peak","name":"Grinllwm","lat":53.1448234,"lon":-3.8314915,"elevationM":287},{"id":"node:3498198714","kind":"peak","name":"Pen-Bryn-Ddoged","lat":53.1578847,"lon":-3.7695647,"elevationM":213},{"id":"node:3498201493","kind":"peak","name":"Mynydd Deulyn","lat":53.1339854,"lon":-3.8559104,"elevationM":400},{"id":"node:3499550677","kind":"peak","name":"Moel Findeg","lat":53.1419277,"lon":-3.1827274,"elevationM":364},{"id":"node:3499553682","kind":"peak","name":"Nercwys Mountain","lat":53.122179,"lon":-3.1752602,"elevationM":378},{"id":"node:3499568979","kind":"peak","name":"Craig Yr Wolf","lat":53.1130225,"lon":-3.1808821,"elevationM":380},{"id":"node:3499801178","kind":"peak","name":"Gwersyllt Hill","lat":53.0731155,"lon":-3.0312577,"elevationM":150},{"id":"node:3503081072","kind":"peak","name":"Pen y Craig Gron","lat":53.1448284,"lon":-3.8790287,"elevationM":500},{"id":"node:3503085849","kind":"peak","name":"Llwytmor Bach (Llwydmor Bach)","lat":53.210106,"lon":-3.9778091,"elevationM":690},{"id":"node:3503086379","kind":"peak","name":"Pen Bryn-du","lat":53.2219898,"lon":-3.952858,"elevationM":557},{"id":"node:3503087793","kind":"peak","name":"Yr Orsedd","lat":53.2248154,"lon":-3.9584485,"elevationM":559},{"id":"node:3503090998","kind":"peak","name":"Ysgolion Duon","lat":53.1495064,"lon":-3.9834,"elevationM":960},{"id":"node:3503091393","kind":"peak","name":"Craig Llugwy","lat":53.147811,"lon":-3.9765043,"elevationM":910},{"id":"node:3511059933","kind":"peak","name":"Castell Cawr","lat":53.2766342,"lon":-3.5969966,"elevationM":189},{"id":"node:3511076757","kind":"peak","name":"Garreg Fawr","lat":53.2384149,"lon":-3.9642485,"elevationM":364},{"id":"node:3523844967","kind":"peak","name":"Raven Meols Hill","lat":53.5483894,"lon":-3.0911186,"elevationM":null},{"id":"node:3523851478","kind":"peak","name":"Lark Hill","lat":53.5579883,"lon":-3.0918911,"elevationM":null},{"id":"node:3523859871","kind":"peak","name":"Ince Blundell Hill","lat":53.5171557,"lon":-3.0103949,"elevationM":null},{"id":"node:3564470210","kind":"peak","name":"Craig Arthur","lat":53.0153411,"lon":-3.1585875,"elevationM":433},{"id":"node:3564474158","kind":"peak","name":"Craig yr Adar","lat":53.0207496,"lon":-3.1500688,"elevationM":420},{"id":"node:3583299564","kind":"peak","name":"Mynydd Du","lat":53.1056169,"lon":-3.1744269,"elevationM":379},{"id":"node:3588572152","kind":"peak","name":"Glol","lat":53.2932375,"lon":-3.3207348,"elevationM":229},{"id":"node:3596477694","kind":"peak","name":"Mynydd Marian","lat":53.2810419,"lon":-3.6642019,"elevationM":200},{"id":"node:3596484693","kind":"peak","name":"Bryn Pydew","lat":53.2943695,"lon":-3.7855665,"elevationM":120},{"id":"node:3605191185","kind":"peak","name":"Grange Hill","lat":53.3751055,"lon":-3.1751693,"elevationM":null},{"id":"node:3686728136","kind":"peak","name":"Caldy Hill","lat":53.3607967,"lon":-3.1666927,"elevationM":77},{"id":"node:3686734088","kind":"peak","name":"Prenton Hill","lat":53.3670492,"lon":-3.0389468,"elevationM":81},{"id":"node:3686746282","kind":"peak","name":"Gwern-Y-Mynydd","lat":53.1582759,"lon":-3.1814374,"elevationM":285},{"id":"node:3686746692","kind":"peak","name":"Bryngwyn","lat":53.1469908,"lon":-3.1775214,"elevationM":336},{"id":"node:3686761222","kind":"peak","name":"Pen Pontblyddyn","lat":53.1386312,"lon":-3.0763109,"elevationM":130},{"id":"node:3686764571","kind":"peak","name":"Pen Llanerch","lat":53.1145441,"lon":-3.2029058,"elevationM":370},{"id":"node:3686765794","kind":"peak","name":"Burley Hill","lat":53.1341772,"lon":-3.1960662,"elevationM":352},{"id":"node:3686765932","kind":"peak","name":"Bryn Alyn","lat":53.1230698,"lon":-3.19685,"elevationM":408},{"id":"node:3686769691","kind":"peak","name":"Pen Celyn","lat":53.1380133,"lon":-3.1109918,"elevationM":194},{"id":"node:3686866485","kind":"peak","name":"Mynydd Llanelidan","lat":53.0242742,"lon":-3.3634561,"elevationM":330},{"id":"node:3686890113","kind":"peak","name":"Moel Ty-Newydd","lat":53.0322028,"lon":-3.3721319,"elevationM":315},{"id":"node:3686892025","kind":"peak","name":"Cefn Mawr","lat":53.0427214,"lon":-3.4037498,"elevationM":354},{"id":"node:3686893026","kind":"peak","name":"Pen Melin-Y-Wig","lat":53.0288831,"lon":-3.4285442,"elevationM":291},{"id":"node:3686894304","kind":"peak","name":"Moel Clegyr","lat":53.0217235,"lon":-3.4252129,"elevationM":342},{"id":"node:3686906180","kind":"peak","name":"Pen Hafoty-Foel","lat":53.0187484,"lon":-3.4471104,"elevationM":346},{"id":"node:3686939177","kind":"peak","name":"Moel Tywysog","lat":53.178768,"lon":-3.5205077,"elevationM":400},{"id":"node:3686939698","kind":"peak","name":"Moel Grugoer","lat":53.1485427,"lon":-3.5548506,"elevationM":385},{"id":"node:3686943448","kind":"peak","name":"Foel Greon","lat":53.1591648,"lon":-3.5309065,"elevationM":398},{"id":"node:3686945193","kind":"peak","name":"Moel Fechan","lat":53.1567813,"lon":-3.5069758,"elevationM":372},{"id":"node:3686951204","kind":"peak","name":"Mynydd Tryfan","lat":53.1768631,"lon":-3.534144,"elevationM":402},{"id":"node:3686955598","kind":"peak","name":"Pen Gwern-Llifion","lat":53.1617077,"lon":-3.5868527,"elevationM":253},{"id":"node:3686957748","kind":"peak","name":"Moel Wilym","lat":53.1629878,"lon":-3.6273112,"elevationM":318},{"id":"node:3686960427","kind":"peak","name":"Ffrith Uchaf","lat":53.1303555,"lon":-3.6986942,"elevationM":404},{"id":"node:3687003668","kind":"peak","name":"Moel Goch","lat":53.1337542,"lon":-3.6412735,"elevationM":440},{"id":"node:3687003669","kind":"peak","name":"Foel Lwyd","lat":53.137925,"lon":-3.627605,"elevationM":420},{"id":"node:3687006684","kind":"peak","name":"Moel Gydia","lat":53.1239564,"lon":-3.6921228,"elevationM":380},{"id":"node:3687006703","kind":"peak","name":"Pen Bryn Y Clochydd","lat":53.1207532,"lon":-3.6761369,"elevationM":411},{"id":"node:3687006770","kind":"peak","name":"Moel Y Bryniau","lat":53.1175305,"lon":-3.6203845,"elevationM":410},{"id":"node:3687007227","kind":"peak","name":"Bryn Euryn","lat":53.1299435,"lon":-3.6638255,"elevationM":439},{"id":"node:3687008251","kind":"peak","name":"Cefn Tan-y-Graig","lat":53.1081476,"lon":-3.5703774,"elevationM":470},{"id":"node:3687009057","kind":"peak","name":"Trwyn Swch","lat":53.1224434,"lon":-3.6195691,"elevationM":400},{"id":"node:3690588569","kind":"peak","name":"Warbreck","lat":53.8394761,"lon":-3.0414751,"elevationM":34},{"id":"node:3729392558","kind":"peak","name":"Little Orme","lat":53.3250243,"lon":-3.7836555,"elevationM":141},{"id":"node:3908915353","kind":"peak","name":"Graig Tremeirchion","lat":53.2378897,"lon":-3.3700003,"elevationM":180},{"id":"node:4087247894","kind":"peak","name":"Bryn Yr Orsedd","lat":53.0275988,"lon":-3.2806268,"elevationM":403},{"id":"node:4109462246","kind":"peak","name":"Coed Bryndansi","lat":53.2516599,"lon":-3.7167081,"elevationM":305},{"id":"node:4257759522","kind":"peak","name":"Maen Esgob","lat":53.2653116,"lon":-3.8776235,"elevationM":299},{"id":"node:4267290017","kind":"peak","name":"Craig Ffynnon","lat":53.1579277,"lon":-3.9052639,"elevationM":590},{"id":"node:4640227630","kind":"peak","name":"Graig-bach","lat":53.3080086,"lon":-3.4120706,"elevationM":110},{"id":"node:4663398451","kind":"peak","name":"Moel-Y-Gaer","lat":53.2367963,"lon":-3.3553138,"elevationM":258},{"id":"node:5022911394","kind":"peak","name":"Graig Fawr","lat":53.3120332,"lon":-3.4131986,"elevationM":153},{"id":"node:5110050057","kind":"peak","name":"Mynydd Penygarreg","lat":53.3194106,"lon":-3.7778836,"elevationM":80},{"id":"node:5713364080","kind":"peak","name":"Garw-fynydd","lat":53.0476653,"lon":-3.4212115,"elevationM":360},{"id":"node:6434174432","kind":"peak","name":"Moel Ytta","lat":53.127067,"lon":-3.4529762,"elevationM":404},{"id":"node:6434238600","kind":"peak","name":"Craig Adwy-Wynt","lat":53.0737713,"lon":-3.3128759,"elevationM":200},{"id":"node:6438948810","kind":"peak","name":"Bryn-Eithin","lat":53.1941351,"lon":-3.1646434,"elevationM":206},{"id":"node:6439693947","kind":"peak","name":"Coed Talon Bank","lat":53.1175039,"lon":-3.0951037,"elevationM":196},{"id":"node:6441451249","kind":"peak","name":"Pen Nant y Garth","lat":53.0476935,"lon":-3.2431794,"elevationM":317},{"id":"node:6441457203","kind":"peak","name":"Graig Lom","lat":53.0934508,"lon":-3.3211445,"elevationM":203},{"id":"node:6441460335","kind":"peak","name":"Fron-wyllt-uchaf","lat":53.0899289,"lon":-3.3647429,"elevationM":276},{"id":"node:6443671334","kind":"peak","name":"Gorse Hill","lat":53.434685,"lon":-3.0492428,"elevationM":57},{"id":"node:6443677622","kind":"peak","name":"Crest Mawr","lat":53.19529,"lon":-3.4320211,"elevationM":182},{"id":"node:6443694991","kind":"peak","name":"Bryn Ocyn","lat":53.1118557,"lon":-3.4582221,"elevationM":441},{"id":"node:6443698034","kind":"peak","name":"Foel Ganol","lat":53.1197288,"lon":-3.4157073,"elevationM":366},{"id":"node:6443698035","kind":"peak","name":"Foel Uchaf","lat":53.1198833,"lon":-3.4255778,"elevationM":372},{"id":"node:6443712198","kind":"peak","name":"Pen-Y-Garth","lat":53.1231129,"lon":-3.3790279,"elevationM":283},{"id":"node:6443722391","kind":"peak","name":"Pen-y-cae","lat":53.1458423,"lon":-3.4078304,"elevationM":210},{"id":"node:6443737497","kind":"peak","name":"Bailey Hill","lat":53.1709432,"lon":-3.1453005,"elevationM":143},{"id":"node:6443740102","kind":"peak","name":"Prenbrigog","lat":53.1686515,"lon":-3.0990785,"elevationM":172},{"id":"node:6443744649","kind":"peak","name":"Cefn Mawr","lat":53.1587264,"lon":-3.1968731,"elevationM":275},{"id":"node:6743958289","kind":"peak","name":"Dinas","lat":53.2455578,"lon":-3.9500424,"elevationM":320},{"id":"node:7687552008","kind":"peak","name":"Moel Ddefaid","lat":53.1282883,"lon":-3.8995096,"elevationM":570},{"id":"node:7978917075","kind":"peak","name":"Cerrig-y-ddinas","lat":53.2478914,"lon":-3.8686389,"elevationM":312},{"id":"node:7978917076","kind":"peak","name":"Pen-y-gaer","lat":53.2061782,"lon":-3.8732123,"elevationM":386},{"id":"node:8199429085","kind":"peak","name":"Ysgafell Wen","lat":53.013763,"lon":-3.9884935,"elevationM":672},{"id":"node:8199715822","kind":"peak","name":"Ysgafell Wen North Top","lat":53.0174106,"lon":-3.9937799,"elevationM":669},{"id":"node:8199715823","kind":"peak","name":"Ysgafell Wen Far North Top","lat":53.019538,"lon":-3.9934005,"elevationM":659},{"id":"node:8358875464","kind":"peak","name":"Moel-y-gaer","lat":53.2271809,"lon":-3.3570333,"elevationM":200},{"id":"node:8726137200","kind":"peak","name":"Cefn Treflech","lat":53.208705,"lon":-3.583486,"elevationM":314},{"id":"node:8732194625","kind":"peak","name":"Glan-y-gors","lat":53.235055,"lon":-3.5998893,"elevationM":250},{"id":"node:8733229970","kind":"peak","name":"Cefn Du","lat":53.114859,"lon":-3.605559,"elevationM":430},{"id":"node:8733229971","kind":"peak","name":"Cesyg Aled","lat":53.11293,"lon":-3.616411,"elevationM":390},{"id":"node:8733229972","kind":"peak","name":"Cefn Mawr","lat":53.100355,"lon":-3.63135,"elevationM":424},{"id":"node:8733229973","kind":"peak","name":"Ty'n-lynn","lat":53.097147,"lon":-3.653319,"elevationM":404},{"id":"node:8733229974","kind":"peak","name":"Cefnen","lat":53.110164,"lon":-3.680968,"elevationM":375},{"id":"node:8733229975","kind":"peak","name":"Cefn-rhydd","lat":53.111658,"lon":-3.721275,"elevationM":411},{"id":"node:8733229976","kind":"peak","name":"Gors-las","lat":53.098406,"lon":-3.719527,"elevationM":400},{"id":"node:8733229977","kind":"peak","name":"Graig-hir","lat":53.100468,"lon":-3.693674,"elevationM":437},{"id":"node:8735934338","kind":"peak","name":"Pen-Or","lat":53.202917,"lon":-3.808958,"elevationM":234},{"id":"node:8736356302","kind":"peak","name":"Ty'n -y-ffrith","lat":53.2668428,"lon":-3.7622595,"elevationM":250},{"id":"node:8746816844","kind":"peak","name":"Tal y Fan","lat":53.2356651,"lon":-3.9052454,"elevationM":610},{"id":"node:8749017967","kind":"peak","name":"Bryniau","lat":53.091207,"lon":-3.506559,"elevationM":431},{"id":"node:8749017968","kind":"peak","name":"Marial Gwyn","lat":53.08385,"lon":-3.498877,"elevationM":516},{"id":"node:8749017969","kind":"peak","name":"Banciau Ty-uchaf","lat":53.081192,"lon":-3.504168,"elevationM":505},{"id":"node:9139815258","kind":"peak","name":"Y Foel Grach","lat":53.174081,"lon":-3.963231,"elevationM":976},{"id":"node:9454376981","kind":"peak","name":"Pen y Drum","lat":53.1312454,"lon":-3.8386939,"elevationM":319},{"id":"node:10929886147","kind":"peak","name":"Iwerddon","lat":53.0151091,"lon":-3.957006,"elevationM":583},{"id":"node:11005447056","kind":"peak","name":"Bryn Llwyn","lat":53.3219014,"lon":-3.395951,"elevationM":null},{"id":"node:11062959544","kind":"peak","name":"Foel Lwyd","lat":53.2055969,"lon":-3.92777,"elevationM":715},{"id":"node:11245879129","kind":"peak","name":"Clip yr Orsedd","lat":53.2540559,"lon":-3.9322647,"elevationM":429},{"id":"node:11245879130","kind":"peak","name":"Graiglwyd","lat":53.2547524,"lon":-3.9270402,"elevationM":425},{"id":"node:11251863799","kind":"peak","name":"Craig Celynin","lat":53.2425987,"lon":-3.879455,"elevationM":407},{"id":"node:11251863805","kind":"peak","name":"Maen Amor","lat":53.2512261,"lon":-3.8878393,"elevationM":392},{"id":"node:11862190991","kind":"peak","name":"Clogwyn Mawr","lat":53.0484666,"lon":-3.9418807,"elevationM":269},{"id":"node:11862210698","kind":"peak","name":"Pen-y-gwaith","lat":53.1258705,"lon":-3.8291626,"elevationM":310},{"id":"node:11862265776","kind":"peak","name":"Pen Ucha'r-gwaith","lat":53.1285064,"lon":-3.8302079,"elevationM":305},{"id":"node:11862274304","kind":"peak","name":"Clogwyn Mawr y Ffridd","lat":53.0511463,"lon":-3.926481,"elevationM":275},{"id":"node:11862281101","kind":"peak","name":"Mynydd Bwlchyrhaearn","lat":53.1220373,"lon":-3.8350904,"elevationM":332},{"id":"node:12186674555","kind":"peak","name":"Bryn-mawr","lat":53.2726029,"lon":-3.8521831,"elevationM":142},{"id":"node:12186674556","kind":"peak","name":"Bodlondeb Wood","lat":53.2857721,"lon":-3.8325681,"elevationM":49},{"id":"node:12186674557","kind":"peak","name":"Bryniau","lat":53.3090522,"lon":-3.820335,"elevationM":88},{"id":"node:12186674558","kind":"peak","name":"Coed Gaer","lat":53.3108699,"lon":-3.8037413,"elevationM":127},{"id":"node:12186674559","kind":"peak","name":"Cogwrn","lat":53.2734785,"lon":-3.8659899,"elevationM":203},{"id":"node:12186676723","kind":"peak","name":"Waen Bryn-gwenith","lat":53.1889819,"lon":-3.8756427,"elevationM":409},{"id":"node:12186676724","kind":"peak","name":"Cefn Cyfarwydd","lat":53.1504342,"lon":-3.8675612,"elevationM":499},{"id":"node:12186676725","kind":"peak","name":"Bryn Tanycastell","lat":53.1058566,"lon":-3.8222768,"elevationM":250},{"id":"node:12186676726","kind":"peak","name":"Pen Llyn Bychan","lat":53.1159322,"lon":-3.861946,"elevationM":304},{"id":"node:12186676727","kind":"peak","name":"Clogwyn Mannod","lat":53.112859,"lon":-3.8756239,"elevationM":409},{"id":"node:12186676728","kind":"peak","name":"Clogwyn Pryfed","lat":53.117753,"lon":-3.8742292,"elevationM":395},{"id":"node:12186676729","kind":"peak","name":"Clogwyn Mannod NW Top","lat":53.1164651,"lon":-3.8810742,"elevationM":397},{"id":"node:12552222159","kind":"peak","name":"Moel Meirch South Top","lat":53.0305343,"lon":-3.9947573,"elevationM":575},{"id":"node:12844895375","kind":"peak","name":"Craigyfedwen","lat":53.2684779,"lon":-3.8685186,"elevationM":252},{"id":"node:12896430301","kind":"peak","name":"Cefnycerrig","lat":53.07547,"lon":-3.98275,"elevationM":415},{"id":"node:13648374066","kind":"peak","name":"Clogwyn Llech Lefn","lat":53.1459688,"lon":-3.9318964,"elevationM":637}]}