{"tileKey":"la_p50_lo_p88","version":"v1-1775891056926","entries":[{"id":"node:1536247130","kind":"peak","name":"Тыдтуярык","lat":50.145953,"lon":88.436623,"elevationM":3367},{"id":"node:1536247409","kind":"peak","name":"Куюктанар","lat":50.2194054,"lon":88.3331681,"elevationM":3261},{"id":"node:1536247482","kind":"peak","name":"Тыдтугем","lat":50.2386028,"lon":88.2156983,"elevationM":null},{"id":"node:3719149380","kind":"peak","name":"Кабак-Тайга","lat":50.6267732,"lon":88.1493146,"elevationM":2497},{"id":"node:3719149381","kind":"peak","name":"Онулубажи","lat":50.6428099,"lon":88.4756623,"elevationM":2617},{"id":"node:4678322264","kind":"peak","name":"Агашоюк","lat":50.2925207,"lon":88.1488918,"elevationM":2860},{"id":"node:4725452246","kind":"peak","name":"Верхний Мештуярык","lat":50.1703923,"lon":88.3793314,"elevationM":3010},{"id":"node:4725453010","kind":"peak","name":"Верхний Ильдугем","lat":50.2689967,"lon":88.3875741,"elevationM":null},{"id":"node:4725453158","kind":"peak","name":"Башкаус","lat":50.3066431,"lon":88.3636555,"elevationM":2809},{"id":"node:4725453191","kind":"peak","name":"Балыкчату","lat":50.3235892,"lon":88.2880816,"elevationM":null},{"id":"node:4738061770","kind":"peak","name":"Верхний Ясатер","lat":50.3146356,"lon":88.1913708,"elevationM":2600},{"id":"node:4738074346","kind":"peak","name":"Табожок","lat":50.0819145,"lon":88.844732,"elevationM":3201},{"id":"node:4738074381","kind":"peak","name":"Коктау","lat":50.0739759,"lon":88.7525713,"elevationM":2732},{"id":"node:4738076207","kind":"peak","name":"Кыскышту-Ойок","lat":50.1504984,"lon":88.6175381,"elevationM":3306},{"id":"node:4738076816","kind":"peak","name":"Салжок","lat":50.1988499,"lon":88.5874528,"elevationM":3250},{"id":"node:4738077149","kind":"peak","name":"Салжок","lat":50.2226215,"lon":88.5984297,"elevationM":null},{"id":"node:5930333231","kind":"peak","name":"Верховье Арыджан","lat":50.1279106,"lon":88.2106876,"elevationM":2927},{"id":"node:5930333262","kind":"peak","name":"Джулдузкуль","lat":50.0606379,"lon":88.0242632,"elevationM":2703},{"id":"node:7918623674","kind":"peak","name":"Сарыкол","lat":50.6471748,"lon":88.8190555,"elevationM":2285},{"id":"node:7918623675","kind":"peak","name":"Туюкозек","lat":50.6422764,"lon":88.8474652,"elevationM":2414},{"id":"node:7918623676","kind":"peak","name":"Карагыр","lat":50.6368331,"lon":88.8927838,"elevationM":2429},{"id":"node:7918624007","kind":"peak","name":"Бошту","lat":50.5999104,"lon":88.902912,"elevationM":2098},{"id":"node:7922065447","kind":"peak","name":"Мукур","lat":50.3550449,"lon":88.5849952,"elevationM":2452},{"id":"node:7922065448","kind":"peak","name":"Чичканыр","lat":50.3626562,"lon":88.6316871,"elevationM":2431},{"id":"node:7922065449","kind":"peak","name":"Монасту","lat":50.4417093,"lon":88.6648177,"elevationM":2039},{"id":"node:7923472060","kind":"peak","name":"Нижний Тарагай","lat":50.6100969,"lon":88.6385534,"elevationM":2542},{"id":"node:7923580099","kind":"peak","name":"Кайынду","lat":50.8132431,"lon":88.5774421,"elevationM":1261},{"id":"node:7924850914","kind":"peak","name":"Каябажи","lat":50.7716692,"lon":88.602333,"elevationM":1649},{"id":"node:7925675602","kind":"peak","name":"Батыр-Кол","lat":50.5120076,"lon":88.2302569,"elevationM":null},{"id":"node:7926408181","kind":"peak","name":"Кудюрлуялбак","lat":50.5435994,"lon":88.2706832,"elevationM":1973},{"id":"node:7926420554","kind":"peak","name":"Такылган","lat":50.5341077,"lon":88.2486677,"elevationM":null},{"id":"node:7926421850","kind":"peak","name":"Кара-Кая","lat":50.3942934,"lon":88.443031,"elevationM":null},{"id":"node:7926425851","kind":"peak","name":"Бокон-Буре","lat":50.5860705,"lon":88.0346489,"elevationM":null},{"id":"node:7927200297","kind":"peak","name":"Белкудюр","lat":50.4825245,"lon":88.3568571,"elevationM":1915},{"id":"node:8495068854","kind":"peak","name":"Караизюк","lat":50.9567778,"lon":88.7420225,"elevationM":2709},{"id":"node:8495068855","kind":"peak","name":"Мерок","lat":50.9644544,"lon":88.7352418,"elevationM":2649},{"id":"node:8498237544","kind":"peak","name":"2449.2","lat":50.8815662,"lon":88.8354063,"elevationM":null},{"id":"node:8533072955","kind":"peak","name":"2183","lat":50.4209056,"lon":88.5258579,"elevationM":null},{"id":"node:8563147362","kind":"peak","name":"1641","lat":50.8015953,"lon":88.2938575,"elevationM":null},{"id":"node:8566765036","kind":"peak","name":"Язулу","lat":50.7277901,"lon":88.9456129,"elevationM":3066},{"id":"node:8573852491","kind":"peak","name":"Керены","lat":50.8934783,"lon":88.0213022,"elevationM":2183},{"id":"node:8573854289","kind":"peak","name":"Карагыр","lat":50.9312249,"lon":88.0260658,"elevationM":1927},{"id":"node:8618832753","kind":"peak","name":"Майрыкбажи","lat":50.518202,"lon":88.9812326,"elevationM":2627},{"id":"node:8624844017","kind":"peak","name":"Алага-тын-бом","lat":50.9180238,"lon":88.2300424,"elevationM":null},{"id":"node:8624844018","kind":"peak","name":"Сеп-Бом","lat":50.8755548,"lon":88.2800603,"elevationM":null},{"id":"node:9317294917","kind":"peak","name":"Тетыкёль","lat":50.7522328,"lon":88.8011169,"elevationM":3069},{"id":"node:9572656853","kind":"peak","name":"Красная Горка","lat":50.0818472,"lon":88.410716,"elevationM":1911},{"id":"node:10123063289","kind":"peak","name":"Сукор","lat":50.1217304,"lon":88.2601489,"elevationM":2920},{"id":"node:10123747843","kind":"peak","name":"Карачут","lat":50.0634204,"lon":88.2147646,"elevationM":2556},{"id":"node:10124941047","kind":"peak","name":"Каракёль","lat":50.0300745,"lon":88.1311225,"elevationM":2656},{"id":"node:10124941435","kind":"peak","name":"Байбире","lat":50.1327113,"lon":88.3078104,"elevationM":2414},{"id":"node:10124943499","kind":"peak","name":"Агайры","lat":50.0654865,"lon":88.1144285,"elevationM":2604},{"id":"node:10128693018","kind":"peak","name":"Балтырган","lat":50.1040105,"lon":88.0314731,"elevationM":2847},{"id":"node:10132719795","kind":"peak","name":"1659","lat":50.1728029,"lon":88.0765128,"elevationM":null},{"id":"node:10133966256","kind":"peak","name":"Плановый","lat":50.1440299,"lon":88.0570292,"elevationM":2542},{"id":"node:10137243902","kind":"peak","name":"Устье Елангаш","lat":50.0135859,"lon":88.4495544,"elevationM":1829},{"id":"node:10765365180","kind":"peak","name":"Пик Колбина","lat":50.9367912,"lon":88.1613061,"elevationM":1462}]}