{"tileKey":"la_p57_lo_p11","version":"v1-1775891056926","entries":[{"id":"node:30153818","kind":"peak","name":"Ramberget","lat":57.714583,"lon":11.936202,"elevationM":85},{"id":"node:321284430","kind":"peak","name":"Västerberget","lat":57.6658585,"lon":11.9777565,"elevationM":118},{"id":"node:1462964379","kind":"peak","name":"Röseberget","lat":57.7479613,"lon":11.6803954,"elevationM":54},{"id":"node:1462965009","kind":"peak","name":"Väggefjäll","lat":57.7500212,"lon":11.6853307,"elevationM":null},{"id":"node:2398077776","kind":"peak","name":"Danska utkiken","lat":57.8941082,"lon":11.6246288,"elevationM":null},{"id":"node:3019861916","kind":"peak","name":"Stuvö vale","lat":57.7411157,"lon":11.6509643,"elevationM":null},{"id":"node:3536177837","kind":"peak","name":"Blåkullen","lat":57.9200502,"lon":11.739709,"elevationM":131},{"id":"node:3695676681","kind":"peak","name":"Knastås","lat":57.3698074,"lon":11.9777288,"elevationM":null},{"id":"node:4349739360","kind":"peak","name":"Havdarna","lat":57.8882536,"lon":11.7155845,"elevationM":null},{"id":"node:4349741678","kind":"peak","name":"Sundviksberget","lat":57.898592,"lon":11.7135299,"elevationM":null},{"id":"node:4428644154","kind":"peak","name":"Telegrafberget","lat":57.7408848,"lon":11.7484303,"elevationM":66},{"id":"node:4484143468","kind":"peak","name":"Hästekullen","lat":57.9204469,"lon":11.7357746,"elevationM":null},{"id":"node:4484143469","kind":"peak","name":"Kopparberget","lat":57.918862,"lon":11.728181,"elevationM":null},{"id":"node:4684336640","kind":"peak","name":"Skutteberget","lat":57.7067217,"lon":11.6811399,"elevationM":null},{"id":"node:4684387396","kind":"peak","name":"von Hotten berg","lat":57.7081835,"lon":11.6847575,"elevationM":null},{"id":"node:5113377736","kind":"peak","name":"Grevens vale","lat":57.7821431,"lon":11.6091263,"elevationM":null},{"id":"node:5113477373","kind":"peak","name":"Stångefjäll","lat":57.7196728,"lon":11.6395962,"elevationM":null},{"id":"node:5348589203","kind":"peak","name":"Åsebyberg","lat":57.9291037,"lon":11.8085646,"elevationM":null},{"id":"node:5350125374","kind":"peak","name":"Kvarnekullen","lat":57.897553,"lon":11.7933512,"elevationM":null},{"id":"node:5728686561","kind":"peak","name":"Lanås","lat":57.7954367,"lon":11.9301814,"elevationM":null},{"id":"node:5728686562","kind":"peak","name":"Brattås","lat":57.7986128,"lon":11.9261205,"elevationM":null},{"id":"node:5728686565","kind":"peak","name":"Skändla rös","lat":57.7815882,"lon":11.928556,"elevationM":80},{"id":"node:5747844837","kind":"peak","name":"Stillesberget","lat":57.3884662,"lon":11.9597447,"elevationM":null},{"id":"node:6018102602","kind":"peak","name":"Brännåsen","lat":57.4563845,"lon":11.9688642,"elevationM":null},{"id":"node:6041554660","kind":"peak","name":"Skallabergen","lat":57.4711046,"lon":11.9610858,"elevationM":null},{"id":"node:6041554661","kind":"peak","name":"Byfjäll","lat":57.4778078,"lon":11.9521809,"elevationM":null},{"id":"node:6041554662","kind":"peak","name":"Trättefjäll","lat":57.4740641,"lon":11.9509792,"elevationM":null},{"id":"node:6041727837","kind":"peak","name":"Stora Kläppa","lat":57.4803399,"lon":11.9587362,"elevationM":null},{"id":"node:7062271857","kind":"peak","name":"Lökekullen","lat":57.8191266,"lon":11.8866813,"elevationM":null},{"id":"node:7062271868","kind":"peak","name":"Fjällberget","lat":57.8167037,"lon":11.9324183,"elevationM":null},{"id":"node:7069388765","kind":"peak","name":"Hästevikberg","lat":57.7206297,"lon":11.7066836,"elevationM":null},{"id":"node:7459055944","kind":"peak","name":"Ändeberget","lat":57.8924839,"lon":11.7784917,"elevationM":null},{"id":"node:9836071714","kind":"peak","name":"Storevale","lat":57.7616605,"lon":11.614126,"elevationM":null},{"id":"node:10257716888","kind":"peak","name":"Vårdkasen på Valeberget","lat":57.5646325,"lon":11.9310552,"elevationM":52},{"id":"node:10289460285","kind":"peak","name":"Åseberget","lat":57.876743,"lon":11.9546932,"elevationM":65},{"id":"node:10291717170","kind":"peak","name":"Fontinberget","lat":57.8703437,"lon":11.9997723,"elevationM":97},{"id":"node:10911059167","kind":"peak","name":"Valberget","lat":57.8574967,"lon":11.9472747,"elevationM":27},{"id":"node:10920191019","kind":"peak","name":"Bragehöjden","lat":57.6824027,"lon":11.9393798,"elevationM":73},{"id":"node:10940687687","kind":"peak","name":"Kopparåsen","lat":57.789004,"lon":11.9564167,"elevationM":108},{"id":"node:11010929226","kind":"peak","name":"Hedbergen","lat":57.9018095,"lon":11.9672543,"elevationM":83},{"id":"node:11010929227","kind":"peak","name":"Stora Grötås","lat":57.8983956,"lon":11.9597723,"elevationM":70},{"id":"node:11010929228","kind":"peak","name":"Kokullen","lat":57.8988968,"lon":11.9570282,"elevationM":null},{"id":"node:11104842877","kind":"peak","name":"Ranneberget","lat":57.8809573,"lon":11.9210458,"elevationM":68},{"id":"node:13308665824","kind":"peak","name":"Skansberget","lat":57.6961372,"lon":11.9556146,"elevationM":55}]}