{"tileKey":"la_p32_lo_p67","version":"v1-1775891056926","entries":[{"id":"node:4407997139","kind":"peak","name":"تور غونډ","lat":32.025899,"lon":67.603706,"elevationM":null},{"id":"node:4408003222","kind":"peak","name":"اوپری غر","lat":32.033611,"lon":67.3915035,"elevationM":null},{"id":"node:4413185148","kind":"peak","name":"بنبنیان غر","lat":32.8043354,"lon":67.6930581,"elevationM":null},{"id":"node:4413185149","kind":"peak","name":"دراد غر","lat":32.90269,"lon":67.543462,"elevationM":null},{"id":"node:4413185152","kind":"peak","name":"پتاو غر","lat":32.8058961,"lon":67.6566561,"elevationM":null},{"id":"node:4413185153","kind":"peak","name":"سپینه پتو","lat":32.8613484,"lon":67.6590142,"elevationM":null},{"id":"node:7743875054","kind":"peak","name":"Mōranay Ghar","lat":32.5071695,"lon":67.5040039,"elevationM":2318},{"id":"node:7743875072","kind":"peak","name":"Gudar Gha","lat":32.5029398,"lon":67.4821221,"elevationM":2255},{"id":"node:7747223131","kind":"peak","name":"كوهٔ لالا شهيد","lat":32.3127221,"lon":67.2702139,"elevationM":2405},{"id":"node:7747223203","kind":"peak","name":"كوهٔ شاد محمد جان","lat":32.3491461,"lon":67.3296224,"elevationM":1958},{"id":"node:7810227346","kind":"peak","name":"بها الحق صاحب غر","lat":32.8846165,"lon":67.7869813,"elevationM":2559},{"id":"node:7810227347","kind":"peak","name":"کوه جلال","lat":32.862385,"lon":67.7739069,"elevationM":null},{"id":"node:7810227348","kind":"peak","name":"Aparān Ghar","lat":32.9133474,"lon":67.7725474,"elevationM":2598},{"id":"node:7814146109","kind":"peak","name":"سه کیچه","lat":32.9855576,"lon":67.8451172,"elevationM":2310},{"id":"node:7814162690","kind":"peak","name":"Lōy Cōlah","lat":32.711168,"lon":67.8237532,"elevationM":2171},{"id":"node:7814162691","kind":"peak","name":"کوه کرغنۀ جنوبی","lat":32.8112755,"lon":67.9026829,"elevationM":null},{"id":"node:7814162766","kind":"peak","name":"کوتل کرغنه","lat":32.8718949,"lon":67.9681133,"elevationM":2124},{"id":"node:11237492945","kind":"peak","name":"ماه کوه","lat":32.9898205,"lon":67.6007041,"elevationM":null}]}