{"tileKey":"la_p70_lo_p28","version":"v1-1775849605232","entries":[{"id":"node:1385240012","kind":"peak","name":"Aldon","lat":70.1823027,"lon":28.6966833,"elevationM":171},{"id":"node:2353330617","kind":"peak","name":"Berget","lat":70.797794,"lon":28.128306,"elevationM":null},{"id":"node:2354581628","kind":"peak","name":"Nurki","lat":70.259844,"lon":28.23585,"elevationM":null},{"id":"node:3466035362","kind":"peak","name":"Tanahorn","lat":70.8762253,"lon":28.8396401,"elevationM":266},{"id":"node:9253039355","kind":"peak","name":"Stáŋganasčohkka - Stangenestind","lat":70.5526302,"lon":28.4952091,"elevationM":724},{"id":"node:9347632246","kind":"peak","name":"Alggašvárri","lat":70.469103,"lon":28.2347889,"elevationM":570},{"id":"node:9347632247","kind":"peak","name":"Eidefjellet","lat":70.4608103,"lon":28.2296927,"elevationM":523},{"id":"node:9376571949","kind":"peak","name":"Storfjellet","lat":70.4815605,"lon":28.4311988,"elevationM":209},{"id":"node:9376572568","kind":"peak","name":"Rødberget","lat":70.4640425,"lon":28.3913748,"elevationM":329},{"id":"node:9382764519","kind":"peak","name":"Dávgečearru","lat":70.6052251,"lon":28.9405415,"elevationM":473},{"id":"node:9586496961","kind":"peak","name":"Márjjavákvárri","lat":70.5375514,"lon":28.4989049,"elevationM":510},{"id":"node:9586496996","kind":"peak","name":"436","lat":70.4885677,"lon":28.5642241,"elevationM":null},{"id":"node:9586496997","kind":"peak","name":"Giemaš","lat":70.4823684,"lon":28.5211996,"elevationM":454}]}