{"tileKey":"la_p33_lo_m85","version":"v1-1775891056926","entries":[{"id":"node:358680972","kind":"peak","name":"Blackjack Mountain","lat":33.9831566,"lon":-84.4932647,"elevationM":418},{"id":"node:358682449","kind":"peak","name":"Cedar Mountain","lat":33.7487187,"lon":-84.805771,"elevationM":379},{"id":"node:358689412","kind":"peak","name":"Kennesaw Mountain","lat":33.9762125,"lon":-84.5796556,"elevationM":543},{"id":"node:358700341","kind":"peak","name":"Ray Mountain","lat":33.9298251,"lon":-84.8138279,"elevationM":380},{"id":"node:358710711","kind":"peak","name":"Pine Mountain","lat":33.712053,"lon":-84.085471,"elevationM":314},{"id":"node:358710828","kind":"peak","name":"Stone Mountain","lat":33.8062166,"lon":-84.1457505,"elevationM":514},{"id":"node:358710924","kind":"peak","name":"Lost Mountain","lat":33.9478803,"lon":-84.6977137,"elevationM":462},{"id":"node:358716360","kind":"peak","name":"Andy Mountain","lat":33.7309411,"lon":-84.8538281,"elevationM":405},{"id":"node:358716368","kind":"peak","name":"Arabia Mountain","lat":33.6651335,"lon":-84.1182137,"elevationM":289},{"id":"node:358716411","kind":"peak","name":"Barrow Hill","lat":33.2401149,"lon":-84.2190887,"elevationM":302},{"id":"node:358716592","kind":"peak","name":"Brushy Mountain","lat":33.9631571,"lon":-84.9713334,"elevationM":371},{"id":"node:358716764","kind":"peak","name":"Cheatham Hill","lat":33.9351026,"lon":-84.5977114,"elevationM":342},{"id":"node:358717011","kind":"peak","name":"Dunbar Mountain","lat":33.245675,"lon":-84.9066032,"elevationM":259},{"id":"node:358717030","kind":"peak","name":"Elijah Mountain","lat":33.6284435,"lon":-84.1132493,"elevationM":276},{"id":"node:358717294","kind":"peak","name":"Hog Mountain","lat":33.0695703,"lon":-84.1440828,"elevationM":311},{"id":"node:358717449","kind":"peak","name":"Lanier Mountain","lat":33.8495502,"lon":-84.0363006,"elevationM":344},{"id":"node:358717496","kind":"peak","name":"Little Kennesaw Mountain","lat":33.9706572,"lon":-84.5868779,"elevationM":488},{"id":"node:358717637","kind":"peak","name":"Mulberry Rock","lat":33.8173276,"lon":-84.9254977,"elevationM":381},{"id":"node:358717751","kind":"peak","name":"Panola Mountain","lat":33.6353873,"lon":-84.170196,"elevationM":286},{"id":"node:358717754","kind":"peak","name":"Pigeon Hill","lat":33.9653796,"lon":-84.5902114,"elevationM":378},{"id":"node:358717773","kind":"peak","name":"Pine Mountain","lat":33.0506809,"lon":-84.2424192,"elevationM":290},{"id":"node:358717777","kind":"peak","name":"Pine Mountain","lat":33.752885,"lon":-84.8860515,"elevationM":350},{"id":"node:358759905","kind":"peak","name":"William Mountain","lat":33.7001082,"lon":-84.943553,"elevationM":418},{"id":"node:358768729","kind":"peak","name":"Buzzard Mountain","lat":33.020683,"lon":-84.405755,"elevationM":335},{"id":"node:358770155","kind":"peak","name":"Elsberry Mountain","lat":33.9378806,"lon":-84.8049388,"elevationM":392},{"id":"node:358771689","kind":"peak","name":"Pine Mountain","lat":33.989268,"lon":-84.6452127,"elevationM":396},{"id":"node:358779968","kind":"peak","name":"Rock Chapel Mountain","lat":33.7531635,"lon":-84.0643591,"elevationM":280},{"id":"node:358780562","kind":"peak","name":"Jones Hill","lat":33.3545617,"lon":-84.4807595,"elevationM":283},{"id":"node:2741241566","kind":"peak","name":"Arabia Mountain","lat":33.6687312,"lon":-84.1112247,"elevationM":280},{"id":"node:4427868052","kind":"peak","name":"Jack's Hill","lat":33.7409531,"lon":-84.6326105,"elevationM":null},{"id":"node:5316793467","kind":"peak","name":"Terpoi Hill","lat":33.693445,"lon":-84.6800817,"elevationM":306},{"id":"node:8955238967","kind":"peak","name":"Druid Hill","lat":33.8129716,"lon":-84.3031722,"elevationM":300},{"id":"node:9687124125","kind":"peak","name":"Bradley Mountain","lat":33.6651293,"lon":-84.1182105,"elevationM":291},{"id":"node:13425165966","kind":"peak","name":"Mars Mountain","lat":33.9859853,"lon":-84.7630294,"elevationM":328}]}