{"tileKey":"la_p41_lo_m110","version":"v1-1775891056926","entries":[{"id":"node:356498831","kind":"peak","name":"Antelope Butte","lat":41.3837718,"lon":-109.1959902,"elevationM":2347},{"id":"node:356498841","kind":"peak","name":"Antelope Knoll","lat":41.3749567,"lon":-109.9568136,"elevationM":2149},{"id":"node:356499160","kind":"peak","name":"Beacon Light Hill","lat":41.5180175,"lon":-109.6681962,"elevationM":1922},{"id":"node:356499478","kind":"peak","name":"Black Mountain","lat":41.1791269,"lon":-109.7057016,"elevationM":2379},{"id":"node:356499596","kind":"peak","name":"Boars Tusk","lat":41.962754,"lon":-109.198119,"elevationM":2075},{"id":"node:356499900","kind":"peak","name":"Cabin Butte","lat":41.8182957,"lon":-109.0037299,"elevationM":2425},{"id":"node:356500016","kind":"peak","name":"Cedar Mountain","lat":41.1291223,"lon":-109.9432057,"elevationM":2531},{"id":"node:356500167","kind":"peak","name":"Chimney Rock","lat":41.4380193,"lon":-109.0437323,"elevationM":2326},{"id":"node:356500249","kind":"peak","name":"Clay Buttes","lat":41.9244031,"lon":-109.4590203,"elevationM":2031},{"id":"node:356500531","kind":"peak","name":"Deer Butte","lat":41.8332956,"lon":-109.0423423,"elevationM":2401},{"id":"node:356500845","kind":"peak","name":"Earnest Butte","lat":41.3721857,"lon":-109.2234617,"elevationM":2235},{"id":"node:356501081","kind":"peak","name":"Fifteenmile Knoll","lat":41.9113499,"lon":-109.2015134,"elevationM":2042},{"id":"node:356501641","kind":"peak","name":"Hawks Nest","lat":41.1113498,"lon":-109.3134656,"elevationM":2485},{"id":"node:356501734","kind":"peak","name":"Hogback","lat":41.2030176,"lon":-109.2998538,"elevationM":2450},{"id":"node:356502041","kind":"peak","name":"Iron Mountain","lat":41.0474607,"lon":-109.4315252,"elevationM":2217},{"id":"node:356502323","kind":"peak","name":"Little Mountain","lat":41.0825,"lon":-109.2925,"elevationM":2761},{"id":"node:356502396","kind":"peak","name":"Lombard Buttes","lat":41.8652322,"lon":-109.8270884,"elevationM":1923},{"id":"node:356502523","kind":"peak","name":"Mass Mountain","lat":41.1569006,"lon":-109.9257051,"elevationM":2497},{"id":"node:356502527","kind":"peak","name":"Matthews Hill","lat":41.9524604,"lon":-109.187624,"elevationM":2047},{"id":"node:356502624","kind":"peak","name":"Mellor Mountain","lat":41.1846836,"lon":-109.1770713,"elevationM":2522},{"id":"node:356502651","kind":"peak","name":"Monument Hill","lat":41.6907935,"lon":-109.6487502,"elevationM":1952},{"id":"node:356502789","kind":"peak","name":"North Table Mountain","lat":41.9185723,"lon":-109.0203974,"elevationM":2419},{"id":"node:356502931","kind":"peak","name":"Parea Butte","lat":41.2321844,"lon":-109.2698527,"elevationM":2314},{"id":"node:356503048","kind":"peak","name":"Pilot Butte","lat":41.6432972,"lon":-109.3520751,"elevationM":2423},{"id":"node:356503355","kind":"peak","name":"Quaking Asp Mountain","lat":41.451075,"lon":-109.0959565,"elevationM":2594},{"id":"node:356503392","kind":"peak","name":"Ramsey Peak","lat":41.1760726,"lon":-109.256519,"elevationM":2409},{"id":"node:356503599","kind":"peak","name":"Richards Mountain","lat":41.0146819,"lon":-109.2987431,"elevationM":2570},{"id":"node:356503866","kind":"peak","name":"Sand Knoll","lat":41.1146836,"lon":-109.4359696,"elevationM":2148},{"id":"node:356503871","kind":"peak","name":"Sand Knolls","lat":41.924682,"lon":-109.3523508,"elevationM":2156},{"id":"node:356504313","kind":"peak","name":"South Table Mountain","lat":41.905517,"lon":-109.0090081,"elevationM":2524},{"id":"node:356504515","kind":"peak","name":"Little Mountain","lat":41.1260721,"lon":-109.2784644,"elevationM":2629},{"id":"node:356504633","kind":"peak","name":"Table","lat":41.4680196,"lon":-109.0642885,"elevationM":2342},{"id":"node:356504805","kind":"peak","name":"The Towers","lat":41.5431239,"lon":-109.4693827,"elevationM":1970},{"id":"node:356505367","kind":"peak","name":"Whiskey Buttes","lat":41.8121753,"lon":-109.9540376,"elevationM":2021},{"id":"node:356505393","kind":"peak","name":"White Mountain","lat":41.57802,"lon":-109.3201303,"elevationM":2321},{"id":"node:356505489","kind":"peak","name":"Wilkins Peak","lat":41.4957981,"lon":-109.3473541,"elevationM":2295},{"id":"node:356506133","kind":"peak","name":"Flattop Mountain","lat":41.3816306,"lon":-109.3706886,"elevationM":2212},{"id":"node:356506227","kind":"peak","name":"Haystack Buttes","lat":41.1435719,"lon":-109.6129206,"elevationM":1994},{"id":"node:356506446","kind":"peak","name":"Massacre Hill","lat":41.3944066,"lon":-109.6323631,"elevationM":1980},{"id":"node:356507176","kind":"peak","name":"Whalen Butte","lat":41.4727662,"lon":-109.4545556,"elevationM":2087},{"id":"node:356677415","kind":"peak","name":"Richards Mountains","lat":41.0146819,"lon":-109.2987431,"elevationM":2570},{"id":"node:11367649309","kind":"peak","name":"Twin Buttes","lat":41.1297653,"lon":-109.7524157,"elevationM":null},{"id":"node:11367649322","kind":"peak","name":"Sheep Mountain","lat":41.2535537,"lon":-109.3066187,"elevationM":null}]}