{"tileKey":"la_p70_lo_p22","version":"v1-1775849605232","entries":[{"id":"node:26862832","kind":"peak","name":"Eliassen","lat":70.3313889,"lon":22.4141667,"elevationM":null},{"id":"node:26862869","kind":"peak","name":"Fjelltindnasen","lat":70.1205556,"lon":22.1222222,"elevationM":null},{"id":"node:26863422","kind":"peak","name":"Koven","lat":70.1491667,"lon":22.8327778,"elevationM":null},{"id":"node:26863510","kind":"peak","name":"Lassefjellet","lat":70.0063533,"lon":22.490754,"elevationM":1123},{"id":"node:26864121","kind":"peak","name":"Oksfjordjoekelen","lat":70.1794444,"lon":22.0630556,"elevationM":1191},{"id":"node:26864172","kind":"peak","name":"Øvre Tverrelvtind","lat":70.0643708,"lon":22.1698371,"elevationM":1014},{"id":"node:26864760","kind":"peak","name":"Soroya","lat":70.5625,"lon":22.85,"elevationM":null},{"id":"node:26864796","kind":"peak","name":"Stjernoya","lat":70.3425,"lon":22.685,"elevationM":null},{"id":"node:1363106427","kind":"peak","name":"Bjørkelitind","lat":70.0348884,"lon":22.8981015,"elevationM":352},{"id":"node:2006133840","kind":"peak","name":"Kovtindan","lat":70.1070432,"lon":22.7676331,"elevationM":null},{"id":"node:2353290364","kind":"peak","name":"Komagaksla","lat":70.5407,"lon":22.881603,"elevationM":659},{"id":"node:3268141731","kind":"peak","name":"Breitind","lat":70.2401605,"lon":22.1524633,"elevationM":null},{"id":"node:3268141732","kind":"peak","name":"Klubbnesviktinden","lat":70.2735775,"lon":22.25703,"elevationM":null},{"id":"node:3268141733","kind":"peak","name":"Kollaren","lat":70.2726339,"lon":22.1969769,"elevationM":null},{"id":"node:3268142523","kind":"peak","name":"Smaltind","lat":70.2566778,"lon":22.1681176,"elevationM":null},{"id":"node:3268142524","kind":"peak","name":"Sommersettinden","lat":70.260496,"lon":22.2345076,"elevationM":null},{"id":"node:4506731659","kind":"peak","name":"Nedre Tverrelvtind","lat":70.0663261,"lon":22.1213089,"elevationM":920},{"id":"node:4506731660","kind":"peak","name":"Vieksevárri","lat":70.0785242,"lon":22.0708199,"elevationM":806},{"id":"node:4506731661","kind":"peak","name":"Hárji","lat":70.1362779,"lon":22.1427021,"elevationM":829},{"id":"node:4506731662","kind":"peak","name":"Báhccavuonhárji","lat":70.1542815,"lon":22.1730742,"elevationM":917},{"id":"node:4506731663","kind":"peak","name":"Loppatinden","lat":70.1779685,"lon":22.1356307,"elevationM":1175},{"id":"node:6254179919","kind":"peak","name":"Rivartinden","lat":70.0874034,"lon":22.5386579,"elevationM":569},{"id":"node:6254181515","kind":"peak","name":"Skardelvfjellet","lat":70.0207669,"lon":22.3610937,"elevationM":779},{"id":"node:6254181521","kind":"peak","name":"Skredfjellet","lat":70.0482845,"lon":22.3874037,"elevationM":390},{"id":"node:6254316327","kind":"peak","name":"Oksfjørdfjellet","lat":70.2459073,"lon":22.3643929,"elevationM":372},{"id":"node:6254320625","kind":"peak","name":"Storetind","lat":70.2086261,"lon":22.2438608,"elevationM":695},{"id":"node:6254320627","kind":"peak","name":"Hellefjellet","lat":70.1922259,"lon":22.2271554,"elevationM":916},{"id":"node:6258865340","kind":"peak","name":"Áilegasčohkka","lat":70.1129737,"lon":22.9337249,"elevationM":536},{"id":"node:8307309197","kind":"peak","name":"Langfjellet","lat":70.0431293,"lon":22.5835884,"elevationM":1090},{"id":"node:9683406129","kind":"peak","name":"Middagstinden","lat":70.2314324,"lon":22.4152043,"elevationM":null},{"id":"node:9683406179","kind":"peak","name":"Rássoalgi","lat":70.2408647,"lon":22.3818631,"elevationM":null},{"id":"node:12115518936","kind":"peak","name":"Garntindan","lat":70.2121674,"lon":22.0136441,"elevationM":null},{"id":"node:13070934743","kind":"peak","name":"Skalsatinden","lat":70.1200723,"lon":22.0158633,"elevationM":1010}]}