{"tileKey":"la_p23_lo_p115","version":"v1-1775891056926","entries":[{"id":"node:1819036218","kind":"peak","name":"鸿图嶂","lat":23.7812219,"lon":115.9481705,"elevationM":1277},{"id":"node:3217907397","kind":"peak","name":"尖嶂","lat":23.2931576,"lon":115.3813215,"elevationM":null},{"id":"node:4447941198","kind":"peak","name":"惠东莲花山","lat":23.0609346,"lon":115.2316761,"elevationM":1331},{"id":"node:4447941613","kind":"peak","name":"五指嶂","lat":23.1027029,"lon":115.2462562,"elevationM":null},{"id":"node:4447941620","kind":"peak","name":"武顿山","lat":23.2768888,"lon":115.4194095,"elevationM":1233},{"id":"node:10158709152","kind":"peak","name":"耀子岗","lat":23.7722509,"lon":115.7861247,"elevationM":null},{"id":"node:10158709865","kind":"peak","name":"榄子山","lat":23.8105446,"lon":115.7819399,"elevationM":null},{"id":"node:10158960264","kind":"peak","name":"白叶嶂","lat":23.8791484,"lon":115.637195,"elevationM":null},{"id":"node:10160929171","kind":"peak","name":"銀山","lat":23.3961856,"lon":115.8302305,"elevationM":483},{"id":"node:10160929172","kind":"peak","name":"金山","lat":23.4082901,"lon":115.937285,"elevationM":627},{"id":"node:10160929175","kind":"peak","name":"獨山","lat":23.5313791,"lon":115.7866724,"elevationM":789},{"id":"node:11708258915","kind":"peak","name":"桂岭顶","lat":23.7310564,"lon":115.5103161,"elevationM":null},{"id":"node:12830187705","kind":"peak","name":"白马山","lat":23.018341,"lon":115.1084136,"elevationM":1256},{"id":"node:12830187706","kind":"peak","name":"卡子栋","lat":23.0451869,"lon":115.1722946,"elevationM":1240},{"id":"node:12830187714","kind":"peak","name":"大银瓶山","lat":23.0264663,"lon":115.2449493,"elevationM":1110},{"id":"node:12854886114","kind":"peak","name":"黄蜂嶂","lat":23.636959,"lon":115.0450407,"elevationM":null},{"id":"node:12856708206","kind":"peak","name":"庙子石顶","lat":23.3834133,"lon":115.2073001,"elevationM":null},{"id":"node:12857070534","kind":"peak","name":"小武顿","lat":23.2773157,"lon":115.4241667,"elevationM":null},{"id":"node:12864253784","kind":"peak","name":"653","lat":23.3408002,"lon":115.5624446,"elevationM":null},{"id":"node:12885470790","kind":"peak","name":"火山嶂","lat":23.3363056,"lon":115.6552016,"elevationM":763},{"id":"node:12908846591","kind":"peak","name":"银坑山","lat":23.068728,"lon":115.5174539,"elevationM":null},{"id":"node:12908846592","kind":"peak","name":"双峡山","lat":23.0792589,"lon":115.5185469,"elevationM":null},{"id":"node:12908846596","kind":"peak","name":"乌了记","lat":23.0536656,"lon":115.5179655,"elevationM":null},{"id":"node:12908846597","kind":"peak","name":"松树排山","lat":23.0485924,"lon":115.526273,"elevationM":null},{"id":"node:12921155741","kind":"peak","name":"猪肝吊胆","lat":23.0266803,"lon":115.5748109,"elevationM":null},{"id":"node:12921155742","kind":"peak","name":"双宫山","lat":23.0205493,"lon":115.5784179,"elevationM":null},{"id":"node:12926960922","kind":"peak","name":"肖天狮","lat":23.4905604,"lon":115.5243461,"elevationM":null},{"id":"node:12927394475","kind":"peak","name":"笔架山","lat":23.4543461,"lon":115.5272274,"elevationM":null},{"id":"node:12927394477","kind":"peak","name":"剑门坑","lat":23.4393067,"lon":115.5385625,"elevationM":null},{"id":"node:12927394478","kind":"peak","name":"圣峰嶂","lat":23.4326948,"lon":115.5298183,"elevationM":null},{"id":"node:12927394479","kind":"peak","name":"丹竹坑嶂","lat":23.44606,"lon":115.548505,"elevationM":null},{"id":"node:12927394811","kind":"peak","name":"牛角窩","lat":23.4071695,"lon":115.5440738,"elevationM":null},{"id":"node:12927394813","kind":"peak","name":"大面山","lat":23.4244104,"lon":115.5303104,"elevationM":null},{"id":"node:12927464156","kind":"peak","name":"三天嶂","lat":23.3983818,"lon":115.5048765,"elevationM":null},{"id":"node:12943297323","kind":"peak","name":"嶂肚里山","lat":23.3905598,"lon":115.4803648,"elevationM":null},{"id":"node:12951377651","kind":"peak","name":"尖山顶","lat":23.4018301,"lon":115.4556498,"elevationM":null},{"id":"node:12951377652","kind":"peak","name":"高里嶂","lat":23.4205353,"lon":115.4495273,"elevationM":null},{"id":"node:12971135308","kind":"peak","name":"文笔嶂","lat":23.2988059,"lon":115.428878,"elevationM":1119},{"id":"node:12971135309","kind":"peak","name":"园山岗","lat":23.3084953,"lon":115.4442184,"elevationM":null},{"id":"node:12971135310","kind":"peak","name":"荷树岗","lat":23.3027482,"lon":115.4554271,"elevationM":null},{"id":"node:12971135313","kind":"peak","name":"乌石髻","lat":23.2691232,"lon":115.432869,"elevationM":1185},{"id":"node:12971135316","kind":"peak","name":"七星墩","lat":23.2863764,"lon":115.4500819,"elevationM":1082},{"id":"node:12994631277","kind":"peak","name":"马头岽","lat":23.2765463,"lon":115.4589748,"elevationM":1029},{"id":"node:13096561837","kind":"peak","name":"七姐妹訏顶","lat":23.087378,"lon":115.2081507,"elevationM":null},{"id":"node:13096561840","kind":"peak","name":"丫记石","lat":23.0771439,"lon":115.1960151,"elevationM":null},{"id":"node:13096561983","kind":"peak","name":"纸鹞山","lat":23.0857555,"lon":115.2264872,"elevationM":null},{"id":"node:13096562033","kind":"peak","name":"庵山","lat":23.1171988,"lon":115.242012,"elevationM":null},{"id":"node:13096562093","kind":"peak","name":"石陂仔","lat":23.1112344,"lon":115.2328826,"elevationM":null},{"id":"node:13096562214","kind":"peak","name":"吊神排","lat":23.104274,"lon":115.2135297,"elevationM":null},{"id":"node:13154648030","kind":"peak","name":"三神凸","lat":23.297234,"lon":115.4397128,"elevationM":1131},{"id":"node:13161328340","kind":"peak","name":"后福排","lat":23.3239594,"lon":115.618511,"elevationM":null},{"id":"node:13172481323","kind":"peak","name":"狮地","lat":23.3669568,"lon":115.6336458,"elevationM":null},{"id":"node:13172481324","kind":"peak","name":"达麻塘","lat":23.3662153,"lon":115.6411815,"elevationM":null},{"id":"node:13180321069","kind":"peak","name":"陂角山","lat":23.3058528,"lon":115.6200479,"elevationM":null},{"id":"node:13180321070","kind":"peak","name":"发山","lat":23.3113098,"lon":115.6232852,"elevationM":null},{"id":"node:13180321071","kind":"peak","name":"老虎科","lat":23.3162095,"lon":115.6269086,"elevationM":null},{"id":"node:13180321072","kind":"peak","name":"竹子科凹背","lat":23.3125402,"lon":115.6274324,"elevationM":null},{"id":"node:13180321073","kind":"peak","name":"狮帽凸","lat":23.303317,"lon":115.6260746,"elevationM":null},{"id":"node:13180321075","kind":"peak","name":"老虎叫","lat":23.2939654,"lon":115.6265432,"elevationM":null},{"id":"node:13180321076","kind":"peak","name":"心尾田山","lat":23.2959634,"lon":115.6237117,"elevationM":null},{"id":"node:13180321077","kind":"peak","name":"乌石头","lat":23.2947766,"lon":115.6199418,"elevationM":null},{"id":"node:13180321078","kind":"peak","name":"白面石","lat":23.2956171,"lon":115.6179448,"elevationM":null},{"id":"node:13182471331","kind":"peak","name":"竹高嶂","lat":23.4187958,"lon":115.6200341,"elevationM":null},{"id":"node:13324119252","kind":"peak","name":"猪麻嶂","lat":23.3553845,"lon":115.6772602,"elevationM":null},{"id":"node:13324152266","kind":"peak","name":"马头寨山","lat":23.3578058,"lon":115.6438364,"elevationM":null},{"id":"node:13327468357","kind":"peak","name":"石邻凸","lat":23.4756844,"lon":115.5954673,"elevationM":null}]}