{"tileKey":"la_p30_lo_m96","version":"v1-1775891056926","entries":[{"id":"node:356703324","kind":"peak","name":"Crater Hill","lat":30.281601,"lon":-95.3577154,"elevationM":48},{"id":"node:356730409","kind":"peak","name":"Camp Hill","lat":30.8551884,"lon":-95.2549392,"elevationM":61},{"id":"node:356732860","kind":"peak","name":"Darby Hill","lat":30.7618578,"lon":-95.1849388,"elevationM":54},{"id":"node:356739032","kind":"peak","name":"Liberty Hill","lat":30.7551911,"lon":-95.2291062,"elevationM":82},{"id":"node:356744578","kind":"peak","name":"Rocky Hill","lat":30.8612994,"lon":-95.2685504,"elevationM":77},{"id":"node:356746310","kind":"peak","name":"Shepard Hill","lat":30.4788142,"lon":-95.5141096,"elevationM":95},{"id":"node:356749849","kind":"peak","name":"Indian Hill","lat":30.7463032,"lon":-95.0916041,"elevationM":45},{"id":"node:356751776","kind":"peak","name":"Blue Bonnet Hill","lat":30.5910316,"lon":-95.7210583,"elevationM":96},{"id":"node:356752361","kind":"peak","name":"Peckerwood Hill","lat":30.7115823,"lon":-95.5391101,"elevationM":144},{"id":"node:356752568","kind":"peak","name":"Smith Hill","lat":30.7296373,"lon":-95.5629995,"elevationM":126},{"id":"node:356752945","kind":"peak","name":"Gospel Hill","lat":30.8293559,"lon":-95.3552184,"elevationM":92}]}