{"tileKey":"la_p53_lo_p49","version":"v1-1775891056926","entries":[{"id":"node:889399090","kind":"peak","name":"Могутовая","lat":53.4232645,"lon":49.5069187,"elevationM":null},{"id":"node:889537466","kind":"peak","name":"Лысая","lat":53.4146158,"lon":49.4144651,"elevationM":null},{"id":"node:1270487403","kind":"peak","name":"Молодецкий курган","lat":53.4064497,"lon":49.3113127,"elevationM":242},{"id":"node:1627315744","kind":"peak","name":"Девья гора","lat":53.4015266,"lon":49.2981746,"elevationM":null},{"id":"node:1974296219","kind":"peak","name":"Шишка","lat":53.4230627,"lon":49.4544536,"elevationM":null},{"id":"node:2309006450","kind":"peak","name":"Усинский курган","lat":53.3940662,"lon":49.2681581,"elevationM":null},{"id":"node:2309006451","kind":"peak","name":"Наблюдатель","lat":53.4383323,"lon":49.8347012,"elevationM":381},{"id":"node:2309006452","kind":"peak","name":"Стрельная","lat":53.4352747,"lon":49.7571659,"elevationM":351},{"id":"node:2322222548","kind":"peak","name":"Ош-Пандо-Нерь","lat":53.2454893,"lon":49.8385489,"elevationM":null},{"id":"node:2322222551","kind":"peak","name":"Львова гора","lat":53.2463142,"lon":49.8248897,"elevationM":null},{"id":"node:2510308535","kind":"peak","name":"Лысая","lat":53.4324867,"lon":49.5492539,"elevationM":null},{"id":"node:2995461952","kind":"peak","name":"Вислый Камень","lat":53.2307144,"lon":49.7996208,"elevationM":null},{"id":"node:3611171018","kind":"peak","name":"Светелка","lat":53.3723068,"lon":49.097564,"elevationM":218},{"id":"node:4464037762","kind":"peak","name":"Чувашский бугор","lat":53.3709591,"lon":49.0252628,"elevationM":null},{"id":"node:5680008923","kind":"peak","name":"Утес Шелудяк","lat":53.4383957,"lon":49.5985263,"elevationM":null},{"id":"node:6612303320","kind":"peak","name":"Петров Камень","lat":53.4324324,"lon":49.544168,"elevationM":null},{"id":"node:6612303321","kind":"peak","name":"Утес Соколиный","lat":53.4342308,"lon":49.5536017,"elevationM":null},{"id":"node:6612303332","kind":"peak","name":"Утес Аси Неверовой","lat":53.4354843,"lon":49.5637374,"elevationM":null},{"id":"node:6612303342","kind":"peak","name":"Утес Трех Соколов","lat":53.4355068,"lon":49.5693056,"elevationM":null},{"id":"node:7008319638","kind":"peak","name":"Большая Бахилова","lat":53.4356176,"lon":49.684183,"elevationM":null},{"id":"node:7008350280","kind":"peak","name":"Малая Бахилова","lat":53.4359686,"lon":49.6705088,"elevationM":null},{"id":"node:7008350286","kind":"peak","name":"Ботаничка","lat":53.4300192,"lon":49.6979639,"elevationM":null},{"id":"node:7009915090","kind":"peak","name":"Отважная","lat":53.4251718,"lon":49.4432122,"elevationM":null},{"id":"node:9362783880","kind":"peak","name":"Грунина гора","lat":53.3900849,"lon":49.1957957,"elevationM":null},{"id":"node:9362783881","kind":"peak","name":"Гора Кабацкая","lat":53.3861288,"lon":49.1752018,"elevationM":null},{"id":"node:9362783882","kind":"peak","name":"Скала Белый Камень","lat":53.392949,"lon":49.1428915,"elevationM":135},{"id":"node:9854493157","kind":"peak","name":"Молебная","lat":53.4381018,"lon":49.8800218,"elevationM":null},{"id":"node:10224473307","kind":"peak","name":"Тигр","lat":53.4171864,"lon":49.379715,"elevationM":null},{"id":"node:10261357074","kind":"peak","name":"Солонцовая","lat":53.4114187,"lon":49.5515574,"elevationM":null},{"id":"node:10261357075","kind":"peak","name":"Двойная","lat":53.41826,"lon":49.5536281,"elevationM":null},{"id":"node:11006250989","kind":"peak","name":"Семь Братьев","lat":53.3779878,"lon":49.2608172,"elevationM":null},{"id":"node:11006263211","kind":"peak","name":"Кабанья","lat":53.3791526,"lon":49.2583711,"elevationM":null},{"id":"node:11006263216","kind":"peak","name":"Плешка","lat":53.357605,"lon":49.2460447,"elevationM":null},{"id":"node:11006263222","kind":"peak","name":"Три Сестры","lat":53.3752484,"lon":49.2614604,"elevationM":null},{"id":"node:11423725506","kind":"peak","name":"Воровская","lat":53.4382832,"lon":49.8521719,"elevationM":null},{"id":"node:12193980102","kind":"peak","name":"Гусиха","lat":53.4979504,"lon":49.0012087,"elevationM":null},{"id":"node:13018427167","kind":"peak","name":"Могутовая","lat":53.4084513,"lon":49.5005725,"elevationM":null}]}