{"tileKey":"la_p49_lo_p88","version":"v1-1775891056926","entries":[{"id":"node:309609579","kind":"peak","name":"Сары-Нохойт","lat":49.4577863,"lon":88.8139674,"elevationM":3502},{"id":"node:1598610607","kind":"peak","name":"Тесьтой","lat":49.775788,"lon":88.1263461,"elevationM":3861},{"id":"node:1598610613","kind":"peak","name":"Тымойн","lat":49.7843398,"lon":88.1222873,"elevationM":3703},{"id":"node:2149466540","kind":"peak","name":"Дунд-Уйгар","lat":49.260764,"lon":88.0821646,"elevationM":3529},{"id":"node:2149466808","kind":"peak","name":"Улан-Даба","lat":49.3378382,"lon":88.1529446,"elevationM":3119},{"id":"node:2730928187","kind":"peak","name":"Тархата","lat":49.4938318,"lon":88.3381964,"elevationM":2946},{"id":"node:3108733093","kind":"peak","name":"Джалгизтобе","lat":49.875772,"lon":88.6870899,"elevationM":1936},{"id":"node:3343744315","kind":"peak","name":"Ирбисту","lat":49.7589681,"lon":88.0861495,"elevationM":3967},{"id":"node:3362862774","kind":"peak","name":"Мухор","lat":49.7017447,"lon":88.3882794,"elevationM":2936},{"id":"node:3362862960","kind":"peak","name":"Михайло Волкова","lat":49.7522334,"lon":88.077267,"elevationM":3707},{"id":"node:3362863041","kind":"peak","name":"Монгол-Таймс","lat":49.7740281,"lon":88.0653543,"elevationM":3633},{"id":"node:4952982725","kind":"peak","name":"Тёплый Ключ","lat":49.4615647,"lon":88.1163019,"elevationM":3144},{"id":"node:4985353879","kind":"peak","name":"Курман","lat":49.8671465,"lon":88.7416925,"elevationM":2004},{"id":"node:4985353880","kind":"peak","name":"Карашан","lat":49.845774,"lon":88.749846,"elevationM":2075},{"id":"node:4985354491","kind":"peak","name":"Оюм","lat":49.5433677,"lon":88.925228,"elevationM":3057},{"id":"node:4993155149","kind":"peak","name":"Мишельдык","lat":49.887887,"lon":88.773473,"elevationM":1831},{"id":"node:4993155219","kind":"peak","name":"Керегетас","lat":49.7697341,"lon":88.9240197,"elevationM":2382},{"id":"node:4993155537","kind":"peak","name":"Демисин","lat":49.796557,"lon":88.816388,"elevationM":2061},{"id":"node:9024681351","kind":"peak","name":"Куспалапан","lat":49.7059136,"lon":88.9742905,"elevationM":null},{"id":"node:9042500301","kind":"peak","name":"Чёрная","lat":49.6026107,"lon":88.6622426,"elevationM":3431},{"id":"node:9042505306","kind":"peak","name":"Саржематы","lat":49.4910863,"lon":88.6620066,"elevationM":3500},{"id":"node:9042505307","kind":"peak","name":"Круглая","lat":49.5719096,"lon":88.7397478,"elevationM":2610},{"id":"node:9042506490","kind":"peak","name":"Чебе","lat":49.8116383,"lon":88.8606658,"elevationM":2090},{"id":"node:9042506545","kind":"peak","name":"Кургак","lat":49.8388532,"lon":88.8065495,"elevationM":null},{"id":"node:10097535919","kind":"peak","name":"Бошту","lat":49.92565,"lon":88.988024,"elevationM":1992},{"id":"node:10105880786","kind":"peak","name":"Дугуй","lat":49.5395526,"lon":88.7769985,"elevationM":2742},{"id":"node:10105880787","kind":"peak","name":"Пищер-Сай","lat":49.580334,"lon":88.8572501,"elevationM":2966},{"id":"node:10105880788","kind":"peak","name":"Аксай","lat":49.6242785,"lon":88.8115882,"elevationM":2860},{"id":"node:10106268944","kind":"peak","name":"Болтеркей","lat":49.8186453,"lon":88.9103365,"elevationM":2005},{"id":"node:10121670782","kind":"peak","name":"Чат","lat":49.845455,"lon":88.0220317,"elevationM":3198},{"id":"node:10170117596","kind":"peak","name":"Устье Казаныгир","lat":49.6443566,"lon":88.5342693,"elevationM":2716},{"id":"node:10175258992","kind":"peak","name":"Красная","lat":49.5305009,"lon":88.0199718,"elevationM":2622},{"id":"node:10210778427","kind":"peak","name":"пик Берёзовый","lat":49.3361972,"lon":88.0195856,"elevationM":3040},{"id":"node:11186782413","kind":"peak","name":"Хүрэн уул","lat":49.1162147,"lon":88.3110012,"elevationM":null},{"id":"node:11186782415","kind":"peak","name":"Тахилгат толгой","lat":49.2915133,"lon":88.5220648,"elevationM":null},{"id":"node:11186783093","kind":"peak","name":"Хүрэн нуруу","lat":49.2029013,"lon":88.1330094,"elevationM":null},{"id":"node:11186814450","kind":"peak","name":"Баян уул","lat":49.2258128,"lon":88.696254,"elevationM":null},{"id":"node:11186854669","kind":"peak","name":"Шивээт хайрхан 3349.7м","lat":49.1048009,"lon":88.2276751,"elevationM":null},{"id":"node:11186872721","kind":"peak","name":"Монгол голын нуруу","lat":49.1969352,"lon":88.7173142,"elevationM":null},{"id":"node:11186875745","kind":"peak","name":"Хар саадагийн их уул 3247.1м","lat":49.1688408,"lon":88.7588703,"elevationM":null},{"id":"node:11186884254","kind":"peak","name":"Хурган гол уул 2652.4м","lat":49.2358173,"lon":88.4188805,"elevationM":null},{"id":"node:11186884357","kind":"peak","name":"Цагаан морьт уул","lat":49.2820791,"lon":88.297501,"elevationM":null},{"id":"node:11186886712","kind":"peak","name":"Улаан хонгор уул","lat":49.3171544,"lon":88.2601308,"elevationM":null},{"id":"node:11186888710","kind":"peak","name":"Сонгинот уул 2890.1м","lat":49.1982123,"lon":88.2617601,"elevationM":null},{"id":"node:11186890937","kind":"peak","name":"Их ойгор уул 2784.2м","lat":49.2586221,"lon":88.345179,"elevationM":null},{"id":"node:11186890938","kind":"peak","name":"Могойт толгой","lat":49.266498,"lon":88.5185338,"elevationM":null}]}