{"tileKey":"la_p55_lo_m6","version":"v1-1775891056926","entries":[{"id":"node:58706525","kind":"peak","name":"Goat Fell","lat":55.6258297,"lon":-5.1919869,"elevationM":874},{"id":"node:278496124","kind":"peak","name":"Beinn Shiantaidh","lat":55.9019227,"lon":-5.9785646,"elevationM":757},{"id":"node:278496144","kind":"peak","name":"Glas Bheinn","lat":55.857581,"lon":-5.9954733,"elevationM":562},{"id":"node:279237184","kind":"peak","name":"Corra Bheinn","lat":55.9088934,"lon":-5.9594441,"elevationM":573},{"id":"node:294062047","kind":"peak","name":"Scrinadle","lat":55.928142,"lon":-5.9955685,"elevationM":508},{"id":"node:294062048","kind":"peak","name":"Beinn Bhreac","lat":55.9310229,"lon":-5.9498972,"elevationM":441},{"id":"node:294062067","kind":"peak","name":"Cnoc Rubh' a' Choire","lat":55.9552004,"lon":-5.924663,"elevationM":60},{"id":"node:294062068","kind":"peak","name":"Cnoc an Ime","lat":55.9535426,"lon":-5.8687614,"elevationM":303},{"id":"node:294062073","kind":"peak","name":"Creag nam Fiadh Mòr","lat":55.9619412,"lon":-5.8516988,"elevationM":265},{"id":"node:294062204","kind":"peak","name":"Beinn Sgaillinish","lat":55.9910783,"lon":-5.8189625,"elevationM":190},{"id":"node:300806188","kind":"peak","name":"Creag na h-lolaire","lat":55.6771418,"lon":-5.29528,"elevationM":429},{"id":"node:300806193","kind":"peak","name":"Meall Mòr","lat":55.6833602,"lon":-5.2845266,"elevationM":496},{"id":"node:300806198","kind":"peak","name":"Beinn Bhreac","lat":55.6601268,"lon":-5.2713086,"elevationM":575},{"id":"node:300806208","kind":"peak","name":"Caisteal Abhail","lat":55.6498878,"lon":-5.2293129,"elevationM":859},{"id":"node:300806236","kind":"peak","name":"Mullach Buidhe","lat":55.6400969,"lon":-5.1864406,"elevationM":819},{"id":"node:300806243","kind":"peak","name":"Suidhe Fhearghas","lat":55.6582764,"lon":-5.203422,"elevationM":634},{"id":"node:300806268","kind":"peak","name":"Beinn Bhreac","lat":55.6467587,"lon":-5.3283025,"elevationM":711},{"id":"node:300806284","kind":"peak","name":"Meall nan Damh","lat":55.6705834,"lon":-5.3241802,"elevationM":570},{"id":"node:300806286","kind":"peak","name":"Creag Ghlas Laggan","lat":55.6985961,"lon":-5.21989,"elevationM":444},{"id":"node:300806303","kind":"peak","name":"Beinn Bharrain","lat":55.6278628,"lon":-5.3436053,"elevationM":717},{"id":"node:300806330","kind":"peak","name":"Beinn Tarsuinn","lat":55.6221565,"lon":-5.2412642,"elevationM":826},{"id":"node:300806358","kind":"peak","name":"Beinn Nuis","lat":55.6096717,"lon":-5.2473377,"elevationM":792},{"id":"node:300806366","kind":"peak","name":"Sail Chalmadale","lat":55.6097722,"lon":-5.3130321,"elevationM":480},{"id":"node:300806536","kind":"peak","name":"Cìr Mhòr","lat":55.6392,"lon":-5.2223736,"elevationM":799},{"id":"node:523257052","kind":"peak","name":"Cnoc Moy","lat":55.3727773,"lon":-5.7716388,"elevationM":446},{"id":"node:523257072","kind":"peak","name":"Beinn na Lice","lat":55.3119103,"lon":-5.7798883,"elevationM":428},{"id":"node:523257099","kind":"peak","name":"The Slate","lat":55.3851619,"lon":-5.7380888,"elevationM":384},{"id":"node:523310750","kind":"peak","name":"Tòrr Mòr","lat":55.3059981,"lon":-5.7842534,"elevationM":414},{"id":"node:523373212","kind":"peak","name":"Beinn Ghuilean","lat":55.3957209,"lon":-5.5877759,"elevationM":354},{"id":"node:523453311","kind":"peak","name":"Sgreadan Hill","lat":55.5067623,"lon":-5.5788294,"elevationM":397},{"id":"node:523461897","kind":"peak","name":"Beinn an Tuirc","lat":55.5665031,"lon":-5.5672423,"elevationM":454},{"id":"node:523830796","kind":"peak","name":"Tòrr Dubh","lat":55.3062329,"lon":-5.7432944,"elevationM":284},{"id":"node:523831516","kind":"peak","name":"Beinn Bhreac","lat":55.3157095,"lon":-5.7609755,"elevationM":394},{"id":"node:523837172","kind":"peak","name":"Cnoc Mòr","lat":55.3202878,"lon":-5.652546,"elevationM":121},{"id":"node:523842578","kind":"peak","name":"Cnoc Àlainn","lat":55.3488595,"lon":-5.5654532,"elevationM":193},{"id":"node:523842956","kind":"peak","name":"The Bastard","lat":55.3530074,"lon":-5.5373007,"elevationM":188},{"id":"node:523982997","kind":"peak","name":"Ranachan Hill","lat":55.463553,"lon":-5.6581368,"elevationM":212},{"id":"node:523982998","kind":"peak","name":"Ballywilline Hill","lat":55.4547932,"lon":-5.612389,"elevationM":216},{"id":"node:526333109","kind":"peak","name":"Meall Buidhe","lat":55.5336208,"lon":-5.5913995,"elevationM":375},{"id":"node:530944284","kind":"peak","name":"Ailsa Craig","lat":55.2527392,"lon":-5.118173,"elevationM":340},{"id":"node:530980954","kind":"peak","name":"Sanda","lat":55.2805115,"lon":-5.5759153,"elevationM":123},{"id":"node:531557380","kind":"peak","name":"Beinn Theine","lat":55.3015724,"lon":-5.7777976,"elevationM":385},{"id":"node:531559248","kind":"peak","name":"Còrr Bhàn","lat":55.3283873,"lon":-5.7852649,"elevationM":369},{"id":"node:531559595","kind":"peak","name":"A' Chruach","lat":55.3327326,"lon":-5.7631206,"elevationM":377},{"id":"node:531560072","kind":"peak","name":"Remuil Hill","lat":55.3467907,"lon":-5.744667,"elevationM":302},{"id":"node:531560510","kind":"peak","name":"Amod Hill","lat":55.3430326,"lon":-5.7254409,"elevationM":234},{"id":"node:531562369","kind":"peak","name":"Tod Hill","lat":55.3461562,"lon":-5.5968665,"elevationM":186},{"id":"node:531563574","kind":"peak","name":"Achinhoan Hill","lat":55.3910799,"lon":-5.5699157,"elevationM":303},{"id":"node:531563924","kind":"peak","name":"Arinarach Hill","lat":55.3864484,"lon":-5.5850219,"elevationM":312},{"id":"node:531566689","kind":"peak","name":"Tirfergus Hill","lat":55.3929323,"lon":-5.6901645,"elevationM":260},{"id":"node:531567393","kind":"peak","name":"Skerry Fell Fad","lat":55.4012807,"lon":-5.7338799,"elevationM":240},{"id":"node:531568105","kind":"peak","name":"Beinn na Faire","lat":55.3889836,"lon":-5.7854365,"elevationM":282},{"id":"node:531568984","kind":"peak","name":"Creag nan Cuilean","lat":55.3845393,"lon":-5.7548428,"elevationM":357},{"id":"node:531569781","kind":"peak","name":"Achnaslishaig Hill","lat":55.366405,"lon":-5.7209777,"elevationM":307},{"id":"node:531570628","kind":"peak","name":"Cnoc na Grèine","lat":55.3548425,"lon":-5.7298182,"elevationM":221},{"id":"node:531571146","kind":"peak","name":"Cnoc Reamhar","lat":55.3553304,"lon":-5.7635497,"elevationM":273},{"id":"node:531571827","kind":"peak","name":"Cnoc Odhar","lat":55.3545223,"lon":-5.6805193,"elevationM":277},{"id":"node:539378101","kind":"peak","name":"Dun Skeig","lat":55.7560583,"lon":-5.5749076,"elevationM":143},{"id":"node:539443840","kind":"peak","name":"Narachan Hill","lat":55.6662127,"lon":-5.5737765,"elevationM":284},{"id":"node:539443850","kind":"peak","name":"Cnoc an t-Samhlaidh","lat":55.6874515,"lon":-5.5045025,"elevationM":263},{"id":"node:539457613","kind":"peak","name":"Cnoc a' Bhaile Shìos","lat":55.8116474,"lon":-5.4108612,"elevationM":422},{"id":"node:541425302","kind":"peak","name":"Bòrd Mòr","lat":55.5465359,"lon":-5.5636034,"elevationM":406},{"id":"node:541425312","kind":"peak","name":"Braid Hill","lat":55.5469729,"lon":-5.589181,"elevationM":373},{"id":"node:541425313","kind":"peak","name":"Beinn Bhreac","lat":55.5889038,"lon":-5.5683241,"elevationM":426},{"id":"node:541474734","kind":"peak","name":"Skeroblin Hill","lat":55.4857274,"lon":-5.6473593,"elevationM":203},{"id":"node:541568842","kind":"peak","name":"Stob Odhar","lat":55.9113463,"lon":-5.4910921,"elevationM":562},{"id":"node:541568879","kind":"peak","name":"Meall Mor","lat":55.9174718,"lon":-5.4614912,"elevationM":481},{"id":"node:541568898","kind":"peak","name":"Meall Beag","lat":55.919283,"lon":-5.4820798,"elevationM":500},{"id":"node:541568936","kind":"peak","name":"Cruach Gille Bheagain","lat":55.8897889,"lon":-5.4810499,"elevationM":329},{"id":"node:541568957","kind":"peak","name":"Cruach Chaorainn","lat":55.889452,"lon":-5.4587339,"elevationM":305},{"id":"node:541568971","kind":"peak","name":"Cruach nan Cuilean","lat":55.9027344,"lon":-5.4780458,"elevationM":342},{"id":"node:960873835","kind":"peak","name":"Leacann nan Gall","lat":55.9677953,"lon":-5.034171,"elevationM":579},{"id":"node:960873837","kind":"peak","name":"Kilmarnock Hill","lat":55.9132562,"lon":-5.0329424,"elevationM":395},{"id":"node:960873841","kind":"peak","name":"Strone Dearg","lat":55.9436887,"lon":-5.0537661,"elevationM":393},{"id":"node:960873842","kind":"peak","name":"Achafour Hill","lat":55.8950387,"lon":-5.0051046,"elevationM":329},{"id":"node:960873849","kind":"peak","name":"Black Craig","lat":55.9405124,"lon":-5.0188552,"elevationM":522},{"id":"node:960873852","kind":"peak","name":"Blair Buidhe","lat":55.9293186,"lon":-5.0280283,"elevationM":473},{"id":"node:960873854","kind":"peak","name":"Cruach nan Caorach","lat":55.9840254,"lon":-5.0871825,"elevationM":578},{"id":"node:960873857","kind":"peak","name":"Cruach nan Capull","lat":55.9710954,"lon":-5.0531723,"elevationM":611},{"id":"node:1132280654","kind":"peak","name":"Cnoc Madaidh","lat":55.9907595,"lon":-5.1032129,"elevationM":311},{"id":"node:1132296040","kind":"peak","name":"Cruach Neuran","lat":55.9927162,"lon":-5.0736305,"elevationM":607},{"id":"node:1132414322","kind":"peak","name":"Beinn Lochain","lat":55.5827366,"lon":-5.3302173,"elevationM":228},{"id":"node:1132414330","kind":"peak","name":"Cnoc Breac Gamhainn","lat":55.6324792,"lon":-5.295885,"elevationM":364},{"id":"node:1132414331","kind":"peak","name":"Meall Bhig","lat":55.6657996,"lon":-5.3327922,"elevationM":438},{"id":"node:1132414332","kind":"peak","name":"Glenshant Hill","lat":55.608537,"lon":-5.1914291,"elevationM":404},{"id":"node:1132414341","kind":"peak","name":"Torr Righ Mór","lat":55.5272958,"lon":-5.3456668,"elevationM":137},{"id":"node:1132414342","kind":"peak","name":"An Tunna","lat":55.5765265,"lon":-5.2249889,"elevationM":361},{"id":"node:1132414343","kind":"peak","name":"Cul nan Creagan","lat":55.5891398,"lon":-5.211771,"elevationM":352},{"id":"node:1132414352","kind":"peak","name":"Beinn Tarsuinn","lat":55.5876846,"lon":-5.2733974,"elevationM":341},{"id":"node:1132414353","kind":"peak","name":"Beinn Chóarach","lat":55.5819604,"lon":-5.3082446,"elevationM":279},{"id":"node:1132414361","kind":"peak","name":"Cnoc a'Chapuill","lat":55.5213685,"lon":-5.219839,"elevationM":418},{"id":"node:1132414362","kind":"peak","name":"Sithein","lat":55.5477918,"lon":-5.1728038,"elevationM":373},{"id":"node:1132414363","kind":"peak","name":"A' Chruach","lat":55.5534239,"lon":-5.220354,"elevationM":514},{"id":"node:1132414364","kind":"peak","name":"Ard Beinn","lat":55.5456553,"lon":-5.2584628,"elevationM":512},{"id":"node:1132414365","kind":"peak","name":"Beinn Bhreac","lat":55.5348738,"lon":-5.2404384,"elevationM":503},{"id":"node:1132414370","kind":"peak","name":"Cnoc na Comhairle","lat":55.4697335,"lon":-5.1080875,"elevationM":280},{"id":"node:1132414374","kind":"peak","name":"Tighvein","lat":55.4997892,"lon":-5.1698856,"elevationM":458},{"id":"node:1132414375","kind":"peak","name":"Scrivan","lat":55.5098999,"lon":-5.2672176,"elevationM":339},{"id":"node:1132414383","kind":"peak","name":"Beinn Tarsuinn","lat":55.5025116,"lon":-5.2838687,"elevationM":295},{"id":"node:1132414385","kind":"peak","name":"Cnoc Shieveina","lat":55.5172868,"lon":-5.2424983,"elevationM":399},{"id":"node:1132414387","kind":"peak","name":"Cnoc na Garbad","lat":55.46769,"lon":-5.1267127,"elevationM":293},{"id":"node:1132414394","kind":"peak","name":"Cnocan Donn","lat":55.4725052,"lon":-5.3059151,"elevationM":219},{"id":"node:1132414399","kind":"peak","name":"Cnoc Reamhar","lat":55.4714849,"lon":-5.2893619,"elevationM":225},{"id":"node:1132414404","kind":"peak","name":"The Torr","lat":55.4760578,"lon":-5.2941684,"elevationM":224},{"id":"node:1132414405","kind":"peak","name":"Tòrr Beag","lat":55.4787818,"lon":-5.2328853,"elevationM":240},{"id":"node:1140489183","kind":"peak","name":"Meallan Sidhéin","lat":55.9239229,"lon":-5.1012263,"elevationM":443},{"id":"node:1140489185","kind":"peak","name":"Sgain Dubh","lat":55.9310396,"lon":-5.1015696,"elevationM":451},{"id":"node:1140489186","kind":"peak","name":"Meallan Riabhach","lat":55.9306549,"lon":-5.1177057,"elevationM":484},{"id":"node:1140489187","kind":"peak","name":"Beinn Bhreac","lat":55.9414238,"lon":-5.119079,"elevationM":507},{"id":"node:1140489189","kind":"peak","name":"Toman Dubh","lat":55.9412315,"lon":-5.1467165,"elevationM":295},{"id":"node:1140489191","kind":"peak","name":"Meallan Glaic","lat":55.91262,"lon":-5.0950035,"elevationM":404},{"id":"node:1141845241","kind":"peak","name":"A' Chruach","lat":55.9568384,"lon":-5.1734733,"elevationM":274},{"id":"node:1141845242","kind":"peak","name":"Stuchdan Capuill","lat":55.9619794,"lon":-5.1286697,"elevationM":498},{"id":"node:1141845243","kind":"peak","name":"Cnoc Breamanach","lat":55.9529943,"lon":-5.1461791,"elevationM":391},{"id":"node:1141845244","kind":"peak","name":"Coraddie","lat":55.9478041,"lon":-5.1230048,"elevationM":487},{"id":"node:1141845245","kind":"peak","name":"Ardbeg Hill","lat":55.948573,"lon":-5.1120185,"elevationM":444},{"id":"node:1141845246","kind":"peak","name":"Dun Mór","lat":55.9760534,"lon":-5.1331329,"elevationM":405},{"id":"node:1141845247","kind":"peak","name":"Ceag nam Fitheach","lat":55.9724994,"lon":-5.149784,"elevationM":394},{"id":"node:1141861163","kind":"peak","name":"Glecknabae Hill","lat":55.874775,"lon":-5.1763183,"elevationM":201},{"id":"node:1141861175","kind":"peak","name":"Eanan Hill","lat":55.8630243,"lon":-5.1672202,"elevationM":166},{"id":"node:1141861193","kind":"peak","name":"Muírton Hill","lat":55.8724636,"lon":-5.1234466,"elevationM":256},{"id":"node:1141861197","kind":"peak","name":"Kames Hill","lat":55.8791083,"lon":-5.1153785,"elevationM":269},{"id":"node:1141861200","kind":"peak","name":"Edinbeg Hill","lat":55.8742934,"lon":-5.1102287,"elevationM":248},{"id":"node:1141861229","kind":"peak","name":"North Hill of Bullochreg","lat":55.8999018,"lon":-5.1491958,"elevationM":235},{"id":"node:1141861234","kind":"peak","name":"The Lyeing Hill","lat":55.8873886,"lon":-5.1479942,"elevationM":236},{"id":"node:1141861241","kind":"peak","name":"Toran Túrrach","lat":55.8868109,"lon":-5.1835281,"elevationM":227},{"id":"node:1141861246","kind":"peak","name":"Windy Hill","lat":55.8826937,"lon":-5.1302517,"elevationM":278},{"id":"node:1141861248","kind":"peak","name":"Kilbride Hill","lat":55.8782417,"lon":-5.1493674,"elevationM":256},{"id":"node:1141861261","kind":"peak","name":"Muchlich Hill","lat":55.9070229,"lon":-5.1883346,"elevationM":195},{"id":"node:1141861264","kind":"peak","name":"Barlia Hill","lat":55.9014416,"lon":-5.2108222,"elevationM":105},{"id":"node:1141872787","kind":"peak","name":"Quien Hill","lat":55.7907082,"lon":-5.0964957,"elevationM":109},{"id":"node:1141872795","kind":"peak","name":"Tarmore HIll","lat":55.7835657,"lon":-5.1091987,"elevationM":85},{"id":"node:1141872796","kind":"peak","name":"Covin Hill","lat":55.7401359,"lon":-5.044861,"elevationM":80},{"id":"node:1141872798","kind":"peak","name":"St Blanes Hill","lat":55.7299555,"lon":-5.0331527,"elevationM":123},{"id":"node:1141872800","kind":"peak","name":"Barr Hill","lat":55.7257021,"lon":-5.033496,"elevationM":62},{"id":"node:1141872822","kind":"peak","name":"Barone Hill","lat":55.8219652,"lon":-5.0829345,"elevationM":162},{"id":"node:1141872824","kind":"peak","name":"Barmore HIll","lat":55.8019984,"lon":-5.0875694,"elevationM":143},{"id":"node:1141872827","kind":"peak","name":"Kilmory Hill","lat":55.7995862,"lon":-5.1064521,"elevationM":117},{"id":"node:1141873989","kind":"peak","name":"Suidhe Chatain","lat":55.7485101,"lon":-5.032466,"elevationM":157},{"id":"node:1274020080","kind":"peak","name":"Tòrr Meadhonach","lat":55.7112504,"lon":-5.2577225,"elevationM":332},{"id":"node:1274020106","kind":"peak","name":"Meall nan Leac Sleamhuinn","lat":55.6792294,"lon":-5.3166067,"elevationM":272},{"id":"node:1274020123","kind":"peak","name":"Torr Nead an Eoin","lat":55.6936456,"lon":-5.2613274,"elevationM":325},{"id":"node:1274020140","kind":"peak","name":"Choc Leacainn Duibhe","lat":55.6977045,"lon":-5.3141644,"elevationM":230},{"id":"node:1274020168","kind":"peak","name":"Creagan nan Caorach","lat":55.6900656,"lon":-5.296003,"elevationM":337},{"id":"node:1464050146","kind":"peak","name":"Beinn a' Chliabhain","lat":55.6173576,"lon":-5.224509,"elevationM":680},{"id":"node:1742700102","kind":"peak","name":"Tòm Uaine Mòr","lat":55.9995545,"lon":-5.9676043,"elevationM":156},{"id":"node:1743632113","kind":"peak","name":"Cnoc an Loch","lat":55.9836251,"lon":-5.9450562,"elevationM":137},{"id":"node:1772959358","kind":"peak","name":"Cnoc na h-Uamha","lat":55.9471232,"lon":-5.9581796,"elevationM":216},{"id":"node:1772959363","kind":"peak","name":"Sron Bheithe","lat":55.9445853,"lon":-5.9918125,"elevationM":239},{"id":"node:2008727917","kind":"peak","name":"Cnocna Ceille","lat":55.5646667,"lon":-5.3028515,"elevationM":209},{"id":"node:2008757376","kind":"peak","name":"Garbh  Thorr","lat":55.573113,"lon":-5.2830557,"elevationM":303},{"id":"node:2009124688","kind":"peak","name":"Mullach Mòr","lat":55.5232616,"lon":-5.071225,"elevationM":314},{"id":"node:2009475034","kind":"peak","name":"Torrnam Freumh","lat":55.5853183,"lon":-5.2445375,"elevationM":360},{"id":"node:2010654855","kind":"peak","name":"Beinn Bhiorach","lat":55.6692083,"lon":-5.2802241,"elevationM":486},{"id":"node:2098209216","kind":"peak","name":"Cruach Lagain","lat":55.8346411,"lon":-5.6061532,"elevationM":267},{"id":"node:2104823550","kind":"peak","name":"An Stuchd","lat":55.9645734,"lon":-5.6014797,"elevationM":380},{"id":"node:2104823551","kind":"peak","name":"Cruach nan Lochan","lat":55.945867,"lon":-5.603501,"elevationM":296},{"id":"node:2104954558","kind":"peak","name":"Cruach Lusach","lat":55.9907138,"lon":-5.5522326,"elevationM":466},{"id":"node:2318451959","kind":"peak","name":"Cìoch na h-Oighe","lat":55.6495313,"lon":-5.1809701,"elevationM":661},{"id":"node:2318452007","kind":"peak","name":"North Goatfell","lat":55.6326346,"lon":-5.194648,"elevationM":810},{"id":"node:2329423176","kind":"peak","name":"Cruach Kilfinan","lat":55.9520044,"lon":-5.2747841,"elevationM":325},{"id":"node:2329429546","kind":"peak","name":"Cruach Bhreac","lat":55.8297812,"lon":-5.3755761,"elevationM":351},{"id":"node:2457819745","kind":"peak","name":"Barr Liath","lat":55.9155053,"lon":-5.2490094,"elevationM":276},{"id":"node:2457819749","kind":"peak","name":"Beinn Capuill","lat":55.9310721,"lon":-5.2391824,"elevationM":435},{"id":"node:2457819753","kind":"peak","name":"Cnoc Uaine","lat":55.922549,"lon":-5.2649975,"elevationM":247},{"id":"node:2457819756","kind":"peak","name":"Cnoc Mhic Dhugaill","lat":55.9252006,"lon":-5.2451684,"elevationM":379},{"id":"node:2457819759","kind":"peak","name":"Cnoc an Fhithich","lat":55.9218767,"lon":-5.2268078,"elevationM":298},{"id":"node:2457819761","kind":"peak","name":"Cnoc a' Chaisteil","lat":55.9249626,"lon":-5.2180151,"elevationM":245},{"id":"node:2457819762","kind":"peak","name":"Cnoc a' Chuilinn","lat":55.8886285,"lon":-5.2433428,"elevationM":80},{"id":"node:2457819766","kind":"peak","name":"Cnocan Gharbh Achaidh","lat":55.8989403,"lon":-5.2543993,"elevationM":126},{"id":"node:2457819776","kind":"peak","name":"Cruach Kames","lat":55.8827564,"lon":-5.2489261,"elevationM":180},{"id":"node:2457819780","kind":"peak","name":"Dun Beag","lat":55.9108029,"lon":-5.2340312,"elevationM":163},{"id":"node:2457819784","kind":"peak","name":"Dun Mor","lat":55.9113587,"lon":-5.2321325,"elevationM":164},{"id":"node:2457823042","kind":"peak","name":"Sron Plocach","lat":55.9193383,"lon":-5.2522908,"elevationM":282},{"id":"node:2466269922","kind":"peak","name":"Cnoc Mor","lat":55.8577301,"lon":-5.2815133,"elevationM":107},{"id":"node:2467365634","kind":"peak","name":"Barr na Damh","lat":55.886425,"lon":-5.3085938,"elevationM":172},{"id":"node:2467365635","kind":"peak","name":"Beinn Sitheag","lat":55.8988684,"lon":-5.3200513,"elevationM":213},{"id":"node:2467365636","kind":"peak","name":"Binnein Ban","lat":55.8938779,"lon":-5.287577,"elevationM":210},{"id":"node:2467365637","kind":"peak","name":"Capull Cloch","lat":55.9233728,"lon":-5.2802307,"elevationM":229},{"id":"node:2467365638","kind":"peak","name":"Càrn a' Bhuilg","lat":55.9053155,"lon":-5.3008224,"elevationM":256},{"id":"node:2467365639","kind":"peak","name":"Cnoc Reamhar","lat":55.8931311,"lon":-5.2982801,"elevationM":184},{"id":"node:2467365640","kind":"peak","name":"Cnoc a' Chaisteil","lat":55.8841409,"lon":-5.2940123,"elevationM":141},{"id":"node:2467365641","kind":"peak","name":"Cnoc na Cille","lat":55.8825841,"lon":-5.3184341,"elevationM":72},{"id":"node:2467365642","kind":"peak","name":"Corr Mheall","lat":55.9311974,"lon":-5.3225856,"elevationM":87},{"id":"node:2467365643","kind":"peak","name":"Creag Isle","lat":55.8914554,"lon":-5.2932453,"elevationM":182},{"id":"node:2467365644","kind":"peak","name":"Creag Liath","lat":55.9133749,"lon":-5.3446822,"elevationM":90},{"id":"node:2467365645","kind":"peak","name":"Creag Mhor","lat":55.9101007,"lon":-5.3146678,"elevationM":266},{"id":"node:2467365646","kind":"peak","name":"Creag Mhor","lat":55.9264949,"lon":-5.292523,"elevationM":255},{"id":"node:2467365647","kind":"peak","name":"Creag an Fhasgaidh","lat":55.8995616,"lon":-5.3062392,"elevationM":227},{"id":"node:2467365652","kind":"peak","name":"Inveryne Barr","lat":55.9267273,"lon":-5.3439714,"elevationM":84},{"id":"node:2467367229","kind":"peak","name":"Sron Dubh","lat":55.93333,"lon":-5.2945518,"elevationM":228},{"id":"node:2467367230","kind":"peak","name":"Tom an Uile","lat":55.8968846,"lon":-5.2949356,"elevationM":222},{"id":"node:2467367231","kind":"peak","name":"Torr an Tuirc","lat":55.890926,"lon":-5.3262211,"elevationM":153},{"id":"node:2467788235","kind":"peak","name":"Black Hill","lat":55.912327,"lon":-5.1825993,"elevationM":179},{"id":"node:2467788240","kind":"peak","name":"Creag Croasgach","lat":55.9090481,"lon":-5.1924642,"elevationM":140},{"id":"node:2467788244","kind":"peak","name":"Moss Hill","lat":55.9150566,"lon":-5.1785581,"elevationM":162},{"id":"node:2467789134","kind":"peak","name":"Ronald Hill","lat":55.9132863,"lon":-5.186339,"elevationM":170},{"id":"node:2467789137","kind":"peak","name":"Torran Turach","lat":55.9160713,"lon":-5.193264,"elevationM":127},{"id":"node:2616384340","kind":"peak","name":"Cnoc Reilereidhe","lat":55.6575509,"lon":-5.5003165,"elevationM":158},{"id":"node:2682571607","kind":"peak","name":"Beinn Bhreac","lat":55.9473271,"lon":-5.2355935,"elevationM":453},{"id":"node:2682571615","kind":"peak","name":"Cruach nan Caorach","lat":55.9748084,"lon":-5.2206118,"elevationM":458},{"id":"node:2682571619","kind":"peak","name":"Cruach nam Broighleag","lat":55.972455,"lon":-5.2410095,"elevationM":416},{"id":"node:2682575178","kind":"peak","name":"Cnoc nan Darach","lat":55.9839805,"lon":-5.217994,"elevationM":360},{"id":"node:2682575179","kind":"peak","name":"Cruach Camuillt","lat":55.9846287,"lon":-5.2318985,"elevationM":344},{"id":"node:2682578906","kind":"peak","name":"Cruach nan Tarbh","lat":55.9928828,"lon":-5.2553303,"elevationM":348},{"id":"node:2683133773","kind":"peak","name":"Sròn Albannach","lat":55.6881372,"lon":-5.6098303,"elevationM":233},{"id":"node:2683133774","kind":"peak","name":"Cruach Ruadh","lat":55.6495585,"lon":-5.5193626,"elevationM":180},{"id":"node:2683133775","kind":"peak","name":"Cruach Bhreac","lat":55.7222247,"lon":-5.4659566,"elevationM":225},{"id":"node:2683133776","kind":"peak","name":"Cnoc Reamhar","lat":55.6579832,"lon":-5.5321535,"elevationM":203},{"id":"node:2683133777","kind":"peak","name":"Cnoc Airigh Luachraich","lat":55.6740093,"lon":-5.6150659,"elevationM":248},{"id":"node:2683133778","kind":"peak","name":"Cruach na Seilcheig","lat":55.7112983,"lon":-5.5579714,"elevationM":226},{"id":"node:2683133779","kind":"peak","name":"Cnoc an t-Seallaidh Bhig","lat":55.7347912,"lon":-5.4614934,"elevationM":247},{"id":"node:2683133781","kind":"peak","name":"Cruach Achaidh Ghlais","lat":55.7362457,"lon":-5.5082883,"elevationM":244},{"id":"node:2683133783","kind":"peak","name":"Cruach Talatoll","lat":55.721021,"lon":-5.5149874,"elevationM":242},{"id":"node:2683133784","kind":"peak","name":"Cruach Mhic Gougain","lat":55.6934613,"lon":-5.5757555,"elevationM":248},{"id":"node:2683133785","kind":"peak","name":"Fuar Larach","lat":55.7342113,"lon":-5.4893025,"elevationM":270},{"id":"node:2683133786","kind":"peak","name":"Cnoc a' Bhraidein","lat":55.6866373,"lon":-5.5621942,"elevationM":240},{"id":"node:2683133787","kind":"peak","name":"Cnoc Donn","lat":55.7174871,"lon":-5.5971102,"elevationM":200},{"id":"node:2868297959","kind":"peak","name":"Cnoc a' Choire Mhòir","lat":55.5731079,"lon":-5.3285372,"elevationM":175},{"id":"node:2868299482","kind":"peak","name":"Cnoc Dubh","lat":55.5667506,"lon":-5.2092196,"elevationM":425},{"id":"node:2931078343","kind":"peak","name":"Tòrr Mòr","lat":55.6019553,"lon":-5.4791131,"elevationM":139},{"id":"node:2935809495","kind":"peak","name":"The Ross","lat":55.5274461,"lon":-5.1653732,"elevationM":311},{"id":"node:2935812748","kind":"peak","name":"Clauchland Hills","lat":55.5583473,"lon":-5.1198868,"elevationM":260},{"id":"node:3264148961","kind":"peak","name":"Barr Lolaich","lat":55.8745176,"lon":-5.2907356,"elevationM":116},{"id":"node:3264148962","kind":"peak","name":"Creag an Fhithich","lat":55.909626,"lon":-5.2761873,"elevationM":185},{"id":"node:3264164323","kind":"peak","name":"Creag Rubha Bhain","lat":55.921508,"lon":-5.2115096,"elevationM":157},{"id":"node:3264164324","kind":"peak","name":"Torr Buidhe","lat":55.9740918,"lon":-5.2003414,"elevationM":114},{"id":"node:3264164326","kind":"peak","name":"Creagan Dubh","lat":55.9494871,"lon":-5.2121962,"elevationM":305},{"id":"node:3264164327","kind":"peak","name":"Creag Geire","lat":55.972044,"lon":-5.2093252,"elevationM":353},{"id":"node:3264164328","kind":"peak","name":"Cruach an Sgalaig","lat":55.9373263,"lon":-5.2798984,"elevationM":270},{"id":"node:3264164329","kind":"peak","name":"Creag Mheadhonach","lat":55.9689579,"lon":-5.2188298,"elevationM":395},{"id":"node:3264164330","kind":"peak","name":"Cnoc Arach nam Muc","lat":55.9365331,"lon":-5.2353093,"elevationM":398},{"id":"node:3264164331","kind":"peak","name":"Carnan Eoin Mhaoil","lat":55.9605089,"lon":-5.2240934,"elevationM":430},{"id":"node:3264164332","kind":"peak","name":"Conc Dubh","lat":55.9344057,"lon":-5.2589771,"elevationM":331},{"id":"node:3455684120","kind":"peak","name":"Torr nan Uain","lat":55.4360563,"lon":-5.1986779,"elevationM":82},{"id":"node:3626678770","kind":"peak","name":"Cnoc an Sgolaidh","lat":55.838073,"lon":-5.5124803,"elevationM":198},{"id":"node:3626681820","kind":"peak","name":"Cruach Brenfield","lat":55.9967027,"lon":-5.483167,"elevationM":318},{"id":"node:3626681824","kind":"peak","name":"Cnoc a'Bharaille","lat":55.895338,"lon":-5.5172417,"elevationM":473},{"id":"node:3626681825","kind":"peak","name":"Garadh Liath","lat":55.872569,"lon":-5.4254437,"elevationM":179},{"id":"node:3626681826","kind":"peak","name":"An Creachan","lat":55.8767101,"lon":-5.4858728,"elevationM":241},{"id":"node:3626681828","kind":"peak","name":"Cruach Mheadhonach","lat":55.9766575,"lon":-5.4934237,"elevationM":226},{"id":"node:3626681829","kind":"peak","name":"Cnoc an Fhreacadain","lat":55.8311345,"lon":-5.4183197,"elevationM":237},{"id":"node:3626681833","kind":"peak","name":"Cruach an t-Sorchain","lat":55.8370151,"lon":-5.3931713,"elevationM":355},{"id":"node:3626681839","kind":"peak","name":"An Gobhlach","lat":55.9161709,"lon":-5.5300734,"elevationM":408},{"id":"node:3626681840","kind":"peak","name":"Cruach a'Phubuill","lat":55.9308134,"lon":-5.4899476,"elevationM":477},{"id":"node:3626681843","kind":"peak","name":"Cnoc nam Muc","lat":55.990821,"lon":-5.474968,"elevationM":255},{"id":"node:3626681844","kind":"peak","name":"Barr Hill","lat":55.8848945,"lon":-5.4155731,"elevationM":118},{"id":"node:3626681845","kind":"peak","name":"Doire Chreagach","lat":55.8993551,"lon":-5.5412314,"elevationM":473},{"id":"node:3626681847","kind":"peak","name":"Creag a' Mhadaidh","lat":55.9879177,"lon":-5.5230353,"elevationM":331},{"id":"node:3626681849","kind":"peak","name":"Meall Dubh","lat":55.9464849,"lon":-5.4466439,"elevationM":264},{"id":"node:3626681850","kind":"peak","name":"Cruach Chaorainn Beaga","lat":55.8574915,"lon":-5.4883619,"elevationM":234},{"id":"node:3626681856","kind":"peak","name":"Meall Reamhar","lat":55.8731445,"lon":-5.4629517,"elevationM":329},{"id":"node:3626681857","kind":"peak","name":"Bad na Curra","lat":55.9278094,"lon":-5.4514075,"elevationM":314},{"id":"node:3626683299","kind":"peak","name":"Cnoc an Tigh Odhair","lat":55.8444851,"lon":-5.469389,"elevationM":95},{"id":"node:3626683300","kind":"peak","name":"Cruach Gar dhoire","lat":55.8652008,"lon":-5.4590893,"elevationM":247},{"id":"node:3626683301","kind":"peak","name":"Cruach nam Fad","lat":55.8639967,"lon":-5.5113645,"elevationM":338},{"id":"node:3626683937","kind":"peak","name":"Cruach an Locha","lat":55.8346991,"lon":-5.543551,"elevationM":319},{"id":"node:3626689639","kind":"peak","name":"Barr Mòr","lat":55.8275647,"lon":-5.4857869,"elevationM":102},{"id":"node:3626693111","kind":"peak","name":"An Saobhadh","lat":55.842943,"lon":-5.5556531,"elevationM":336},{"id":"node:3626693113","kind":"peak","name":"Meall Reamhar","lat":55.857253,"lon":-5.5510183,"elevationM":477},{"id":"node:3626693114","kind":"peak","name":"Beinn Bhreac","lat":55.8505058,"lon":-5.5768533,"elevationM":376},{"id":"node:3626745389","kind":"peak","name":"Cnoc a'Phrop","lat":55.9021713,"lon":-5.585563,"elevationM":239},{"id":"node:3626920553","kind":"peak","name":"Dubh Chreag","lat":55.8742998,"lon":-5.5326518,"elevationM":481},{"id":"node:3626920554","kind":"peak","name":"Dìollaid Mhòr","lat":55.8513245,"lon":-5.6171908,"elevationM":272},{"id":"node:3626920555","kind":"peak","name":"Cnoc na h-Eilde","lat":55.882702,"lon":-5.6158808,"elevationM":180},{"id":"node:3626920557","kind":"peak","name":"Cnoc na Mòine Gile","lat":55.8727589,"lon":-5.5980956,"elevationM":245},{"id":"node:3626935755","kind":"peak","name":"Cruach Doire Lèithe","lat":55.8214918,"lon":-5.3857097,"elevationM":377},{"id":"node:3626935756","kind":"peak","name":"Cnoc an Tobair","lat":55.8060568,"lon":-5.4313673,"elevationM":346},{"id":"node:3626935757","kind":"peak","name":"Cnoc na Caorach","lat":55.8139668,"lon":-5.4392638,"elevationM":258},{"id":"node:3626951984","kind":"peak","name":"Cruach na Gaibhre","lat":55.858746,"lon":-5.6250786,"elevationM":265},{"id":"node:3626951985","kind":"peak","name":"Cnoc Bealach Sithe","lat":55.8045614,"lon":-5.6343483,"elevationM":182},{"id":"node:3626951986","kind":"peak","name":"Bàrr na Cour","lat":55.7914891,"lon":-5.5450115,"elevationM":86},{"id":"node:3626951987","kind":"peak","name":"Bad Bheith","lat":55.8023448,"lon":-5.5289611,"elevationM":113},{"id":"node:3626951988","kind":"peak","name":"Cruach Lagain","lat":55.8292058,"lon":-5.5430374,"elevationM":302},{"id":"node:3626951989","kind":"peak","name":"Cruach a'Bhaisleir","lat":55.8039826,"lon":-5.6195854,"elevationM":161},{"id":"node:3626951990","kind":"peak","name":"Cruach an Fhreacadain","lat":55.8304086,"lon":-5.5933341,"elevationM":226},{"id":"node:3626951991","kind":"peak","name":"Ardminish Hill","lat":55.7822231,"lon":-5.6116976,"elevationM":77},{"id":"node:3626951992","kind":"peak","name":"Cnocan Imheir","lat":55.8216847,"lon":-5.6302285,"elevationM":156},{"id":"node:3626953293","kind":"peak","name":"Cnoc an Daimh","lat":55.767883,"lon":-5.6039728,"elevationM":81},{"id":"node:3626953294","kind":"peak","name":"Cruach Airde","lat":55.8088568,"lon":-5.6240486,"elevationM":215},{"id":"node:3626953295","kind":"peak","name":"Cnoc a'Bhior","lat":55.8020023,"lon":-5.612719,"elevationM":116},{"id":"node:3626953296","kind":"peak","name":"Cnoc a' Bharra Leathain","lat":55.8003162,"lon":-5.5566844,"elevationM":97},{"id":"node:3626953299","kind":"peak","name":"Cruach nan Duarman","lat":55.8149337,"lon":-5.6117834,"elevationM":189},{"id":"node:3626953300","kind":"peak","name":"Cruach an Seallaidh","lat":55.8179236,"lon":-5.5600318,"elevationM":272},{"id":"node:3626953301","kind":"peak","name":"Meall nan Caorach","lat":55.812327,"lon":-5.5475864,"elevationM":187},{"id":"node:3626953302","kind":"peak","name":"Cnoc na Cairs","lat":55.8091438,"lon":-5.5920467,"elevationM":137},{"id":"node:3626953303","kind":"peak","name":"Cruach a' Bhàillidh","lat":55.819756,"lon":-5.5824336,"elevationM":214},{"id":"node:3626953304","kind":"peak","name":"Creag Mhòr","lat":55.8158982,"lon":-5.5261287,"elevationM":174},{"id":"node:3626953305","kind":"peak","name":"Am Binneag","lat":55.8006081,"lon":-5.6408715,"elevationM":162},{"id":"node:3626970272","kind":"peak","name":"Creag Loisgte","lat":55.7281276,"lon":-5.5729064,"elevationM":201},{"id":"node:3626970276","kind":"peak","name":"Cruach nam Fiadh","lat":55.7545568,"lon":-5.475656,"elevationM":270},{"id":"node:3626970287","kind":"peak","name":"Cruach Tarsuinn","lat":55.799788,"lon":-5.3914561,"elevationM":303},{"id":"node:3626972396","kind":"peak","name":"Cruach na Lùib","lat":55.7646394,"lon":-5.5391557,"elevationM":169},{"id":"node:3626972397","kind":"peak","name":"Cnoc an t-Suidhe","lat":55.7729066,"lon":-5.3751525,"elevationM":215},{"id":"node:3626972403","kind":"peak","name":"Cnoc Creagain","lat":55.7556315,"lon":-5.4143986,"elevationM":159},{"id":"node:3626972404","kind":"peak","name":"Cnoc Creagach","lat":55.7450405,"lon":-5.4408087,"elevationM":215},{"id":"node:3626972409","kind":"peak","name":"An Coire","lat":55.7778789,"lon":-5.382019,"elevationM":234},{"id":"node:3626972414","kind":"peak","name":"Cruach na Caol-bheinn","lat":55.7843926,"lon":-5.3892245,"elevationM":264},{"id":"node:3626972416","kind":"peak","name":"Cnoc na Mèine","lat":55.7886878,"lon":-5.3420219,"elevationM":254},{"id":"node:3626972417","kind":"peak","name":"Cnoc na h-Eireige","lat":55.7649376,"lon":-5.3813323,"elevationM":183},{"id":"node:3626972423","kind":"peak","name":"Cruach na Machrach","lat":55.8181792,"lon":-5.367196,"elevationM":346},{"id":"node:3626972428","kind":"peak","name":"Meall Donn","lat":55.8004296,"lon":-5.3740625,"elevationM":282},{"id":"node:3626972434","kind":"peak","name":"Mullach Dubh","lat":55.7429751,"lon":-5.5327634,"elevationM":170},{"id":"node:3626972435","kind":"peak","name":"Cnoc an t-Sabhail","lat":55.7619944,"lon":-5.4190935,"elevationM":164},{"id":"node:3626972437","kind":"peak","name":"Guallann Mhòr","lat":55.8121028,"lon":-5.3496007,"elevationM":303},{"id":"node:3626972439","kind":"peak","name":"Sheirdrim Hill","lat":55.767947,"lon":-5.5119902,"elevationM":186},{"id":"node:3627024411","kind":"peak","name":"Cnoc Iaruinn","lat":55.6711002,"lon":-5.4938521,"elevationM":203},{"id":"node:3627024491","kind":"peak","name":"Cnoc na Buaile Salaich","lat":55.6899247,"lon":-5.4823937,"elevationM":214},{"id":"node:3627029515","kind":"peak","name":"Beinn Bhreac","lat":55.671704,"lon":-5.516256,"elevationM":244},{"id":"node:3627029530","kind":"peak","name":"Cnoc Laoighscan","lat":55.6991654,"lon":-5.5336818,"elevationM":226},{"id":"node:3627029549","kind":"peak","name":"Cnoc Dubh","lat":55.6897299,"lon":-5.4560007,"elevationM":79},{"id":"node:3627029556","kind":"peak","name":"Creag Loisgte Dunultach","lat":55.7373098,"lon":-5.5661258,"elevationM":159},{"id":"node:3627029997","kind":"peak","name":"Dùn Ronachain","lat":55.7413807,"lon":-5.5893258,"elevationM":95},{"id":"node:3627073550","kind":"peak","name":"Cruach na Casaich","lat":55.6406086,"lon":-5.5114753,"elevationM":188},{"id":"node:3627073551","kind":"peak","name":"Deucheran Hill","lat":55.6402695,"lon":-5.5580813,"elevationM":330},{"id":"node:3627073552","kind":"peak","name":"Meall Buidhe","lat":55.6156522,"lon":-5.525118,"elevationM":261},{"id":"node:3627073554","kind":"peak","name":"Cnoc na Dippen","lat":55.5771828,"lon":-5.4984869,"elevationM":149},{"id":"node:3627073555","kind":"peak","name":"Cnoc Eoghainn","lat":55.5573332,"lon":-5.6203579,"elevationM":291},{"id":"node:3627073556","kind":"peak","name":"Cnoc Breac","lat":55.5799459,"lon":-5.5098209,"elevationM":188},{"id":"node:3627073558","kind":"peak","name":"Cruach nan Gabhar","lat":55.6191929,"lon":-5.574048,"elevationM":354},{"id":"node:3627073559","kind":"peak","name":"Cnoc Odhar Auchaluskin","lat":55.6340043,"lon":-5.644648,"elevationM":243},{"id":"node:3627073560","kind":"peak","name":"Cnoc a' Mhadaidh","lat":55.5525246,"lon":-5.5470714,"elevationM":257},{"id":"node:3627073562","kind":"peak","name":"Tòrr a' Ghobhainn","lat":55.571457,"lon":-5.5283603,"elevationM":251},{"id":"node:3627073563","kind":"peak","name":"Cnoc Reamhar","lat":55.6286175,"lon":-5.5007872,"elevationM":129},{"id":"node:3627073564","kind":"peak","name":"Cruach Mhic an t-Saoir","lat":55.6276108,"lon":-5.5865535,"elevationM":364},{"id":"node:3627073566","kind":"peak","name":"Cnoc Dubh","lat":55.6574129,"lon":-5.4848656,"elevationM":154},{"id":"node:3627073567","kind":"peak","name":"Cnoc nan Craobh","lat":55.6524277,"lon":-5.6030588,"elevationM":322},{"id":"node:3627073568","kind":"peak","name":"Clach a' Bhealaich","lat":55.5829538,"lon":-5.5501613,"elevationM":397},{"id":"node:3627073569","kind":"peak","name":"Cnocmalacilach","lat":55.5601608,"lon":-5.5293302,"elevationM":271},{"id":"node:3627073570","kind":"peak","name":"Kirnashie Hill","lat":55.6180527,"lon":-5.4951653,"elevationM":163},{"id":"node:3627073571","kind":"peak","name":"Meall Donn","lat":55.5814523,"lon":-5.5283603,"elevationM":347},{"id":"node:3627073572","kind":"peak","name":"Diollaid Mhòr","lat":55.600041,"lon":-5.5351667,"elevationM":362},{"id":"node:3627073573","kind":"peak","name":"Cnoc nan Gabhar","lat":55.5999695,"lon":-5.4902729,"elevationM":230},{"id":"node:3627073575","kind":"peak","name":"Blary Hill","lat":55.5682177,"lon":-5.6256236,"elevationM":272},{"id":"node:3627289622","kind":"peak","name":"Knock Scalbart","lat":55.4407729,"lon":-5.5904549,"elevationM":216},{"id":"node:3627289625","kind":"peak","name":"Knock Ruan","lat":55.4470276,"lon":-5.5805007,"elevationM":181},{"id":"node:3627289627","kind":"peak","name":"Balegreggan Hill","lat":55.4370225,"lon":-5.6053755,"elevationM":124},{"id":"node:3627806851","kind":"peak","name":"Eden Hill","lat":55.3362771,"lon":-5.6116052,"elevationM":151},{"id":"node:3627806852","kind":"peak","name":"Kerran Hill","lat":55.3616611,"lon":-5.5761872,"elevationM":241},{"id":"node:3631552844","kind":"peak","name":"Druim Mòr","lat":55.969402,"lon":-5.6701078,"elevationM":53},{"id":"node:3631552845","kind":"peak","name":"Druim Buidhe","lat":55.9726441,"lon":-5.6840124,"elevationM":93},{"id":"node:3631552848","kind":"peak","name":"Bar Thormaid","lat":55.9871476,"lon":-5.6724681,"elevationM":130},{"id":"node:3631628985","kind":"peak","name":"Clach-dhruim Mòr","lat":55.943431,"lon":-5.6391696,"elevationM":291},{"id":"node:3631628987","kind":"peak","name":"Cnoc Mòine","lat":55.9011072,"lon":-5.6654338,"elevationM":93},{"id":"node:3631628988","kind":"peak","name":"Cnoc Stighseir","lat":55.9304004,"lon":-5.655735,"elevationM":241},{"id":"node:3631628989","kind":"peak","name":"Sidhean Buidhe","lat":55.9069316,"lon":-5.6488685,"elevationM":141},{"id":"node:3631628991","kind":"peak","name":"Cruach nam Fiadh","lat":55.9314582,"lon":-5.6275825,"elevationM":229},{"id":"node:3631628992","kind":"peak","name":"Sidhean Rèidh","lat":55.9133275,"lon":-5.6431179,"elevationM":152},{"id":"node:3631633793","kind":"peak","name":"Druim Buidhe","lat":55.9494844,"lon":-5.6274108,"elevationM":309},{"id":"node:3636155283","kind":"peak","name":"Cnoc Donn","lat":55.5792217,"lon":-5.5697305,"elevationM":405},{"id":"node:3636155290","kind":"peak","name":"Cnoc an t-Seilich","lat":55.6004907,"lon":-5.5995567,"elevationM":248},{"id":"node:3636158194","kind":"peak","name":"A' Chruach","lat":55.5286585,"lon":-5.5471914,"elevationM":343},{"id":"node:3636158206","kind":"peak","name":"Cruach Muasdail","lat":55.5886523,"lon":-5.6689079,"elevationM":199},{"id":"node:3636158255","kind":"peak","name":"Cnoc Buidhe","lat":55.5162153,"lon":-5.6522567,"elevationM":312},{"id":"node:3636158274","kind":"peak","name":"Cnoc na Selig","lat":55.6060134,"lon":-5.6277091,"elevationM":251},{"id":"node:3636158291","kind":"peak","name":"Cnoc Reamhar","lat":55.5559314,"lon":-5.6404636,"elevationM":311},{"id":"node:3636189516","kind":"peak","name":"A' Chruach","lat":55.4610481,"lon":-5.6201131,"elevationM":202},{"id":"node:3636206186","kind":"peak","name":"Cnoc nan Gabhar","lat":55.3700918,"lon":-5.6820786,"elevationM":239},{"id":"node:3636206187","kind":"peak","name":"Sliabh a' Bhiorain","lat":55.3472583,"lon":-5.7920191,"elevationM":357},{"id":"node:3636206188","kind":"peak","name":"Gartloskan Hill","lat":55.364915,"lon":-5.6241569,"elevationM":189},{"id":"node:3725861723","kind":"peak","name":"Binnein Fithich","lat":55.3703967,"lon":-5.7876797,"elevationM":361},{"id":"node:3784604829","kind":"peak","name":"Meall a'Ghlamaidh","lat":55.6787643,"lon":-5.7677153,"elevationM":79},{"id":"node:3784604831","kind":"peak","name":"Creag Bhan","lat":55.6952432,"lon":-5.743694,"elevationM":100},{"id":"node:3784604832","kind":"peak","name":"Cnoc Coille Bharr","lat":55.6752948,"lon":-5.7477796,"elevationM":69},{"id":"node:3784604833","kind":"peak","name":"Cnoc Largie","lat":55.7019677,"lon":-5.7314753,"elevationM":68},{"id":"node:3784620722","kind":"peak","name":"Eilean Garbh","lat":55.7238216,"lon":-5.7391793,"elevationM":49},{"id":"node:3784620723","kind":"peak","name":"Cnoc nan Gobhar","lat":55.7221672,"lon":-5.7261726,"elevationM":50},{"id":"node:3784620724","kind":"peak","name":"Cnoc an t-Sabhail","lat":55.7201257,"lon":-5.7253651,"elevationM":45},{"id":"node:3800442765","kind":"peak","name":"Clachan","lat":55.6837805,"lon":-5.2400343,"elevationM":311},{"id":"node:3922892372","kind":"peak","name":"Hill of Ascog","lat":55.8271405,"lon":-5.0337208,"elevationM":null},{"id":"node:4003877975","kind":"peak","name":"Ardnagave Hill","lat":55.8970538,"lon":-5.1937171,"elevationM":161},{"id":"node:4003877976","kind":"peak","name":"Badia Hill","lat":55.902517,"lon":-5.1917046,"elevationM":170},{"id":"node:4003877978","kind":"peak","name":"Cock's Hill","lat":55.8880779,"lon":-5.1747658,"elevationM":203},{"id":"node:4003877979","kind":"peak","name":"Corval Hill","lat":55.9083168,"lon":-5.2082587,"elevationM":81},{"id":"node:4003877981","kind":"peak","name":"Craw Hill","lat":55.8158306,"lon":-5.0887194,"elevationM":141},{"id":"node:4003877982","kind":"peak","name":"Cretriach Hill","lat":55.8940625,"lon":-5.2056492,"elevationM":92},{"id":"node:4003877985","kind":"peak","name":"Kerryfearn Hill","lat":55.8067336,"lon":-5.098608,"elevationM":137},{"id":"node:4003881089","kind":"peak","name":"South Hill of Bullochreg","lat":55.8972258,"lon":-5.1447276,"elevationM":233},{"id":"node:4003881090","kind":"peak","name":"Split Craig Hill","lat":55.9021499,"lon":-5.2048012,"elevationM":142},{"id":"node:4003881092","kind":"peak","name":"Tawnie Hill","lat":55.8071358,"lon":-5.0887361,"elevationM":121},{"id":"node:4003881093","kind":"peak","name":"Torachapple Hill","lat":55.8897569,"lon":-5.1926429,"elevationM":155},{"id":"node:4003881094","kind":"peak","name":"White Hill","lat":55.8900808,"lon":-5.1778879,"elevationM":202},{"id":"node:4003881095","kind":"peak","name":"White Sheet Hill","lat":55.9044721,"lon":-5.1582352,"elevationM":191},{"id":"node:4140623619","kind":"peak","name":"Meall Righ Mòr","lat":55.9816787,"lon":-5.9836858,"elevationM":124},{"id":"node:4140816716","kind":"peak","name":"Sight Hill","lat":55.9069234,"lon":-5.1734099,"elevationM":179},{"id":"node:4140853579","kind":"peak","name":"Cnocanallt","lat":55.8943643,"lon":-5.1415667,"elevationM":236},{"id":"node:4140859245","kind":"peak","name":"Tòrr Mòr","lat":55.7333659,"lon":-5.0170114,"elevationM":146},{"id":"node:5952131728","kind":"peak","name":"Dun Dubh","lat":55.5611733,"lon":-5.1119923,"elevationM":225},{"id":"node:6289945556","kind":"peak","name":"Buachailean","lat":55.8887866,"lon":-5.0044336,"elevationM":346},{"id":"node:8412609808","kind":"peak","name":"Haystack Rock","lat":55.7766925,"lon":-5.1101153,"elevationM":20},{"id":"node:9167512800","kind":"peak","name":"An Tunna","lat":55.6739604,"lon":-5.2187064,"elevationM":null},{"id":"node:9167607049","kind":"peak","name":"An Cnap","lat":55.6678459,"lon":-5.1620769,"elevationM":53},{"id":"node:9167607055","kind":"peak","name":"Cnocan Donna","lat":55.6662907,"lon":-5.1919674,"elevationM":292},{"id":"node:9167607056","kind":"peak","name":"Tòrr nan Gobhar","lat":55.6683239,"lon":-5.1845216,"elevationM":253},{"id":"node:9167607075","kind":"peak","name":"Tòrr na Làir Brice","lat":55.6789982,"lon":-5.1911199,"elevationM":233},{"id":"node:9167607076","kind":"peak","name":"Tòrr Reamhar","lat":55.6820106,"lon":-5.1851975,"elevationM":261},{"id":"node:9494977442","kind":"peak","name":"Torr Dubh Mòr","lat":55.4678766,"lon":-5.1832724,"elevationM":197},{"id":"node:9569867653","kind":"peak","name":"Mullach Buidhe","lat":55.633135,"lon":-5.3346618,"elevationM":721},{"id":"node:9904713414","kind":"peak","name":"Maol Donn","lat":55.6182347,"lon":-5.1474822,"elevationM":null},{"id":"node:10726312143","kind":"peak","name":"Cnoc Sabhail","lat":55.4208471,"lon":-5.7368802,"elevationM":null},{"id":"node:10925273876","kind":"peak","name":"A'Chir","lat":55.6303688,"lon":-5.2316192,"elevationM":745},{"id":"node:12065081521","kind":"peak","name":"The Doon","lat":55.511033,"lon":-5.3497426,"elevationM":null},{"id":"node:12840581393","kind":"peak","name":"Tòrr Breac","lat":55.7140991,"lon":-5.2528688,"elevationM":292},{"id":"node:12840581411","kind":"peak","name":"Cnoc nan Sgrath","lat":55.7127703,"lon":-5.2725792,"elevationM":272},{"id":"node:12840581412","kind":"peak","name":"Cnoc a' Chuil","lat":55.7166246,"lon":-5.267206,"elevationM":232},{"id":"node:13119068423","kind":"peak","name":"Tòrr a' Bheannain","lat":55.458032,"lon":-5.1671334,"elevationM":null},{"id":"node:13256101482","kind":"peak","name":"Cnoc nan Cnamhag","lat":55.8224876,"lon":-5.5055167,"elevationM":null},{"id":"node:13256101483","kind":"peak","name":"Cnoc Buidhe","lat":55.8250249,"lon":-5.5050163,"elevationM":null},{"id":"node:13256101484","kind":"peak","name":"Cnoc Odhar","lat":55.8263186,"lon":-5.4990579,"elevationM":null},{"id":"node:13363696123","kind":"peak","name":"Cnoc Breac","lat":55.8278358,"lon":-5.608939,"elevationM":null},{"id":"node:13680728599","kind":"peak","name":"Finen (Am Fionnan)","lat":55.0061343,"lon":-5.1388403,"elevationM":47}]}