{"tileKey":"la_p32_lo_m93","version":"v1-1775891056926","entries":[{"id":"node:358367118","kind":"peak","name":"Gentry Hill","lat":32.410154,"lon":-92.8976572,"elevationM":149},{"id":"node:358368266","kind":"peak","name":"Jordan Mountain","lat":32.39821,"lon":-92.9259914,"elevationM":144},{"id":"node:358369554","kind":"peak","name":"Mossy Hill","lat":32.4582092,"lon":-92.9546034,"elevationM":140},{"id":"node:358375565","kind":"peak","name":"Driskill Mountain","lat":32.4248283,"lon":-92.8966233,"elevationM":163},{"id":"node:358377200","kind":"peak","name":"Buckenham Hill","lat":32.479039,"lon":-92.5632026,"elevationM":82},{"id":"node:358377210","kind":"peak","name":"Cane Hill","lat":32.1895981,"lon":-92.0648569,"elevationM":20},{"id":"node:358383456","kind":"peak","name":"Pargoud Indian Mound","lat":32.5465319,"lon":-92.124579,"elevationM":22},{"id":"node:13358542225","kind":"peak","name":"False Mountain","lat":32.4207828,"lon":-92.8967188,"elevationM":157}]}