{"tileKey":"la_p36_lo_m115","version":"v1-1775891056926","entries":[{"id":"node:297530806","kind":"peak","name":"Frenchman Mountain","lat":36.1791561,"lon":-114.9976303,"elevationM":1236},{"id":"node:305856965","kind":"volcano","name":"Black Cone","lat":36.1484448,"lon":-114.9374186,"elevationM":null},{"id":"node:357544602","kind":"peak","name":"Million Hills","lat":36.2474848,"lon":-114.0471833,"elevationM":623},{"id":"node:357544634","kind":"peak","name":"Lava Bed","lat":36.3616494,"lon":-114.0519068,"elevationM":857},{"id":"node:357544968","kind":"peak","name":"Baseline Mesa","lat":36.4483092,"lon":-114.4774805,"elevationM":720},{"id":"node:357545012","kind":"peak","name":"Bearing Peak","lat":36.1616462,"lon":-114.6222039,"elevationM":660},{"id":"node:357545188","kind":"peak","name":"Black Butte","lat":36.4977562,"lon":-114.1977465,"elevationM":820},{"id":"node:357545315","kind":"peak","name":"Black Mesa","lat":36.1563665,"lon":-114.7655427,"elevationM":671},{"id":"node:357545322","kind":"peak","name":"Black Mountain","lat":36.0066459,"lon":-114.8522087,"elevationM":1099},{"id":"node:357545614","kind":"peak","name":"Blue Point","lat":36.3905331,"lon":-114.4408115,"elevationM":639},{"id":"node:357545627","kind":"peak","name":"Bonelli Peak","lat":36.1488731,"lon":-114.2496901,"elevationM":1601},{"id":"node:357545658","kind":"peak","name":"Boulder Peak","lat":36.172202,"lon":-114.5819247,"elevationM":841},{"id":"node:357546463","kind":"peak","name":"Delmar Butte","lat":36.0647799,"lon":-114.2873358,"elevationM":478},{"id":"node:357546845","kind":"peak","name":"Flat Top Mesa","lat":36.8638635,"lon":-114.1235821,"elevationM":789},{"id":"node:357546912","kind":"peak","name":"Gold Butte","lat":36.2730385,"lon":-114.184689,"elevationM":1529},{"id":"node:357547003","kind":"peak","name":"Guardian Peak","lat":36.1594247,"lon":-114.5602569,"elevationM":813},{"id":"node:357547039","kind":"peak","name":"Hamblin Mountain","lat":36.1785899,"lon":-114.6474831,"elevationM":983},{"id":"node:357547457","kind":"peak","name":"Jumbo Peak","lat":36.2060951,"lon":-114.1807993,"elevationM":1736},{"id":"node:357547617","kind":"peak","name":"Lava Butte","lat":36.1487079,"lon":-114.9373194,"elevationM":863},{"id":"node:357547776","kind":"peak","name":"Lone Mesa","lat":36.9360859,"lon":-114.0794148,"elevationM":806},{"id":"node:357548073","kind":"peak","name":"Mica Peak","lat":36.2658167,"lon":-114.1560767,"elevationM":1719},{"id":"node:357548137","kind":"peak","name":"Moapa Peak","lat":36.8585835,"lon":-114.4508169,"elevationM":1955},{"id":"node:357548232","kind":"peak","name":"Mormon Mesa","lat":36.5121982,"lon":-114.3758099,"elevationM":577},{"id":"node:357548243","kind":"peak","name":"Mormon Peak","lat":36.9741386,"lon":-114.5002653,"elevationM":2254},{"id":"node:357548275","kind":"peak","name":"Mud Hills","lat":36.426925,"lon":-114.1257991,"elevationM":726},{"id":"node:357548281","kind":"peak","name":"Muddy Peak","lat":36.2983091,"lon":-114.6938771,"elevationM":1590},{"id":"node:357548504","kind":"peak","name":"Overton Mesa","lat":36.5219192,"lon":-114.466092,"elevationM":487},{"id":"node:357548725","kind":"peak","name":"Piute Point","lat":36.4406184,"lon":-114.6580035,"elevationM":817},{"id":"node:357548787","kind":"peak","name":"Powell Mountain","lat":36.1227631,"lon":-114.1366302,"elevationM":777},{"id":"node:357548827","kind":"peak","name":"Promontory Point","lat":36.0297026,"lon":-114.7383162,"elevationM":678},{"id":"node:357548859","kind":"peak","name":"Pyramid Peak","lat":36.1869245,"lon":-114.5416456,"elevationM":886},{"id":"node:357549324","kind":"peak","name":"Scanlon Hill","lat":36.0899856,"lon":-114.1496859,"elevationM":428},{"id":"node:357549819","kind":"peak","name":"Table Mountain","lat":36.7627469,"lon":-114.8286102,"elevationM":696},{"id":"node:357549989","kind":"peak","name":"The Summit","lat":36.9046946,"lon":-114.3366468,"elevationM":1139},{"id":"node:357550316","kind":"peak","name":"Virgin Peak","lat":36.6027555,"lon":-114.1116336,"elevationM":2422},{"id":"node:357550900","kind":"peak","name":"Billy Goat Peak","lat":36.512202,"lon":-114.0646866,"elevationM":1738},{"id":"node:357550963","kind":"peak","name":"Boundary Hill","lat":36.2016519,"lon":-114.0469053,"elevationM":528},{"id":"node:357551060","kind":"peak","name":"Davidson Peak","lat":36.8958058,"lon":-114.3249796,"elevationM":1608},{"id":"node:357551064","kind":"peak","name":"Dead Man Hill","lat":36.7591357,"lon":-114.8361105,"elevationM":651},{"id":"node:357551090","kind":"peak","name":"Echo Hills","lat":36.2513683,"lon":-114.5088678,"elevationM":840},{"id":"node:357551203","kind":"peak","name":"Gregg Peak","lat":36.1110963,"lon":-114.173298,"elevationM":754},{"id":"node:357551426","kind":"peak","name":"Quail Point","lat":36.5299791,"lon":-114.1002435,"elevationM":1232},{"id":"node:357551443","kind":"peak","name":"Rattlesnake Peak","lat":36.1949838,"lon":-114.2158006,"elevationM":1473},{"id":"node:357551511","kind":"peak","name":"Saddle Mountain","lat":36.1819245,"lon":-114.5452568,"elevationM":703},{"id":"node:357551540","kind":"peak","name":"Silica Dome","lat":36.4517944,"lon":-114.498844,"elevationM":681},{"id":"node:357551625","kind":"peak","name":"The Haystacks","lat":36.086929,"lon":-114.2960798,"elevationM":405},{"id":"node:357551637","kind":"peak","name":"Thumb Knob","lat":36.2294293,"lon":-114.0530168,"elevationM":634},{"id":"node:357552217","kind":"peak","name":"Virgin Hill","lat":36.7646959,"lon":-114.223583,"elevationM":551},{"id":"node:357552999","kind":"peak","name":"Little Virgin Peak","lat":36.6030319,"lon":-114.2238593,"elevationM":1077},{"id":"node:357553002","kind":"peak","name":"Beehive Rock","lat":36.4091423,"lon":-114.5502615,"elevationM":783},{"id":"node:357554890","kind":"peak","name":"Garrett Butte","lat":36.2074831,"lon":-114.2708028,"elevationM":1164},{"id":"node:357557104","kind":"peak","name":"Saint Thomas Salt","lat":36.4077558,"lon":-114.3735866,"elevationM":380},{"id":"node:357561288","kind":"peak","name":"Gold Cross Peak","lat":36.0719301,"lon":-114.1730198,"elevationM":1030},{"id":"node:357561304","kind":"peak","name":"Mineral Buttes","lat":36.2252607,"lon":-114.2677473,"elevationM":1078},{"id":"node:357561330","kind":"peak","name":"Seven Sisters","lat":36.4262309,"lon":-114.5025431,"elevationM":591},{"id":"node:359242071","kind":"peak","name":"Arch Mountain","lat":36.135814,"lon":-114.5608121,"elevationM":1001},{"id":"node:359245741","kind":"peak","name":"Fortification Hill","lat":36.0441476,"lon":-114.6813702,"elevationM":1114},{"id":"node:359249644","kind":"peak","name":"Paint Pots","lat":36.0455362,"lon":-114.702482,"elevationM":547},{"id":"node:359252157","kind":"peak","name":"Sugarloaf Mountain","lat":36.008275,"lon":-114.7370585,"elevationM":554},{"id":"node:4230348776","kind":"peak","name":"White Domes","lat":36.4847107,"lon":-114.531784,"elevationM":null},{"id":"node:4694433341","kind":"peak","name":"Sunrise Mountain","lat":36.2194829,"lon":-114.9955709,"elevationM":1026},{"id":"node:8990566447","kind":"peak","name":"Round Rock Point","lat":36.0664137,"lon":-114.1498353,"elevationM":387},{"id":"node:8990566464","kind":"peak","name":"Boxcar Rock","lat":36.1191176,"lon":-114.7819624,"elevationM":null},{"id":"node:9742111500","kind":"peak","name":"Black Mountain Overlook","lat":36.0005409,"lon":-114.8537832,"elevationM":1074},{"id":"node:9742170262","kind":"peak","name":"River Mountain","lat":36.017517,"lon":-114.8588547,"elevationM":1155},{"id":"node:9873352297","kind":"peak","name":"Northshore Summit","lat":36.2292705,"lon":-114.6238289,"elevationM":780},{"id":"node:11365448693","kind":"peak","name":"Mormon Mesa","lat":36.8546608,"lon":-114.4103254,"elevationM":null},{"id":"node:11365448694","kind":"peak","name":"Cathedral Peaks","lat":36.2701847,"lon":-114.4277882,"elevationM":null},{"id":"node:13354171736","kind":"peak","name":"Peek-a-boo Lava Butte","lat":36.1221805,"lon":-114.9759176,"elevationM":618},{"id":"node:13362316629","kind":"peak","name":"Rust Peak","lat":36.924942,"lon":-114.5114767,"elevationM":1940}]}