{"tileKey":"la_p57_lo_m136","version":"v1-1775891056926","entries":[{"id":"node:2478392656","kind":"peak","name":"Shell Mountain","lat":57.1253424,"lon":-135.6861466,"elevationM":null},{"id":"node:2478392749","kind":"volcano","name":"Mount Edgecumbe","lat":57.0514243,"lon":-135.7605712,"elevationM":976},{"id":"node:2510476397","kind":"peak","name":"Rust Mountain","lat":57.6909077,"lon":-135.9433965,"elevationM":719},{"id":"node:2510476405","kind":"peak","name":"Hirst Mountain","lat":57.6788272,"lon":-135.9953628,"elevationM":917},{"id":"node:2510487062","kind":"peak","name":"Pinnacle Peak","lat":57.6464157,"lon":-135.938826,"elevationM":980},{"id":"node:2510487177","kind":"peak","name":"Khaz Peak","lat":57.500248,"lon":-135.9573654,"elevationM":819},{"id":"node:2512222660","kind":"peak","name":"Cupola Peak","lat":57.008339,"lon":-135.1073503,"elevationM":1212},{"id":"node:2512222690","kind":"peak","name":"Sugarloaf Mountain","lat":57.0272877,"lon":-135.2239985,"elevationM":526},{"id":"node:2512222692","kind":"peak","name":"Mount Verstovia","lat":57.0593061,"lon":-135.265452,"elevationM":1004},{"id":"node:2512222797","kind":"peak","name":"Mount Bassie","lat":57.0586215,"lon":-135.0357674,"elevationM":1355},{"id":"node:2512222813","kind":"peak","name":"Clarence Kramer Peak","lat":57.0939403,"lon":-135.1739896,"elevationM":null},{"id":"node:2512222858","kind":"peak","name":"Bear Mountain","lat":57.0500331,"lon":-135.1629005,"elevationM":1239},{"id":"node:2512222928","kind":"peak","name":"Arrowhead Peak","lat":57.0703655,"lon":-135.2232587,"elevationM":994},{"id":"node:2514690292","kind":"peak","name":"Annahootz Mountain","lat":57.2874498,"lon":-135.3131938,"elevationM":1311},{"id":"node:2514690296","kind":"peak","name":"Mount Rosenberg","lat":57.2831147,"lon":-135.3235929,"elevationM":null},{"id":"node:2514690297","kind":"peak","name":"Mount Katlian","lat":57.1542752,"lon":-135.2020901,"elevationM":1312},{"id":"node:2518173994","kind":"peak","name":"Picnic Rock","lat":57.0560006,"lon":-135.279406,"elevationM":777},{"id":"node:2832318339","kind":"peak","name":"South (Middle) Sister","lat":57.0894077,"lon":-135.2543402,"elevationM":912},{"id":"node:3096593939","kind":"peak","name":"Harbor Mountain","lat":57.0937489,"lon":-135.32929,"elevationM":963},{"id":"node:3576422977","kind":"peak","name":"4126","lat":57.0220407,"lon":-135.0594106,"elevationM":null},{"id":"node:3990925818","kind":"peak","name":"North Sister","lat":57.1035593,"lon":-135.249149,"elevationM":1135},{"id":"node:7233733287","kind":"peak","name":"No Name Mountain","lat":57.1224075,"lon":-135.3819025,"elevationM":null},{"id":"node:7233733305","kind":"peak","name":"Saddle Mountain","lat":57.1085022,"lon":-135.3914817,"elevationM":null},{"id":"node:7299948211","kind":"peak","name":"East Sister","lat":57.1007991,"lon":-135.2207875,"elevationM":1165},{"id":"node:7299954159","kind":"peak","name":"Ante Peak","lat":57.1141653,"lon":-135.1758172,"elevationM":1503},{"id":"node:11657089293","kind":"peak","name":"Gavan Hill","lat":57.085287,"lon":-135.3070556,"elevationM":801},{"id":"node:11657089315","kind":"peak","name":"Montana de San Jacinto","lat":57.0292596,"lon":-135.7988797,"elevationM":346},{"id":"node:11657090245","kind":"peak","name":"Mount Georgiana","lat":57.3284681,"lon":-135.8432727,"elevationM":415},{"id":"node:11657090262","kind":"peak","name":"Mount Parish","lat":57.8072027,"lon":-135.1387744,"elevationM":931},{"id":"node:11657090275","kind":"peak","name":"Krestof Mountain","lat":57.1786591,"lon":-135.4858613,"elevationM":503},{"id":"node:11657090298","kind":"peak","name":"Finger Mountain","lat":57.671932,"lon":-135.4813992,"elevationM":822},{"id":"node:12503591206","kind":"peak","name":"Harbor Peak","lat":57.0738352,"lon":-135.3325504,"elevationM":670}]}