{"tileKey":"la_p47_lo_p91","version":"v1-1775891056926","entries":[{"id":"node:7627863910","kind":"peak","name":"Баруун Хайрхан","lat":47.6762739,"lon":91.145709,"elevationM":3451},{"id":"node:7627887406","kind":"peak","name":"Бүргэдтэй хайрхан","lat":47.5148308,"lon":91.254003,"elevationM":3749},{"id":"node:7627957115","kind":"peak","name":"Бориг уул","lat":47.3561012,"lon":91.2149502,"elevationM":3659},{"id":"node:7627957116","kind":"peak","name":"Хөх Хавцлын орой","lat":47.3349404,"lon":91.2968723,"elevationM":3818},{"id":"node:7629054937","kind":"peak","name":"Бүргэдийн уул","lat":47.736041,"lon":91.0664084,"elevationM":3775},{"id":"node:7629083413","kind":"peak","name":"Тал нүүр /Баанжуур/","lat":47.0497877,"lon":91.4203662,"elevationM":3109},{"id":"node:7629083447","kind":"peak","name":"Шар хамрын орой","lat":47.0733953,"lon":91.1214201,"elevationM":3094},{"id":"node:11117434479","kind":"peak","name":"Ар тэрэгт","lat":47.8413618,"lon":91.2758039,"elevationM":2750},{"id":"node:11117520386","kind":"peak","name":"Жинст хайрхан","lat":47.5788011,"lon":91.5718107,"elevationM":null},{"id":"node:11117530716","kind":"peak","name":"Хөх давын Улаан толгой","lat":47.4330643,"lon":91.4334691,"elevationM":2784},{"id":"node:11186884727","kind":"peak","name":"Ганц гэрийн зоо","lat":47.3727529,"lon":91.5624491,"elevationM":3244},{"id":"node:11351612380","kind":"peak","name":"Их ямаат","lat":47.799482,"lon":91.0680166,"elevationM":null}]}