{"tileKey":"la_p19_lo_m100","version":"v1-1775891056926","entries":[{"id":"node:674109465","kind":"peak","name":"Xochitepec","lat":19.2576402,"lon":-99.1386346,"elevationM":null},{"id":"node:674362056","kind":"volcano","name":"Xitle","lat":19.246804,"lon":-99.2219957,"elevationM":3100},{"id":"node:674362076","kind":"volcano","name":"Cuatzontle","lat":19.2403269,"lon":-99.2124132,"elevationM":null},{"id":"node:674445804","kind":"peak","name":"Tzompol","lat":19.2042298,"lon":-99.115078,"elevationM":null},{"id":"node:674472210","kind":"volcano","name":"Yuhualixqui","lat":19.3165264,"lon":-99.0528393,"elevationM":2383},{"id":"node:674476330","kind":"volcano","name":"Xaltepec","lat":19.3178794,"lon":-99.0315648,"elevationM":2436},{"id":"node:674476332","kind":"volcano","name":"Tetecón","lat":19.3215143,"lon":-99.0220326,"elevationM":2480},{"id":"node:674478444","kind":"volcano","name":"Teuhtli","lat":19.2235196,"lon":-99.0299125,"elevationM":2710},{"id":"node:674487878","kind":"volcano","name":"Teoca","lat":19.2046661,"lon":-99.093591,"elevationM":null},{"id":"node:681655411","kind":"peak","name":"Cerro Acopiaxco","lat":19.1189395,"lon":-99.1658418,"elevationM":3302},{"id":"node:681655428","kind":"peak","name":"El Guarda","lat":19.1088683,"lon":-99.1616081,"elevationM":null},{"id":"node:681655445","kind":"volcano","name":"Volcán Oyameyo","lat":19.1757431,"lon":-99.1800617,"elevationM":3189},{"id":"node:681655459","kind":"volcano","name":"Volcán Pelado","lat":19.1510378,"lon":-99.2170689,"elevationM":3609},{"id":"node:681655472","kind":"peak","name":"Mezontepec","lat":19.1889162,"lon":-99.230101,"elevationM":null},{"id":"node:691535029","kind":"peak","name":"Peñón de los baños","lat":19.441046,"lon":-99.0827429,"elevationM":2350},{"id":"node:1103756740","kind":"volcano","name":"Volcán Chichinautzin","lat":19.0894196,"lon":-99.1355988,"elevationM":3466},{"id":"node:1103800081","kind":"volcano","name":"Volcán Oclayuca","lat":19.0507112,"lon":-99.0586844,"elevationM":null},{"id":"node:1103835808","kind":"peak","name":"Tuxtepec","lat":19.1317017,"lon":-99.2786952,"elevationM":null},{"id":"node:1103913545","kind":"peak","name":"Tezoyo","lat":19.09606,"lon":-99.2267778,"elevationM":null},{"id":"node:1444717729","kind":"peak","name":"Mesa de Hernandez","lat":19.1892787,"lon":-99.9820074,"elevationM":null},{"id":"node:1445503337","kind":"peak","name":"Calotepec","lat":19.0641235,"lon":-99.8093141,"elevationM":null},{"id":"node:1445503338","kind":"peak","name":"Cerro Azul","lat":19.1394464,"lon":-99.9756673,"elevationM":null},{"id":"node:1445503339","kind":"peak","name":"Cuescontepec","lat":19.0515697,"lon":-99.674602,"elevationM":null},{"id":"node:1445503340","kind":"peak","name":"El Chilacayote","lat":19.1367304,"lon":-99.9092769,"elevationM":null},{"id":"node:1445503341","kind":"peak","name":"El Jabalí","lat":19.2180284,"lon":-99.8456477,"elevationM":null},{"id":"node:1445503342","kind":"peak","name":"El Ombligo","lat":19.1085331,"lon":-99.7557524,"elevationM":4320},{"id":"node:1445503344","kind":"peak","name":"El Zacatonal","lat":19.0687104,"lon":-99.6876387,"elevationM":null},{"id":"node:1445503345","kind":"peak","name":"La Calera","lat":19.1801256,"lon":-99.8240407,"elevationM":null},{"id":"node:1445503346","kind":"peak","name":"La Pedrera","lat":19.1223961,"lon":-99.6396414,"elevationM":null},{"id":"node:1445503347","kind":"peak","name":"Las Cruces","lat":19.1842297,"lon":-99.8521661,"elevationM":null},{"id":"node:1445503348","kind":"peak","name":"Las Palomas","lat":19.090921,"lon":-99.8537353,"elevationM":null},{"id":"node:1445503354","kind":"peak","name":"Las Tablas","lat":19.0504833,"lon":-99.8691862,"elevationM":null},{"id":"node:1445503368","kind":"peak","name":"Tepehuixco","lat":19.1005685,"lon":-99.6941168,"elevationM":null},{"id":"node:1445503369","kind":"peak","name":"Tlacotepec","lat":19.2248993,"lon":-99.6782426,"elevationM":null},{"id":"node:1445503371","kind":"volcano","name":"Volcán Gordo","lat":19.1183199,"lon":-99.829183,"elevationM":null},{"id":"node:1691309342","kind":"peak","name":"Cerro de la Campana","lat":19.3500396,"lon":-99.4013412,"elevationM":null},{"id":"node:2258139788","kind":"peak","name":"Zacatépetl","lat":19.3074201,"lon":-99.1968663,"elevationM":null},{"id":"node:2258143240","kind":"peak","name":"C. Chiquihuite","lat":19.5329644,"lon":-99.1305605,"elevationM":2734},{"id":"node:2258143802","kind":"peak","name":"Cohuapille - Cerro Gordo","lat":19.5473222,"lon":-99.0575871,"elevationM":2448},{"id":"node:2258147225","kind":"peak","name":"Cerro de la Estrella","lat":19.3438439,"lon":-99.0904569,"elevationM":2460},{"id":"node:2258152184","kind":"volcano","name":"Ajusco","lat":19.2072772,"lon":-99.2580852,"elevationM":3930},{"id":"node:2258157565","kind":"peak","name":"Yohualtécatl","lat":19.4996445,"lon":-99.1056274,"elevationM":2450},{"id":"node:2258157566","kind":"peak","name":"Tecpayotepetl - Zacatenco","lat":19.5110436,"lon":-99.112529,"elevationM":2503},{"id":"node:2343297755","kind":"peak","name":"Puerto de Barrientos","lat":19.582259,"lon":-99.1925972,"elevationM":2325},{"id":"node:2760635878","kind":"peak","name":"Tehuapaltepetl","lat":19.2113304,"lon":-99.1405647,"elevationM":null},{"id":"node:2766568979","kind":"peak","name":"Cantera","lat":19.221582,"lon":-99.1528608,"elevationM":null},{"id":"node:2766732783","kind":"volcano","name":"Volcán Tetzacoatl","lat":19.1393152,"lon":-99.128036,"elevationM":3306},{"id":"node:2766732784","kind":"peak","name":"Toxtepec","lat":19.1614795,"lon":-99.1500493,"elevationM":null},{"id":"node:3471557610","kind":"volcano","name":"Volcán Ololinca","lat":19.2214069,"lon":-99.1794033,"elevationM":null},{"id":"node:3712928948","kind":"peak","name":"Cerro de la Verónica","lat":19.3792066,"lon":-99.4639856,"elevationM":3145},{"id":"node:3987280257","kind":"volcano","name":"Cuahuált","lat":19.1650374,"lon":-99.4208608,"elevationM":3000},{"id":"node:4035860107","kind":"volcano","name":"Tecolotepec","lat":19.0875073,"lon":-99.482143,"elevationM":null},{"id":"node:4079524990","kind":"peak","name":"Cerro del Coatepec","lat":19.2850374,"lon":-99.6782154,"elevationM":2740},{"id":"node:4112567233","kind":"peak","name":"Cerro del Calvario","lat":19.2483753,"lon":-99.605119,"elevationM":null},{"id":"node:4112567234","kind":"peak","name":"Cerro el Chapulin","lat":19.2054549,"lon":-99.5562294,"elevationM":null},{"id":"node:4142062684","kind":"peak","name":"Cerro de Moctezuma","lat":19.4834137,"lon":-99.2580427,"elevationM":2405},{"id":"node:4178682127","kind":"volcano","name":"Volcan San Antonio","lat":19.2133694,"lon":-99.8933234,"elevationM":3673},{"id":"node:4731406256","kind":"peak","name":"Cerro San Miguel","lat":19.2674893,"lon":-99.3222654,"elevationM":null},{"id":"node:4735261176","kind":"peak","name":"Zacayuca","lat":19.2895027,"lon":-99.1994337,"elevationM":null},{"id":"node:4879655863","kind":"peak","name":"Cerro de Coconetla","lat":19.2705268,"lon":-99.293922,"elevationM":null},{"id":"node:4900541567","kind":"peak","name":"Cerro Tepeyac","lat":19.4869825,"lon":-99.1157121,"elevationM":2275},{"id":"node:4900541568","kind":"peak","name":"Zacahuitzco","lat":19.4905708,"lon":-99.1142332,"elevationM":2338},{"id":"node:4964814979","kind":"peak","name":"Cerro Catedral","lat":19.5507518,"lon":-99.5202756,"elevationM":3790},{"id":"node:4964814980","kind":"peak","name":"Cerro Las Palomas","lat":19.5599923,"lon":-99.5055342,"elevationM":3750},{"id":"node:4964814981","kind":"peak","name":"Cerro Las Navajas","lat":19.5401762,"lon":-99.506135,"elevationM":3794},{"id":"node:5041787253","kind":"volcano","name":"Jocotitlán (Xocotépetl)","lat":19.7374397,"lon":-99.7600374,"elevationM":3900},{"id":"node:5048939593","kind":"volcano","name":"El Caballito","lat":19.2515514,"lon":-99.4131031,"elevationM":null},{"id":"node:5323924580","kind":"peak","name":"Cerro del Marquez","lat":19.3784585,"lon":-99.0299945,"elevationM":2400},{"id":"node:5341637478","kind":"peak","name":"Ehecatepetl","lat":19.5928237,"lon":-99.0637136,"elevationM":2601},{"id":"node:5584755324","kind":"peak","name":"Piedra La Campana","lat":19.3023859,"lon":-99.6797676,"elevationM":3031},{"id":"node:5659877721","kind":"volcano","name":"Tuxtepec","lat":19.0981437,"lon":-99.4572227,"elevationM":null},{"id":"node:5659877722","kind":"volcano","name":"Tres Cruces","lat":19.0940072,"lon":-99.4839161,"elevationM":null},{"id":"node:5659877723","kind":"volcano","name":"El Tezontle","lat":19.0360487,"lon":-99.4629072,"elevationM":null},{"id":"node:5659877724","kind":"volcano","name":"Mezapa","lat":19.1651435,"lon":-99.4464913,"elevationM":2754},{"id":"node:5659877725","kind":"volcano","name":"Tomasquillo","lat":19.1700016,"lon":-99.3885161,"elevationM":3030},{"id":"node:5659877726","kind":"volcano","name":"La Silva","lat":19.1805087,"lon":-99.3758288,"elevationM":3200},{"id":"node:5659877727","kind":"volcano","name":"Tuxtepec","lat":19.1318776,"lon":-99.2797641,"elevationM":null},{"id":"node:5683593532","kind":"peak","name":"Cerro Cervantes","lat":19.5329366,"lon":-99.4691849,"elevationM":3450},{"id":"node:5683593533","kind":"peak","name":"Cerro Prieto","lat":19.521935,"lon":-99.4791842,"elevationM":3400},{"id":"node:5683593534","kind":"peak","name":"Cerro Los Puercos","lat":19.5304896,"lon":-99.47824,"elevationM":3430},{"id":"node:6110268097","kind":"volcano","name":"Tenoxtepec (El Molcajete)","lat":19.2429059,"lon":-99.4141881,"elevationM":3010},{"id":"node:6110268098","kind":"volcano","name":"Emerenciano","lat":19.2468957,"lon":-99.3800492,"elevationM":null},{"id":"node:6612035689","kind":"peak","name":"Pico El Águila","lat":19.213001,"lon":-99.2570515,"elevationM":3839},{"id":"node:6612035690","kind":"peak","name":"Cerro Santo Tomás","lat":19.2127814,"lon":-99.2462288,"elevationM":3699},{"id":"node:6612035691","kind":"peak","name":"Cerro Los Picachos","lat":19.2092577,"lon":-99.305204,"elevationM":3711},{"id":"node:6612035692","kind":"peak","name":"Cerro Taravilla","lat":19.232322,"lon":-99.3178733,"elevationM":3766},{"id":"node:6612035693","kind":"peak","name":"Cerro El Triángulo (Media Luna)","lat":19.2327982,"lon":-99.3215812,"elevationM":3813},{"id":"node:6612035694","kind":"peak","name":"Cerro Muñeco","lat":19.2413154,"lon":-99.3424236,"elevationM":3848},{"id":"node:6612035695","kind":"peak","name":"Cerro El Ángel","lat":19.2825434,"lon":-99.3593379,"elevationM":3848},{"id":"node:6612035696","kind":"peak","name":"Picacho Puerto las Cruces","lat":19.2939925,"lon":-99.3420588,"elevationM":3328},{"id":"node:6612049132","kind":"volcano","name":"Volcán Tláloc","lat":19.1100204,"lon":-99.0334697,"elevationM":3680},{"id":"node:6612049133","kind":"volcano","name":"Volcán Ocotécatl","lat":19.0856026,"lon":-99.0288813,"elevationM":3680},{"id":"node:6612049134","kind":"volcano","name":"Volcán Pajonal","lat":19.0778027,"lon":-99.0421321,"elevationM":3225},{"id":"node:6612049135","kind":"volcano","name":"Volcán Xistune","lat":19.1446721,"lon":-99.0058433,"elevationM":3089},{"id":"node:6612049136","kind":"volcano","name":"Volcán Ocusacayo","lat":19.1421818,"lon":-99.0671339,"elevationM":3170},{"id":"node:6612049137","kind":"peak","name":"Cerro San Bartolito","lat":19.1117906,"lon":-99.0855873,"elevationM":3185},{"id":"node:6612049138","kind":"volcano","name":"Volcán San Bartolo","lat":19.1125205,"lon":-99.0918315,"elevationM":3241},{"id":"node:6612049139","kind":"volcano","name":"La Comalera","lat":19.1073097,"lon":-99.1076458,"elevationM":3255},{"id":"node:6612049140","kind":"peak","name":"Cerro Chingiritería","lat":19.1163524,"lon":-99.1122377,"elevationM":3156},{"id":"node:6612049141","kind":"volcano","name":"Volcán Piripitillo","lat":19.1185014,"lon":-99.1186321,"elevationM":3105},{"id":"node:6612049142","kind":"volcano","name":"Volcán Tuxtepec","lat":19.1212384,"lon":-99.1005004,"elevationM":3081},{"id":"node:6612049143","kind":"volcano","name":"Volcán Tulmiac","lat":19.1347402,"lon":-99.1164005,"elevationM":3316},{"id":"node:6612049144","kind":"volcano","name":"Volcán Cuautzin","lat":19.1555949,"lon":-99.1075938,"elevationM":3490},{"id":"node:6612049145","kind":"volcano","name":"Volcán Tesoyo","lat":19.096821,"lon":-99.2245328,"elevationM":3175},{"id":"node:6612049146","kind":"peak","name":"Cerro Tepeyahualco","lat":19.110183,"lon":-99.2354419,"elevationM":3046},{"id":"node:6612049147","kind":"volcano","name":"Volcán Texoxocol","lat":19.1521664,"lon":-99.2305935,"elevationM":3385},{"id":"node:6612049148","kind":"volcano","name":"Volcán Malacatepetl","lat":19.1643597,"lon":-99.2563642,"elevationM":3458},{"id":"node:6612049149","kind":"peak","name":"Cerro Quepil","lat":19.1643251,"lon":-99.2851196,"elevationM":3537},{"id":"node:6612049150","kind":"peak","name":"Cerro Judío","lat":19.1820412,"lon":-99.2702617,"elevationM":3419},{"id":"node:6612049151","kind":"peak","name":"Cerro La Cruz del Marquez","lat":19.2075407,"lon":-99.2581901,"elevationM":3923},{"id":"node:6743235512","kind":"volcano","name":"Tecuautzi","lat":19.3266449,"lon":-99.0108555,"elevationM":2635},{"id":"node:7034810184","kind":"peak","name":"Peña Rajada - El Jaral","lat":19.5785274,"lon":-99.1391097,"elevationM":2690},{"id":"node:7034812886","kind":"peak","name":"Quiote","lat":19.5872969,"lon":-99.1305986,"elevationM":2670},{"id":"node:7034812887","kind":"peak","name":"Otontepetl","lat":19.5957921,"lon":-99.1276711,"elevationM":2910},{"id":"node:7034812888","kind":"peak","name":"Quauhtepetl","lat":19.5939376,"lon":-99.1163549,"elevationM":3003},{"id":"node:7034812889","kind":"peak","name":"Chicoquauhyo - C. del Ocote","lat":19.5884188,"lon":-99.1003739,"elevationM":2925},{"id":"node:7034812890","kind":"peak","name":"C. del Tlalayote","lat":19.5649917,"lon":-99.107606,"elevationM":2695},{"id":"node:7034812892","kind":"peak","name":"Xolotl - C. María Auxiliadora","lat":19.618701,"lon":-99.1207018,"elevationM":2535},{"id":"node:7034812893","kind":"peak","name":"Tezoyo - C. Santa Cecilia","lat":19.5682424,"lon":-99.1742842,"elevationM":2584},{"id":"node:7123772937","kind":"volcano","name":"Cerro del Molcajete","lat":19.3282206,"lon":-99.7478475,"elevationM":2900},{"id":"node:7131215050","kind":"volcano","name":"Xicontle","lat":19.2450194,"lon":-99.2270866,"elevationM":null},{"id":"node:7223105996","kind":"peak","name":"Cerro San Pablo","lat":19.5446047,"lon":-99.4289732,"elevationM":3200},{"id":"node:7953016690","kind":"volcano","name":"Volcán el Muñeco","lat":19.1642573,"lon":-99.3300389,"elevationM":null},{"id":"node:7956014909","kind":"volcano","name":"Cerro Quilotzin","lat":19.2179367,"lon":-99.4465191,"elevationM":null},{"id":"node:7956035103","kind":"peak","name":"Cerro Mendoza","lat":19.2107708,"lon":-99.4663472,"elevationM":null},{"id":"node:7956035104","kind":"peak","name":"Cerro Santa María","lat":19.1970375,"lon":-99.4557484,"elevationM":null},{"id":"node:7956626460","kind":"volcano","name":"Volcán Tehualtepec","lat":19.2178924,"lon":-99.4013675,"elevationM":null},{"id":"node:7956626461","kind":"volcano","name":"Volcán Teconto (Las ratas)","lat":19.1956635,"lon":-99.3758737,"elevationM":null},{"id":"node:7965420273","kind":"peak","name":"Cerro Tilapa","lat":19.1963134,"lon":-99.417498,"elevationM":null},{"id":"node:7965420274","kind":"volcano","name":"Volcán Negro","lat":19.165711,"lon":-99.3802475,"elevationM":3198},{"id":"node:7965457507","kind":"volcano","name":"Volcán El jumento","lat":19.2095621,"lon":-99.313254,"elevationM":null},{"id":"node:7965457508","kind":"peak","name":"Cerro Mateo","lat":19.1972215,"lon":-99.3243477,"elevationM":null},{"id":"node:7965457509","kind":"peak","name":"Cerro la Cadena","lat":19.1357654,"lon":-99.3141846,"elevationM":null},{"id":"node:7965457510","kind":"peak","name":"Cerro San Secundino","lat":19.1410712,"lon":-99.3449813,"elevationM":null},{"id":"node:7965457511","kind":"peak","name":"Cerro la Corona","lat":19.1224785,"lon":-99.3484342,"elevationM":null},{"id":"node:7965457512","kind":"peak","name":"Cerro Laguna Tepetl","lat":19.0986832,"lon":-99.3836354,"elevationM":null},{"id":"node:7965457515","kind":"peak","name":"Cerro Boludo","lat":19.0840106,"lon":-99.3885892,"elevationM":null},{"id":"node:7979292078","kind":"peak","name":"Cerro Ojo del Buey","lat":19.2891633,"lon":-99.4137106,"elevationM":null},{"id":"node:7979292079","kind":"peak","name":"Cerro el Fresno","lat":19.2832695,"lon":-99.4261561,"elevationM":null},{"id":"node:7979292080","kind":"peak","name":"Cerro las Palmas.","lat":19.308688,"lon":-99.4056094,"elevationM":null},{"id":"node:7979292081","kind":"peak","name":"Cerro las Gallinas","lat":19.3061755,"lon":-99.4139855,"elevationM":null},{"id":"node:7979292082","kind":"peak","name":"Cerro Pie de Moctezuma","lat":19.2978819,"lon":-99.440807,"elevationM":null},{"id":"node:7979292083","kind":"peak","name":"Cerro la Virgen","lat":19.3115631,"lon":-99.4402941,"elevationM":null},{"id":"node:7993285986","kind":"peak","name":"Cerro Gexadi","lat":19.4073074,"lon":-99.4860388,"elevationM":null},{"id":"node:8139187619","kind":"peak","name":"La Bufa","lat":19.6342577,"lon":-99.553646,"elevationM":3490},{"id":"node:8406966626","kind":"volcano","name":"La Guadalupana","lat":19.5357298,"lon":-99.8895207,"elevationM":null},{"id":"node:8406966627","kind":"peak","name":"Cerro el Alto","lat":19.496513,"lon":-99.9189346,"elevationM":null},{"id":"node:8406966628","kind":"peak","name":"Cerro la Venta","lat":19.5247311,"lon":-99.8262963,"elevationM":null},{"id":"node:8406966629","kind":"peak","name":"Loma el Conejo","lat":19.3300353,"lon":-99.7369225,"elevationM":null},{"id":"node:8608342142","kind":"peak","name":"Cerro Zazacapa","lat":19.2687782,"lon":-99.2763794,"elevationM":3250},{"id":"node:8608342143","kind":"peak","name":"Cerro La Palma","lat":19.2560304,"lon":-99.3268256,"elevationM":null},{"id":"node:8608342144","kind":"peak","name":"Cerro El Gavilán","lat":19.26362,"lon":-99.3611929,"elevationM":null},{"id":"node:8895922655","kind":"peak","name":"Pico del Fraile","lat":19.1018555,"lon":-99.7676262,"elevationM":4690},{"id":"node:8895922656","kind":"peak","name":"pico del águila","lat":19.1159259,"lon":-99.7669799,"elevationM":4640},{"id":"node:9179118887","kind":"volcano","name":"Yecahuazac","lat":19.0757568,"lon":-99.0974383,"elevationM":null},{"id":"node:9179118888","kind":"volcano","name":"Suchioc Grande","lat":19.0622469,"lon":-99.1061287,"elevationM":null},{"id":"node:9646766185","kind":"peak","name":"Tepemaxalco","lat":19.5898429,"lon":-99.1972136,"elevationM":2347},{"id":"node:9921747556","kind":"peak","name":"Cerro Sincoque","lat":19.8539781,"lon":-99.2486839,"elevationM":null},{"id":"node:10080569082","kind":"peak","name":"Cerro Tepozteco","lat":19.0068331,"lon":-99.0960488,"elevationM":2369},{"id":"node:10173676701","kind":"peak","name":"Volcán Raices","lat":19.1045731,"lon":-99.2564368,"elevationM":null},{"id":"node:10173736134","kind":"peak","name":"Volcán Los Cardos","lat":19.0964761,"lon":-99.259355,"elevationM":null},{"id":"node:10173736733","kind":"peak","name":"Volcán el Cajete","lat":19.1041406,"lon":-99.2457794,"elevationM":null},{"id":"node:10268449511","kind":"peak","name":"Coyoco - C. La Estanzuela","lat":19.4921231,"lon":-99.1015513,"elevationM":2292},{"id":"node:10268449512","kind":"peak","name":"Risco Calavera","lat":19.5176158,"lon":-99.0912824,"elevationM":2289},{"id":"node:10268449513","kind":"peak","name":"Quauhtlamazohualco","lat":19.5228851,"lon":-99.0957595,"elevationM":2304},{"id":"node:10268449514","kind":"peak","name":"Xochitlan","lat":19.5297028,"lon":-99.0962246,"elevationM":2399},{"id":"node:10268449515","kind":"peak","name":"Ixhuatepetl","lat":19.5279303,"lon":-99.1085733,"elevationM":2335},{"id":"node:10268449523","kind":"peak","name":"Cocoayo","lat":19.5412799,"lon":-99.1263941,"elevationM":2570},{"id":"node:10268449524","kind":"peak","name":"Ticoman - El Cantil","lat":19.5202099,"lon":-99.1404635,"elevationM":2275},{"id":"node:10268559906","kind":"peak","name":"Huisoga - El Mirador","lat":19.5577359,"lon":-99.0908083,"elevationM":2540},{"id":"node:10268860466","kind":"peak","name":"Peñas de las Palomas","lat":19.5664139,"lon":-99.1784811,"elevationM":2510},{"id":"node:10268860467","kind":"peak","name":"Loma Blanca","lat":19.5741512,"lon":-99.1788521,"elevationM":2566},{"id":"node:10268860468","kind":"peak","name":"Loma Pelada - La Huerta","lat":19.5856535,"lon":-99.1574468,"elevationM":2432},{"id":"node:10268860469","kind":"peak","name":"Cerro de Tamazulac - El Córdoba","lat":19.5936062,"lon":-99.1365888,"elevationM":2794},{"id":"node:10268860470","kind":"peak","name":"Cuanahuatepec","lat":19.5603677,"lon":-99.0948637,"elevationM":2582},{"id":"node:10268972299","kind":"peak","name":"C. Moctezuma","lat":19.592775,"lon":-99.1158399,"elevationM":3004},{"id":"node:10268972300","kind":"peak","name":"Almaraz","lat":19.5922387,"lon":-99.119277,"elevationM":2949},{"id":"node:10268972301","kind":"peak","name":"Sombrerero","lat":19.5929706,"lon":-99.1236281,"elevationM":2888},{"id":"node:10268972302","kind":"peak","name":"Peña Gorda","lat":19.5885016,"lon":-99.1269305,"elevationM":2671},{"id":"node:10268972303","kind":"peak","name":"Coscatepec - Loma de San Felipe","lat":19.6212148,"lon":-99.1242435,"elevationM":2425},{"id":"node:10268972304","kind":"peak","name":"Cerro Los Díaz","lat":19.5971745,"lon":-99.0865589,"elevationM":2845},{"id":"node:10268972305","kind":"peak","name":"Cerro Colorado","lat":19.6013885,"lon":-99.0716326,"elevationM":2565},{"id":"node:10268972306","kind":"peak","name":"Chiquihuitito - Acotuxco","lat":19.5833858,"lon":-99.0568236,"elevationM":2520},{"id":"node:10268972307","kind":"peak","name":"C. Chato","lat":19.5817889,"lon":-99.069643,"elevationM":2575},{"id":"node:10268972308","kind":"peak","name":"Cerro Largo","lat":19.586297,"lon":-99.0767052,"elevationM":2725},{"id":"node:10268982810","kind":"peak","name":"Domo Coanalco","lat":19.5630483,"lon":-99.0779727,"elevationM":2435},{"id":"node:10268982811","kind":"peak","name":"Cerro Almarcigo","lat":19.5747463,"lon":-99.075408,"elevationM":2630},{"id":"node:10268982812","kind":"peak","name":"Cabeza Blanca - Xonciuco","lat":19.5832483,"lon":-99.0877838,"elevationM":2810},{"id":"node:10268982813","kind":"peak","name":"Coamilpa - Xoncuico","lat":19.5825848,"lon":-99.0938283,"elevationM":2805},{"id":"node:10563811020","kind":"peak","name":"Cerro Hongos","lat":19.2477913,"lon":-99.3419208,"elevationM":3786},{"id":"node:10624431710","kind":"peak","name":"Cerro de Chapultepec","lat":19.4200128,"lon":-99.1814685,"elevationM":2280},{"id":"node:10707421499","kind":"peak","name":"Las Canoas","lat":19.2576578,"lon":-99.2567345,"elevationM":null},{"id":"node:10713285660","kind":"peak","name":"Cerro Tepeyac","lat":19.997844,"lon":-99.2758727,"elevationM":null},{"id":"node:10724240667","kind":"peak","name":"Loma de los caballos","lat":19.2547645,"lon":-99.267264,"elevationM":null},{"id":"node:10779097988","kind":"peak","name":"C. Caracoles","lat":19.5354966,"lon":-99.0971624,"elevationM":2393},{"id":"node:10789210305","kind":"peak","name":"Cerro Zempoala","lat":19.0414964,"lon":-99.3486665,"elevationM":3680},{"id":"node:10962970014","kind":"peak","name":"Cerro del Judio","lat":19.3216083,"lon":-99.2538602,"elevationM":null},{"id":"node:11026928268","kind":"peak","name":"Peña Redonda","lat":19.9767973,"lon":-99.8228064,"elevationM":null},{"id":"node:11026945007","kind":"peak","name":"Peña Picuda","lat":19.9752931,"lon":-99.8328353,"elevationM":null},{"id":"node:11462153993","kind":"volcano","name":"Nevado de Toluca","lat":19.1079468,"lon":-99.7554947,"elevationM":4690},{"id":"node:11474779208","kind":"peak","name":"Cerrito de Zahuatlan","lat":19.5333591,"lon":-99.1777774,"elevationM":null},{"id":"node:11860971666","kind":"peak","name":"Tepeolulco","lat":19.5497082,"lon":-99.0803387,"elevationM":2311},{"id":"node:11860971667","kind":"peak","name":"Risco Norte","lat":19.5273021,"lon":-99.0885564,"elevationM":2285},{"id":"node:11860971668","kind":"peak","name":"Cerro del Obraje - C. Uña","lat":19.5510267,"lon":-99.1104652,"elevationM":2630},{"id":"node:11860980369","kind":"peak","name":"C. Hueso de Gigante","lat":19.5523589,"lon":-99.1190788,"elevationM":2640},{"id":"node:11860980371","kind":"peak","name":"Tejocotillo - Cerro Cuate","lat":19.5542733,"lon":-99.1156302,"elevationM":2680},{"id":"node:11860980372","kind":"peak","name":"C. Joya de Nieves","lat":19.5568691,"lon":-99.1162203,"elevationM":2625},{"id":"node:11860980373","kind":"peak","name":"Quahuitzco","lat":19.5527332,"lon":-99.1132799,"elevationM":2670},{"id":"node:11860980374","kind":"peak","name":"Tepetlacale - Jaral Grande","lat":19.5462911,"lon":-99.1086012,"elevationM":2690},{"id":"node:11860980375","kind":"peak","name":"Jalostoc - Panal Grande","lat":19.5433162,"lon":-99.1069539,"elevationM":2705},{"id":"node:11861128735","kind":"peak","name":"Tenayo Oztopolco","lat":19.5402442,"lon":-99.1613588,"elevationM":2480},{"id":"node:11861128737","kind":"peak","name":"La Corona","lat":19.5549245,"lon":-99.1572545,"elevationM":2575},{"id":"node:11861128739","kind":"peak","name":"Joya de Pacheco - Cumbre del Pilar","lat":19.5605699,"lon":-99.1555693,"elevationM":2700},{"id":"node:11861128742","kind":"peak","name":"C. de Peñas Negras","lat":19.565979,"lon":-99.1461703,"elevationM":2560},{"id":"node:11861128744","kind":"peak","name":"C. del Panal - Picacho Tlacomulco","lat":19.5739064,"lon":-99.1475587,"elevationM":2715},{"id":"node:11861128745","kind":"peak","name":"C. Canal","lat":19.5741385,"lon":-99.1407887,"elevationM":2680},{"id":"node:11861128747","kind":"peak","name":"Tlayacopan","lat":19.5773625,"lon":-99.189986,"elevationM":2370},{"id":"node:11861128748","kind":"peak","name":"Madin","lat":19.5357486,"lon":-99.2622695,"elevationM":2515},{"id":"node:11861128749","kind":"peak","name":"El Kilo","lat":19.5751019,"lon":-99.2062323,"elevationM":2355},{"id":"node:11861128750","kind":"peak","name":"Tequexquinahuac","lat":19.5662495,"lon":-99.2124889,"elevationM":2370},{"id":"node:11861128751","kind":"peak","name":"Cerro Atlaco","lat":19.555733,"lon":-99.2281047,"elevationM":2445},{"id":"node:11861401740","kind":"peak","name":"Cerro Partido","lat":19.5609663,"lon":-99.0532005,"elevationM":2273},{"id":"node:11861401741","kind":"peak","name":"C. de los Pastores","lat":19.5610496,"lon":-99.0659542,"elevationM":2415},{"id":"node:11861401742","kind":"peak","name":"C. de las Visnagas","lat":19.5772449,"lon":-99.0813876,"elevationM":2690},{"id":"node:11861401743","kind":"peak","name":"Cabeza Blanca","lat":19.5799938,"lon":-99.0827518,"elevationM":2680},{"id":"node:11861401747","kind":"peak","name":"C. Cañada de Coamilpa","lat":19.5860837,"lon":-99.0812189,"elevationM":2790},{"id":"node:11861401748","kind":"peak","name":"C. Largo - La Colmena","lat":19.5853311,"lon":-99.0741909,"elevationM":2715},{"id":"node:11861401749","kind":"peak","name":"Coatlalpan - Loma del Tezontle","lat":19.6202776,"lon":-99.0617268,"elevationM":2270},{"id":"node:11861401753","kind":"peak","name":"C. Puente de Vacas","lat":19.5690187,"lon":-99.1114748,"elevationM":2660},{"id":"node:11861401756","kind":"peak","name":"C. de la Palmita - Peñas Coloradas","lat":19.5737936,"lon":-99.1127895,"elevationM":2705},{"id":"node:11861401758","kind":"peak","name":"C. Terreros","lat":19.5780645,"lon":-99.1112486,"elevationM":2750},{"id":"node:11861401759","kind":"peak","name":"Cerro Alto - Tierra Amarilla","lat":19.5799102,"lon":-99.1145001,"elevationM":2805},{"id":"node:11861401760","kind":"peak","name":"El Contador","lat":19.5833541,"lon":-99.117393,"elevationM":2760},{"id":"node:11861401761","kind":"peak","name":"El Púlpito","lat":19.585028,"lon":-99.1185483,"elevationM":2760},{"id":"node:11861555025","kind":"peak","name":"C. Fraile","lat":19.5925806,"lon":-99.1318742,"elevationM":2780},{"id":"node:11861555029","kind":"peak","name":"Zacatonal","lat":19.5861594,"lon":-99.1336212,"elevationM":2640},{"id":"node:11861555031","kind":"peak","name":"Chilpan","lat":19.6086516,"lon":-99.1674102,"elevationM":2355},{"id":"node:11861555032","kind":"peak","name":"Loma de Buenavista","lat":19.5997654,"lon":-99.1757482,"elevationM":2347},{"id":"node:11861555033","kind":"peak","name":"Picacho Grande","lat":19.5827087,"lon":-99.1221157,"elevationM":2655},{"id":"node:11861555034","kind":"peak","name":"Ocotal","lat":19.5798102,"lon":-99.1266243,"elevationM":2560},{"id":"node:11861555036","kind":"peak","name":"Cerro Laureles","lat":19.5730911,"lon":-99.1232467,"elevationM":2530},{"id":"node:11861555038","kind":"peak","name":"Loma Rosario","lat":19.5547243,"lon":-99.1405604,"elevationM":2330},{"id":"node:11861555039","kind":"peak","name":"Loma la Palma","lat":19.5601347,"lon":-99.1388169,"elevationM":2336},{"id":"node:11861555040","kind":"peak","name":"Loma Tlacaya","lat":19.5685585,"lon":-99.1299523,"elevationM":2390},{"id":"node:11861555041","kind":"peak","name":"Tihozuma","lat":19.5357168,"lon":-99.1356372,"elevationM":2485},{"id":"node:11861597945","kind":"peak","name":"Tepetzinco","lat":19.4408075,"lon":-99.083683,"elevationM":2300},{"id":"node:11862739601","kind":"peak","name":"C. Puerto de Lobos","lat":19.5847469,"lon":-99.0975754,"elevationM":2805},{"id":"node:11863300267","kind":"peak","name":"Tlayocampa","lat":19.5678335,"lon":-99.1850404,"elevationM":2420},{"id":"node:11866541622","kind":"peak","name":"Cuetlalteptl - C. de San Rafael","lat":19.5663401,"lon":-99.1892004,"elevationM":2427},{"id":"node:11866541624","kind":"peak","name":"Palma","lat":19.5758525,"lon":-99.12974,"elevationM":2435},{"id":"node:11866541625","kind":"peak","name":"C. Las Piletas","lat":19.5872428,"lon":-99.1693648,"elevationM":2345},{"id":"node:11869576417","kind":"peak","name":"Cerro de la Cuesta","lat":19.5736968,"lon":-99.0795801,"elevationM":null},{"id":"node:11873224271","kind":"peak","name":"C. Largo - Lavaderos","lat":19.586294,"lon":-99.0726842,"elevationM":2680},{"id":"node:11873224273","kind":"peak","name":"Cabeza Blanca","lat":19.5613072,"lon":-99.0964295,"elevationM":2565},{"id":"node:11873224279","kind":"peak","name":"Tianguillo - C. de Chalma","lat":19.5595963,"lon":-99.1572577,"elevationM":2690},{"id":"node:11873224281","kind":"peak","name":"Loma de la Virgen","lat":19.6017622,"lon":-99.1289272,"elevationM":2700},{"id":"node:11873224282","kind":"peak","name":"Loma de la Virgen - Sapotitlan","lat":19.6090157,"lon":-99.1349627,"elevationM":2495},{"id":"node:11873224283","kind":"peak","name":"Capultenco","lat":19.6116085,"lon":-99.1369267,"elevationM":2458},{"id":"node:11873224285","kind":"peak","name":"Texixipetzco","lat":19.5467168,"lon":-99.0930413,"elevationM":2500},{"id":"node:11873625284","kind":"peak","name":"Cerro Montuoso","lat":19.5865288,"lon":-99.1415696,"elevationM":2520},{"id":"node:11873625285","kind":"peak","name":"Presa de Lechería","lat":19.592471,"lon":-99.1683645,"elevationM":2330},{"id":"node:11875234077","kind":"peak","name":"El Bisnagal","lat":19.6207626,"lon":-99.1312426,"elevationM":2356},{"id":"node:11897542409","kind":"peak","name":"C. La Columna","lat":19.7201383,"lon":-99.2453845,"elevationM":2545},{"id":"node:11897542410","kind":"peak","name":"C. El Filo","lat":19.7177103,"lon":-99.2729343,"elevationM":2615},{"id":"node:11897542411","kind":"peak","name":"Cerro Gordo","lat":19.7236648,"lon":-99.2839507,"elevationM":2705},{"id":"node:11897542412","kind":"peak","name":"C. La Palma","lat":19.7501233,"lon":-99.2742251,"elevationM":2960},{"id":"node:11897542413","kind":"peak","name":"C. Tres Cabezas","lat":19.735007,"lon":-99.2730713,"elevationM":2940},{"id":"node:11897542414","kind":"peak","name":"Sierra La Muerta","lat":19.742039,"lon":-99.2734689,"elevationM":2945},{"id":"node:11897542415","kind":"peak","name":"C. Dos Cabezas","lat":19.7364458,"lon":-99.3158566,"elevationM":2935},{"id":"node:11897542416","kind":"peak","name":"C. Alcaparrosa","lat":19.7433512,"lon":-99.3140261,"elevationM":2975},{"id":"node:11897542417","kind":"peak","name":"Loma El Calvario","lat":19.699807,"lon":-99.3063148,"elevationM":2400},{"id":"node:11897542418","kind":"peak","name":"C. Pedregal","lat":19.6110365,"lon":-99.2772749,"elevationM":2400},{"id":"node:11897542419","kind":"peak","name":"C. Boludo","lat":19.5136806,"lon":-99.2695366,"elevationM":2473},{"id":"node:11897542420","kind":"peak","name":"Loma de Achichipilco","lat":19.7052508,"lon":-99.1253006,"elevationM":2350},{"id":"node:11899611850","kind":"peak","name":"Las Culebras","lat":19.7285389,"lon":-99.3178849,"elevationM":2765},{"id":"node:11899611851","kind":"peak","name":"C. Peña Colorada","lat":19.7280158,"lon":-99.3263958,"elevationM":2800},{"id":"node:11899686661","kind":"peak","name":"Los Santillanes","lat":19.7315627,"lon":-99.2433815,"elevationM":2527},{"id":"node:11899686662","kind":"peak","name":"C. El Divisadero","lat":19.7412316,"lon":-99.2358447,"elevationM":2455},{"id":"node:12014224347","kind":"peak","name":"El Mazapán","lat":19.4704343,"lon":-99.2696671,"elevationM":2391},{"id":"node:12060493320","kind":"peak","name":"Peña El Calvario","lat":19.3136899,"lon":-99.3597243,"elevationM":3500},{"id":"node:12507835616","kind":"volcano","name":"El Cajete","lat":19.220289,"lon":-99.3523275,"elevationM":null},{"id":"node:12798754634","kind":"peak","name":"Las Peñas","lat":19.5529323,"lon":-99.5975599,"elevationM":2936},{"id":"node:12802694636","kind":"peak","name":"Cerro De Santa Cruz Tepexpan","lat":19.5568643,"lon":-99.6971799,"elevationM":3011},{"id":"node:13102906611","kind":"peak","name":"Tlatixco","lat":19.3538231,"lon":-99.0013297,"elevationM":2290},{"id":"node:13125723031","kind":"volcano","name":"N","lat":19.5975556,"lon":-99.5723963,"elevationM":3239},{"id":"node:13174363057","kind":"peak","name":"Moyotepec","lat":19.2561567,"lon":-99.0664609,"elevationM":null},{"id":"node:13189413917","kind":"peak","name":"La Central","lat":19.465184,"lon":-99.2739654,"elevationM":2463},{"id":"node:13189413918","kind":"peak","name":"Las Huertas","lat":19.4597865,"lon":-99.2851016,"elevationM":2535},{"id":"node:13189413925","kind":"peak","name":"El Cobradero","lat":19.4613783,"lon":-99.3055028,"elevationM":2551},{"id":"node:13189413926","kind":"peak","name":"Las Ánimas","lat":19.4709808,"lon":-99.319488,"elevationM":2700},{"id":"node:13189464168","kind":"peak","name":"Vista del Valle","lat":19.4738483,"lon":-99.2669822,"elevationM":2450},{"id":"node:13189538415","kind":"peak","name":"Otomcapulco","lat":19.4723373,"lon":-99.2519882,"elevationM":2376},{"id":"node:13253064489","kind":"volcano","name":"Monte Alto","lat":19.3891696,"lon":-99.9986164,"elevationM":null},{"id":"node:13533759283","kind":"peak","name":"Cerro Cuate","lat":19.1938491,"lon":-99.4354144,"elevationM":2865},{"id":"node:13533759284","kind":"peak","name":"Cerro del Coyote","lat":19.1938835,"lon":-99.417162,"elevationM":2883}]}