{"tileKey":"la_p62_lo_m161","version":"v1-1775891056926","entries":[{"id":"node:11660429603","kind":"peak","name":"Tabernacle Mountain","lat":62.0050001,"lon":-160.0767186,"elevationM":351},{"id":"node:11660429620","kind":"peak","name":"The Three Domes","lat":62.8758788,"lon":-160.5988842,"elevationM":306},{"id":"node:11660429634","kind":"peak","name":"Bonasila Dome","lat":62.3219896,"lon":-160.500411,"elevationM":545},{"id":"node:11660429662","kind":"peak","name":"Two Spot Mountain","lat":62.3459067,"lon":-160.6521551,"elevationM":377},{"id":"node:11660429663","kind":"peak","name":"Grayling Peak","lat":62.882375,"lon":-160.102165,"elevationM":319},{"id":"node:11660571478","kind":"peak","name":"Chase Mountain","lat":62.0353667,"lon":-160.9945385,"elevationM":571}]}