{"tileKey":"la_p69_lo_p91","version":"v1-1775891056926","entries":[{"id":"node:1304667826","kind":"peak","name":"Плато","lat":69.2694038,"lon":91.897531,"elevationM":1365},{"id":"node:5566866244","kind":"peak","name":"Ушкан","lat":69.991892,"lon":91.289239,"elevationM":1018},{"id":"node:5566866251","kind":"peak","name":"Светлый","lat":69.185694,"lon":91.976195,"elevationM":1195},{"id":"node:5566866257","kind":"peak","name":"Отрог","lat":69.502155,"lon":91.687344,"elevationM":1138},{"id":"node:5566866258","kind":"peak","name":"Орлиная","lat":69.719555,"lon":91.716386,"elevationM":1372},{"id":"node:5566866260","kind":"peak","name":"Ланга","lat":69.011004,"lon":91.566787,"elevationM":1181},{"id":"node:5566866263","kind":"peak","name":"Бильде","lat":69.0787669,"lon":91.1084732,"elevationM":1097}]}