{"tileKey":"la_p44_lo_p51","version":"v1-1775891056926","entries":[{"id":"node:3725911663","kind":"peak","name":"Жалган","lat":44.2864409,"lon":51.9480124,"elevationM":331},{"id":"node:5139051744","kind":"peak","name":"Ушауыз","lat":44.4805111,"lon":51.4705139,"elevationM":183},{"id":"node:5139051823","kind":"peak","name":"Емдыкорган","lat":44.3873542,"lon":51.5072219,"elevationM":290},{"id":"node:5139051824","kind":"peak","name":"Акжол","lat":44.3892677,"lon":51.4953231,"elevationM":277},{"id":"node:5139053246","kind":"peak","name":"Капам","lat":44.4040028,"lon":51.0877333,"elevationM":199},{"id":"node:5139284169","kind":"peak","name":"Жангызеспе","lat":44.3491,"lon":51.8908389,"elevationM":289},{"id":"node:5139284170","kind":"peak","name":"Коксепкен","lat":44.3571417,"lon":51.8696389,"elevationM":277},{"id":"node:5139284171","kind":"peak","name":"Косторткуль","lat":44.4298778,"lon":51.8980472,"elevationM":122},{"id":"node:5139284173","kind":"peak","name":"Урыжол","lat":44.3466472,"lon":51.5953222,"elevationM":null},{"id":"node:5139284181","kind":"peak","name":"Кулаат","lat":44.3640139,"lon":51.7011528,"elevationM":277},{"id":"node:5139284195","kind":"peak","name":"Мырзатай","lat":44.4284083,"lon":51.5825361,"elevationM":233},{"id":"node:5139284595","kind":"peak","name":"Отпан","lat":44.1916006,"lon":51.8883547,"elevationM":533},{"id":"node:9171823122","kind":"peak","name":"Султанапа","lat":44.4904134,"lon":51.0432529,"elevationM":174},{"id":"node:9171839769","kind":"peak","name":"Унгоза","lat":44.441471,"lon":51.1999797,"elevationM":199}]}