{"tileKey":"la_p14_lo_p39","version":"v1-1775891056926","entries":[{"id":"node:1150886784","kind":"peak","name":"Histi","lat":14.2536194,"lon":39.0413462,"elevationM":2445},{"id":"node:1150887717","kind":"peak","name":"Zala Hill","lat":14.2316272,"lon":39.1042709,"elevationM":null},{"id":"node:1150889344","kind":"peak","name":"Alekeye","lat":14.23857,"lon":39.42168,"elevationM":3179},{"id":"node:1150892602","kind":"peak","name":"Zeban Amba","lat":14.403554,"lon":39.4002146,"elevationM":2478},{"id":"node:1150897886","kind":"peak","name":"Imbabur Terara","lat":14.3110069,"lon":39.0435628,"elevationM":null},{"id":"node:1150898519","kind":"peak","name":"Gabaile","lat":14.56032,"lon":39.6132716,"elevationM":2580},{"id":"node:1150903231","kind":"peak","name":"Kudo Korebta","lat":14.4586256,"lon":39.3473541,"elevationM":2373},{"id":"node:1150907860","kind":"peak","name":"Mezbir","lat":14.396554,"lon":39.2058923,"elevationM":null},{"id":"node:1150911220","kind":"peak","name":"Gendefta Yeterara Ch'Af","lat":14.24536,"lon":39.054146,"elevationM":2463},{"id":"node:1150916908","kind":"peak","name":"Arauoma","lat":14.4468392,"lon":39.7648858,"elevationM":2216},{"id":"node:1150917834","kind":"peak","name":"Se'Et Yeterara Senselet","lat":14.2086824,"lon":39.4743114,"elevationM":2993},{"id":"node:1150923176","kind":"peak","name":"Inte Wehi Terara","lat":14.3268624,"lon":39.0164308,"elevationM":2197},{"id":"node:1150924045","kind":"peak","name":"Kasana","lat":14.4464371,"lon":39.7000093,"elevationM":2752},{"id":"node:1150950123","kind":"peak","name":"Dongollo","lat":14.4198482,"lon":39.3855558,"elevationM":2367},{"id":"node:1150951341","kind":"peak","name":"Ra'Ayo Terara","lat":14.191326,"lon":39.0048024,"elevationM":2539},{"id":"node:1150956117","kind":"peak","name":"Kesad Ogoro","lat":14.1415,"lon":39.55789,"elevationM":2555},{"id":"node:1150962288","kind":"peak","name":"Gual Azai","lat":14.1562409,"lon":39.1622945,"elevationM":null},{"id":"node:1150962500","kind":"peak","name":"Dimbel Amba","lat":14.0896779,"lon":39.6833424,"elevationM":2784},{"id":"node:1150966074","kind":"peak","name":"Amba Bara","lat":14.0703749,"lon":39.5972105,"elevationM":2709},{"id":"node:1150966875","kind":"peak","name":"Imba Augher","lat":14.2686928,"lon":39.226514,"elevationM":null},{"id":"node:1150967189","kind":"peak","name":"Debela YeTerara Senselet","lat":14.0251792,"lon":39.6346087,"elevationM":2522},{"id":"node:1150969839","kind":"peak","name":"Monte Amo","lat":14.19392,"lon":39.528,"elevationM":3178},{"id":"node:1150978088","kind":"peak","name":"May Lebay Mēda","lat":14.1329772,"lon":39.5331056,"elevationM":2463},{"id":"node:1150980283","kind":"peak","name":"Chibidaha","lat":14.2985757,"lon":39.6091624,"elevationM":2476},{"id":"node:1950413655","kind":"peak","name":"غوال سايم","lat":14.6612572,"lon":39.4182979,"elevationM":2737},{"id":"node:1950414359","kind":"peak","name":"Ambā Fahārlika","lat":14.6900775,"lon":39.4373552,"elevationM":2672},{"id":"node:5300021213","kind":"peak","name":"Emba Soira","lat":14.7569824,"lon":39.5233981,"elevationM":3018},{"id":"node:5636353662","kind":"volcano","name":"Fafah Le","lat":14.9926166,"lon":39.8276835,"elevationM":110},{"id":"node:5636353663","kind":"volcano","name":"Fafah Le","lat":14.9091953,"lon":39.9001054,"elevationM":227},{"id":"node:6083931156","kind":"peak","name":"እንባ መጠራ","lat":14.6907739,"lon":39.4147825,"elevationM":2632},{"id":"node:7233478528","kind":"peak","name":"ከሻዓት","lat":14.6687816,"lon":39.3293168,"elevationM":null},{"id":"node:8931850560","kind":"peak","name":"Imba Hamlo","lat":14.1759244,"lon":39.3091754,"elevationM":null},{"id":"node:8931850564","kind":"peak","name":"Imba Alequa","lat":14.2613871,"lon":39.4092651,"elevationM":2815},{"id":"node:9171091779","kind":"peak","name":"Mariam Tzadia","lat":14.3683812,"lon":39.0087175,"elevationM":2056},{"id":"node:9221873186","kind":"peak","name":"Ambā Dehrō","lat":14.7141026,"lon":39.4437933,"elevationM":2608},{"id":"node:9226994663","kind":"peak","name":"May Falso Yeterara Senselet","lat":14.1847408,"lon":39.5391512,"elevationM":2993},{"id":"node:9234974006","kind":"peak","name":"Ogoro","lat":14.1409037,"lon":39.5214057,"elevationM":2466},{"id":"node:10184422756","kind":"peak","name":"Mont Socarā","lat":14.7055596,"lon":39.5444157,"elevationM":2834},{"id":"node:10237883140","kind":"peak","name":"Mont Solcotom","lat":14.5422591,"lon":39.4012053,"elevationM":2414},{"id":"node:11060497563","kind":"peak","name":"Mont Embā","lat":14.843312,"lon":39.6798685,"elevationM":2121},{"id":"node:11060680832","kind":"volcano","name":"Mount Darkōt / ዳረኮተ","lat":14.9333105,"lon":39.8248271,"elevationM":151},{"id":"node:11561534006","kind":"peak","name":"Barāulo Mount","lat":14.8810521,"lon":39.6145821,"elevationM":2651},{"id":"node:11561538142","kind":"peak","name":"Grarat Mount","lat":14.8717406,"lon":39.5812369,"elevationM":2295},{"id":"node:12278812118","kind":"peak","name":"Onā Baria","lat":14.9008807,"lon":39.1444967,"elevationM":1883},{"id":"node:12296584806","kind":"peak","name":"Zebān Ze-Arē","lat":14.8775659,"lon":39.1102,"elevationM":1910}]}