{"tileKey":"la_p49_lo_m109","version":"v1-1775891056926","entries":[{"id":"node:2066461408","kind":"peak","name":"Anxiety Butte","lat":49.5960754,"lon":-108.7956933,"elevationM":1079},{"id":"node:2066461415","kind":"peak","name":"Jones Peak","lat":49.5074587,"lon":-108.9441693,"elevationM":null},{"id":"node:2066461418","kind":"peak","name":"Ravenscrag Butte","lat":49.5066525,"lon":-108.9729779,"elevationM":null},{"id":"node:2066496906","kind":"peak","name":"Cypress Hills","lat":49.6650924,"lon":-108.9006553,"elevationM":null},{"id":"node:8058238627","kind":"peak","name":"Chocolate Peak","lat":49.5211801,"lon":-108.8499027,"elevationM":null}]}