{"tileKey":"la_p12_lo_p39","version":"v1-1775891056926","entries":[{"id":"node:706520848","kind":"peak","name":"Bokura","lat":12.7737331,"lon":39.518389,"elevationM":3107},{"id":"node:1150884381","kind":"peak","name":"Amba Ferra","lat":12.8736359,"lon":39.6634325,"elevationM":1898},{"id":"node:1150885456","kind":"peak","name":"Mascalo","lat":12.5392787,"lon":39.0107799,"elevationM":2391},{"id":"node:1150898657","kind":"peak","name":"Monte Giala","lat":12.4054802,"lon":39.0658339,"elevationM":null},{"id":"node:1150899720","kind":"peak","name":"Amba Duggheducca","lat":12.973837,"lon":39.7624911,"elevationM":null},{"id":"node:1150924889","kind":"peak","name":"Toselli","lat":12.937178,"lon":39.6090122,"elevationM":3070},{"id":"node:1150941378","kind":"peak","name":"Tsoiag","lat":12.5267842,"lon":39.5900355,"elevationM":1903},{"id":"node:1150947776","kind":"peak","name":"Monte Gumasir","lat":12.9380564,"lon":39.7401535,"elevationM":1700},{"id":"node:1150957259","kind":"peak","name":"Gavsighivia","lat":12.349979,"lon":39.0702005,"elevationM":3594},{"id":"node:1150959927","kind":"peak","name":"Monti Bora","lat":12.9560226,"lon":39.2905183,"elevationM":2024},{"id":"node:1150963720","kind":"peak","name":"Abuna Josef","lat":12.1419552,"lon":39.1836197,"elevationM":4260},{"id":"node:1150969761","kind":"peak","name":"Amba Abba Gubba","lat":12.9530949,"lon":39.1317574,"elevationM":null},{"id":"node:1150976409","kind":"peak","name":"Monte Gerbaco","lat":12.4339796,"lon":39.0831369,"elevationM":null},{"id":"node:8967656688","kind":"peak","name":"Mt Bela","lat":12.4481471,"lon":39.0038127,"elevationM":null},{"id":"node:9253580923","kind":"peak","name":"iእምባ ኣላጀ","lat":12.9826041,"lon":39.5250267,"elevationM":3438},{"id":"node:11034142940","kind":"peak","name":"Tigray HP","lat":12.8590065,"lon":39.497843,"elevationM":3930}]}