{"tileKey":"la_p25_lo_p93","version":"v1-1775891056926","entries":[{"id":"node:2084899507","kind":"peak","name":"Paona","lat":25.5949258,"lon":93.8680374,"elevationM":2486},{"id":"node:4772559979","kind":"peak","name":"P. 1960","lat":25.3215523,"lon":93.4534028,"elevationM":1960},{"id":"node:5763177383","kind":"peak","name":"Mengupheju (Sirhi)","lat":25.7276836,"lon":93.9058032,"elevationM":null},{"id":"node:6236992442","kind":"peak","name":"Koubru","lat":25.0630538,"lon":93.8716506,"elevationM":2562},{"id":"node:6236992443","kind":"peak","name":"Tampaba","lat":25.1681448,"lon":93.9101887,"elevationM":2669},{"id":"node:6240643768","kind":"peak","name":"Thumjāng Klāng","lat":25.1724418,"lon":93.2415619,"elevationM":1866},{"id":"node:6240643773","kind":"peak","name":"Mahadeo","lat":25.1494268,"lon":93.1484949,"elevationM":1739},{"id":"node:6240643774","kind":"peak","name":"Kahkaha","lat":25.1133471,"lon":93.0640267,"elevationM":1736},{"id":"node:6244035019","kind":"peak","name":"Thingdon","lat":25.2742272,"lon":93.4707783,"elevationM":2019},{"id":"node:6244035020","kind":"peak","name":"Thingtubum","lat":25.3581187,"lon":93.4555918,"elevationM":1866},{"id":"node:6244035021","kind":"peak","name":"Angola","lat":25.5059995,"lon":93.628385,"elevationM":2061},{"id":"node:6244035747","kind":"peak","name":"Hizellebba","lat":25.6427454,"lon":93.9615258,"elevationM":2723},{"id":"node:6246892834","kind":"peak","name":"Tukbal","lat":25.01624,"lon":93.1081007,"elevationM":964},{"id":"node:6247258122","kind":"peak","name":"Paramha","lat":25.2081447,"lon":93.3316467,"elevationM":1620},{"id":"node:6247258123","kind":"peak","name":"Naicakula","lat":25.2657717,"lon":93.2843326,"elevationM":1423},{"id":"node:6247909777","kind":"peak","name":"Tuithang","lat":25.0096432,"lon":93.3065038,"elevationM":719},{"id":"node:6247909778","kind":"peak","name":"Cheolong","lat":25.0844426,"lon":93.3325696,"elevationM":1030},{"id":"node:6247910741","kind":"peak","name":"Hemeolowa","lat":25.1241299,"lon":93.299632,"elevationM":1682},{"id":"node:6251320186","kind":"peak","name":"Chimakudi","lat":25.778923,"lon":93.784658,"elevationM":null},{"id":"node:6251320393","kind":"peak","name":"Kalailo","lat":25.6643121,"lon":93.6655819,"elevationM":473},{"id":"node:6251458275","kind":"peak","name":"Baigida Haju","lat":25.3370641,"lon":93.2224808,"elevationM":886},{"id":"node:6251547590","kind":"peak","name":"Daimikilong","lat":25.3759809,"lon":93.9873501,"elevationM":2043},{"id":"node:6251547591","kind":"peak","name":"Laikot","lat":25.3586086,"lon":93.9008328,"elevationM":2832},{"id":"node:6251547592","kind":"peak","name":"Vallenbung","lat":25.2282561,"lon":93.7613366,"elevationM":2196},{"id":"node:6251547593","kind":"peak","name":"Sintongbungi","lat":25.2688959,"lon":93.8435624,"elevationM":null},{"id":"node:6257013643","kind":"peak","name":"Rezeolo","lat":25.4507538,"lon":93.7453722,"elevationM":1819},{"id":"node:6263644338","kind":"peak","name":"Lanin","lat":25.0909675,"lon":93.247007,"elevationM":1410},{"id":"node:6263644339","kind":"peak","name":"Garilo","lat":25.1586283,"lon":93.2193267,"elevationM":null},{"id":"node:12197522191","kind":"peak","name":"Barail Range","lat":25.2743386,"lon":93.3477616,"elevationM":null}]}