{"tileKey":"la_p18_lo_p29","version":"v1-1775891056926","entries":[{"id":"node:7731261984","kind":"peak","name":"Jabal Matassi","lat":18.883333,"lon":29.85,"elevationM":null},{"id":"node:7731288976","kind":"peak","name":"Karabat al ‘Alaqah","lat":18.983333,"lon":29.966667,"elevationM":null},{"id":"node:7731288985","kind":"peak","name":"Jabal al Khaymah","lat":18.866667,"lon":29.283333,"elevationM":null},{"id":"node:7731290293","kind":"peak","name":"Jabal Shawaf","lat":18.883333,"lon":29.9,"elevationM":null},{"id":"node:7731290308","kind":"peak","name":"Jabal Nukhaylah","lat":18.933333,"lon":29.7,"elevationM":null},{"id":"node:7731290369","kind":"peak","name":"Jabal Nuşayb al Bujr","lat":18.816667,"lon":29.583333,"elevationM":null},{"id":"node:7731290370","kind":"peak","name":"Burqat as Su‘ayfī","lat":18.666667,"lon":29.633333,"elevationM":null},{"id":"node:7731290374","kind":"peak","name":"Jabal Hasheim Azraq","lat":18.766667,"lon":29.8,"elevationM":null},{"id":"node:7731290375","kind":"peak","name":"Nuşub as Salāmāt","lat":18.9,"lon":29.316667,"elevationM":null},{"id":"node:7731290376","kind":"peak","name":"Jabal Hadariya","lat":18.833333,"lon":29.316667,"elevationM":null},{"id":"node:7731290377","kind":"peak","name":"Burqat aş Şaqr","lat":18.783333,"lon":29.316667,"elevationM":null},{"id":"node:7731290378","kind":"peak","name":"Jabal Burayşah","lat":18.666667,"lon":29.366667,"elevationM":null},{"id":"node:7731292700","kind":"peak","name":"Jabal al Ḩajar","lat":18.516667,"lon":29.55,"elevationM":null},{"id":"node:7731311399","kind":"peak","name":"Matassi Azraq","lat":18.866667,"lon":29.833333,"elevationM":null}]}