{"tileKey":"la_p59_lo_m127","version":"v1-1775891056926","entries":[{"id":"node:1688899370","kind":"peak","name":"Mount Ole","lat":59.4167247,"lon":-126.0529359,"elevationM":946},{"id":"node:1689098093","kind":"peak","name":"Mount Reid","lat":59.4763383,"lon":-126.4602473,"elevationM":1224},{"id":"node:1689562844","kind":"peak","name":"Mount Halkett","lat":59.5863486,"lon":-126.1810813,"elevationM":1537},{"id":"node:2541777559","kind":"peak","name":"Long Mountain (Peak IV)","lat":59.2920396,"lon":-126.6530986,"elevationM":1202},{"id":"node:2541882580","kind":"peak","name":"Long Mountain (Peak I)","lat":59.2575286,"lon":-126.5920427,"elevationM":1647},{"id":"node:10912690295","kind":"peak","name":"Long Mountain (Peak III)","lat":59.1846461,"lon":-126.5022634,"elevationM":1414},{"id":"node:10912728801","kind":"peak","name":"Montagnes Rocheuses","lat":59.1239084,"lon":-126.7623468,"elevationM":1291},{"id":"node:10912743122","kind":"peak","name":"Long Mountain (Peak II)","lat":59.2493898,"lon":-126.5745194,"elevationM":1577}]}