{"tileKey":"la_p44_lo_m93","version":"v1-1775891056926","entries":[{"id":"node:349444632","kind":"peak","name":"Cotter Hill","lat":44.574967,"lon":-92.1754538,"elevationM":342},{"id":"node:349444915","kind":"peak","name":"Dills Mound","lat":44.7794121,"lon":-92.7563121,"elevationM":320},{"id":"node:349445082","kind":"peak","name":"Farm Hill","lat":44.5149676,"lon":-92.1498956,"elevationM":360},{"id":"node:349445167","kind":"peak","name":"Eau Galle Mound","lat":44.6130215,"lon":-92.0021156,"elevationM":241},{"id":"node:349445277","kind":"peak","name":"Ganoe Hill","lat":44.5930221,"lon":-92.0737841,"elevationM":350},{"id":"node:349445293","kind":"peak","name":"Gap Hill","lat":44.6821873,"lon":-92.0512861,"elevationM":295},{"id":"node:349445325","kind":"peak","name":"Gates Hill","lat":44.5852445,"lon":-92.1146186,"elevationM":345},{"id":"node:349445891","kind":"peak","name":"Hammond Hill","lat":44.7571876,"lon":-92.1718477,"elevationM":342},{"id":"node:349446679","kind":"peak","name":"Maiden Rock","lat":44.5010788,"lon":-92.2893452,"elevationM":216},{"id":"node:349447007","kind":"peak","name":"Nerike Hill","lat":44.5488561,"lon":-92.1518411,"elevationM":355},{"id":"node:349447114","kind":"peak","name":"Notch Hill","lat":44.5655226,"lon":-92.1087845,"elevationM":321},{"id":"node:349448148","kind":"peak","name":"Seine Hill","lat":44.5360785,"lon":-92.150174,"elevationM":330},{"id":"node:349449822","kind":"peak","name":"Round Hill","lat":44.6032994,"lon":-92.0029487,"elevationM":297},{"id":"node:349449997","kind":"peak","name":"Starks Mound","lat":44.8099677,"lon":-92.7518679,"elevationM":310},{"id":"node:349450835","kind":"peak","name":"Ulvin Hill","lat":44.6305231,"lon":-92.45491,"elevationM":336},{"id":"node:349450920","kind":"peak","name":"Tuttle Hill","lat":44.7510763,"lon":-92.1487912,"elevationM":372},{"id":"node:349451071","kind":"peak","name":"Stringer Hill","lat":44.7019093,"lon":-92.0632316,"elevationM":321},{"id":"node:349451097","kind":"peak","name":"Weisinger Hill","lat":44.6652436,"lon":-92.1096208,"elevationM":354},{"id":"node:349451491","kind":"peak","name":"Coons Hill","lat":44.9746896,"lon":-92.7410362,"elevationM":268},{"id":"node:349452125","kind":"peak","name":"Melander Hill","lat":44.8561111,"lon":-92.6963889,"elevationM":330},{"id":"node:7884422176","kind":"peak","name":"Chimney Rock","lat":44.0545129,"lon":-92.0420794,"elevationM":318},{"id":"node:7884422177","kind":"peak","name":"Coyote Point","lat":44.0536772,"lon":-92.0487688,"elevationM":316},{"id":"node:7884422178","kind":"peak","name":"Eagle Point","lat":44.0542643,"lon":-92.0539143,"elevationM":310},{"id":"node:7884422179","kind":"peak","name":"Signal Point","lat":44.0543947,"lon":-92.0621429,"elevationM":310},{"id":"node:7884422180","kind":"peak","name":"Inspiration Point","lat":44.0466946,"lon":-92.0462549,"elevationM":316},{"id":"node:9264388687","kind":"peak","name":"Bissel's Mound","lat":44.9233224,"lon":-92.8337804,"elevationM":307},{"id":"node:9696466218","kind":"peak","name":"Friendship Point","lat":44.5096854,"lon":-92.9692155,"elevationM":null},{"id":"node:11369680157","kind":"peak","name":"Foley Mound","lat":44.2647271,"lon":-92.2338414,"elevationM":null},{"id":"node:12629112155","kind":"peak","name":"Rattlesnake Bluff","lat":44.5407733,"lon":-92.4138846,"elevationM":310}]}