{"tileKey":"la_p24_lo_p93","version":"v1-1775891056926","entries":[{"id":"node:6198679873","kind":"peak","name":"Langol Hills peak","lat":24.845363,"lon":93.8990253,"elevationM":null},{"id":"node:6236728132","kind":"peak","name":"Panckibot","lat":24.8811419,"lon":93.4710896,"elevationM":1658},{"id":"node:6236992445","kind":"peak","name":"Loijing","lat":24.7417888,"lon":93.7263471,"elevationM":2014},{"id":"node:6236992447","kind":"peak","name":"Thangjing Hill","lat":24.468188,"lon":93.6623979,"elevationM":2109},{"id":"node:6237757225","kind":"peak","name":"Langshoi Ching","lat":24.3402933,"lon":93.7959158,"elevationM":1296},{"id":"node:6248175412","kind":"peak","name":"Khaojo","lat":24.8468726,"lon":93.3092337,"elevationM":1421},{"id":"node:6248175413","kind":"peak","name":"Khaoching","lat":24.7813188,"lon":93.2768869,"elevationM":1355},{"id":"node:6248309045","kind":"peak","name":"Phalpaleth","lat":24.7896567,"lon":93.5331558,"elevationM":1305},{"id":"node:6248935884","kind":"peak","name":"1614","lat":24.9596623,"lon":93.5058617,"elevationM":null},{"id":"node:6252360569","kind":"peak","name":"Chiahpui","lat":24.0280823,"lon":93.1968818,"elevationM":1551},{"id":"node:6258353014","kind":"peak","name":"Langkot","lat":24.3416326,"lon":93.1723021,"elevationM":1106},{"id":"node:6258772977","kind":"peak","name":"Songchal","lat":24.155633,"lon":93.3868144,"elevationM":1702},{"id":"node:7485313265","kind":"peak","name":"Suangdoh Mualvumpi","lat":24.1140956,"lon":93.4978335,"elevationM":null},{"id":"node:10996221099","kind":"peak","name":"Kailam","lat":24.3394995,"lon":93.4209561,"elevationM":1840},{"id":"node:10997625201","kind":"peak","name":"Khaorang","lat":24.3851566,"lon":93.5464436,"elevationM":1690},{"id":"node:11086685391","kind":"peak","name":"Sandong","lat":24.3813822,"lon":93.738468,"elevationM":1295},{"id":"node:11086685392","kind":"peak","name":"Point 3404","lat":24.4076832,"lon":93.7233858,"elevationM":1000},{"id":"node:11163228109","kind":"peak","name":"Phaorangba","lat":24.6368046,"lon":93.584715,"elevationM":1855},{"id":"node:11163228112","kind":"peak","name":"Khaorang","lat":24.3920284,"lon":93.5919493,"elevationM":1709},{"id":"node:11167941022","kind":"peak","name":"Bhuban","lat":24.6454289,"lon":93.0143946,"elevationM":750},{"id":"node:11171654222","kind":"peak","name":"Khaorang","lat":24.2217897,"lon":93.5297842,"elevationM":1320},{"id":"node:11187735009","kind":"peak","name":"Tāokaonām","lat":24.9055362,"lon":93.338365,"elevationM":1000},{"id":"node:11606705461","kind":"peak","name":"Nabil Khunou","lat":24.4410187,"lon":93.6559251,"elevationM":1915},{"id":"node:11726230505","kind":"peak","name":"Point 5846","lat":24.6332933,"lon":93.7018946,"elevationM":1782},{"id":"node:12116409251","kind":"peak","name":"Kadangband hill","lat":24.8927733,"lon":93.8139633,"elevationM":null},{"id":"node:12154441644","kind":"peak","name":"Kangchup Hill","lat":24.8789616,"lon":93.7634595,"elevationM":1925},{"id":"node:12187185377","kind":"peak","name":"Laimaton","lat":24.6447276,"lon":93.7086004,"elevationM":null},{"id":"node:12187276596","kind":"peak","name":"Laimaton","lat":24.6916616,"lon":93.7237998,"elevationM":1665},{"id":"node:12338298450","kind":"peak","name":"Khedraga Mikir","lat":24.7138833,"lon":93.1544228,"elevationM":null},{"id":"node:12705576111","kind":"peak","name":"Haobi","lat":24.1844539,"lon":93.7822075,"elevationM":1924},{"id":"node:12708342665","kind":"peak","name":"Waishon","lat":24.4034552,"lon":93.6697596,"elevationM":1256},{"id":"node:12847455464","kind":"peak","name":"Chelonbut","lat":24.8320193,"lon":93.3025503,"elevationM":null},{"id":"node:13063976899","kind":"peak","name":"Senvon peak","lat":24.1421958,"lon":93.0473842,"elevationM":null},{"id":"node:13081560968","kind":"peak","name":"Koutruk hill","lat":24.9010881,"lon":93.8195434,"elevationM":null},{"id":"node:13185815336","kind":"peak","name":"Langol Hills","lat":24.8330524,"lon":93.8939475,"elevationM":null},{"id":"node:13185815337","kind":"peak","name":"Langol Hills peak","lat":24.8469917,"lon":93.9091957,"elevationM":null},{"id":"node:13185815341","kind":"peak","name":"Heingang Ching","lat":24.8807093,"lon":93.955352,"elevationM":null},{"id":"node:13186365576","kind":"peak","name":"Khumanthou Ching","lat":24.9494629,"lon":93.8997136,"elevationM":null},{"id":"node:13186365579","kind":"peak","name":"Heibok Ching","lat":24.7348733,"lon":93.9167292,"elevationM":null},{"id":"node:13241913080","kind":"peak","name":"Chingei Ching","lat":24.6834948,"lon":93.9442537,"elevationM":815},{"id":"node:13244287430","kind":"peak","name":"Chingjao HIll","lat":24.6687773,"lon":93.9448404,"elevationM":815},{"id":"node:13244287445","kind":"peak","name":"Chaoba Ching","lat":24.5327658,"lon":93.8321292,"elevationM":890},{"id":"node:13263855423","kind":"peak","name":"Khoupum","lat":24.6931353,"lon":93.4904621,"elevationM":1465},{"id":"node:13264959846","kind":"peak","name":"1165","lat":24.2894107,"lon":93.1968654,"elevationM":null},{"id":"node:13264959847","kind":"peak","name":"Khongjang","lat":24.2985508,"lon":93.1956383,"elevationM":1155},{"id":"node:13264960202","kind":"peak","name":"865","lat":24.3227637,"lon":93.171495,"elevationM":null},{"id":"node:13264960203","kind":"peak","name":"925","lat":24.3267476,"lon":93.1636227,"elevationM":null},{"id":"node:13275300041","kind":"peak","name":"Nungsai","lat":24.4448866,"lon":93.4832032,"elevationM":1560},{"id":"node:13289880383","kind":"peak","name":"Pukhao Ahallup","lat":24.9781511,"lon":93.9987783,"elevationM":1265},{"id":"node:13354275561","kind":"peak","name":"Uyok Ching","lat":24.7144982,"lon":93.7487956,"elevationM":1355},{"id":"node:13360318426","kind":"peak","name":"Maibam Ching","lat":24.7031417,"lon":93.8171791,"elevationM":865},{"id":"node:13360318427","kind":"peak","name":"Ishak Chingphu Ching","lat":24.6831801,"lon":93.8378187,"elevationM":925}]}