{"tileKey":"la_p8_lo_m78","version":"v1-1775891056926","entries":[{"id":"node:1021647694","kind":"peak","name":"Cerro","lat":8.29611,"lon":-77.3493072,"elevationM":1676},{"id":"node:1022479609","kind":"peak","name":"Pico Darién","lat":8.4726084,"lon":-77.4475554,"elevationM":1405},{"id":"node:1022625576","kind":"peak","name":"Cerro Gandi","lat":8.50834,"lon":-77.4566953,"elevationM":1155},{"id":"node:7722117791","kind":"peak","name":"Loma","lat":8.8715834,"lon":-77.7564714,"elevationM":615},{"id":"node:9071208020","kind":"peak","name":"Cerro","lat":8.1187452,"lon":-77.2325885,"elevationM":1555},{"id":"node:9071208021","kind":"peak","name":"Cerro","lat":8.1571288,"lon":-77.2774673,"elevationM":1805},{"id":"node:9071208022","kind":"peak","name":"Pico","lat":8.3601473,"lon":-77.3628044,"elevationM":1490},{"id":"node:9130659090","kind":"peak","name":"Cerro de Haití","lat":8.5551775,"lon":-77.4451482,"elevationM":765},{"id":"node:9966540808","kind":"peak","name":"Cerrito","lat":8.8193028,"lon":-77.7714443,"elevationM":485},{"id":"node:9966540809","kind":"peak","name":"Loma alta","lat":8.7351241,"lon":-77.676301,"elevationM":775},{"id":"node:12032660982","kind":"peak","name":"Cerro El Parado","lat":8.6475,"lon":-77.3555887,"elevationM":294},{"id":"node:12376007365","kind":"peak","name":"Cerro Tacarcuna","lat":8.1661361,"lon":-77.2960185,"elevationM":1875},{"id":"node:12704052256","kind":"peak","name":"Peña del Diablo","lat":8.5502778,"lon":-77.2788889,"elevationM":155},{"id":"node:12704092834","kind":"peak","name":"Serranía Tripogandi","lat":8.4197222,"lon":-77.2419444,"elevationM":251}]}