{"tileKey":"la_p19_lo_p16","version":"v1-1775891056926","entries":[{"id":"node:7721349476","kind":"peak","name":"Zizi Sanoo","lat":19.270341,"lon":16.619548,"elevationM":null},{"id":"node:7721349477","kind":"peak","name":"Ehi Bri","lat":19.289873,"lon":16.639449,"elevationM":null},{"id":"node:7721349482","kind":"peak","name":"Dériné","lat":19.623334,"lon":16.318687,"elevationM":null},{"id":"node:7721349483","kind":"peak","name":"Dougouli","lat":19.623833,"lon":16.927508,"elevationM":null},{"id":"node:7721349485","kind":"peak","name":"Darfraha","lat":19.892781,"lon":16.518499,"elevationM":null},{"id":"node:7721349487","kind":"peak","name":"Azênou","lat":19.851397,"lon":16.421875,"elevationM":null},{"id":"node:7721349488","kind":"peak","name":"Daafra","lat":19.85,"lon":16.283333,"elevationM":null},{"id":"node:7721349489","kind":"peak","name":"Madagala","lat":19.196684,"lon":16.586261,"elevationM":null},{"id":"node:7721349493","kind":"peak","name":"Eïda","lat":19.541208,"lon":16.256182,"elevationM":null},{"id":"node:7721349494","kind":"peak","name":"Sounga","lat":19.376667,"lon":16.615,"elevationM":null},{"id":"node:7721349495","kind":"peak","name":"Zizi Sanov","lat":19.220833,"lon":16.698333,"elevationM":null},{"id":"node:7721349496","kind":"peak","name":"Dougouli","lat":19.644153,"lon":16.913191,"elevationM":null},{"id":"node:7721349500","kind":"peak","name":"Tigui Bounimi","lat":19.616111,"lon":16.915,"elevationM":null},{"id":"node:7721349501","kind":"peak","name":"Aoda","lat":19.663056,"lon":16.858333,"elevationM":null},{"id":"node:7721349502","kind":"peak","name":"Ilaouen","lat":19.087553,"lon":16.57164,"elevationM":null},{"id":"node:7721349503","kind":"peak","name":"Tibérou","lat":19.877303,"lon":16.344923,"elevationM":null},{"id":"node:7721349504","kind":"peak","name":"Atroum Doma","lat":19.401177,"lon":16.813853,"elevationM":null},{"id":"node:7721349505","kind":"peak","name":"Eï","lat":19.584142,"lon":16.506492,"elevationM":null},{"id":"node:7721349549","kind":"peak","name":"Remargcha","lat":19.483333,"lon":16.716667,"elevationM":null},{"id":"node:7721349563","kind":"peak","name":"Adaou","lat":19.833333,"lon":16.15,"elevationM":null},{"id":"node:7721349584","kind":"peak","name":"Gara Yesca","lat":19.366667,"lon":16.416667,"elevationM":null},{"id":"node:7721349617","kind":"peak","name":"Dao Yasko","lat":19.924247,"lon":16.025997,"elevationM":null},{"id":"node:7721349630","kind":"peak","name":"Bizi Téga","lat":19.013889,"lon":16.942298,"elevationM":null},{"id":"node:7721349636","kind":"peak","name":"Sobka","lat":19.006108,"lon":16.654927,"elevationM":null},{"id":"node:7721349905","kind":"peak","name":"Kahor Doda","lat":19.066667,"lon":16.333333,"elevationM":null},{"id":"node:7721349927","kind":"peak","name":"Ehi Atroum","lat":19.455733,"lon":16.9081028,"elevationM":710},{"id":"node:7721349928","kind":"peak","name":"Iloun","lat":19.067249,"lon":16.703876,"elevationM":null}]}