{"tileKey":"la_p39_lo_m113","version":"v1-1775891056926","entries":[{"id":"node:356671927","kind":"peak","name":"Allison Knolls","lat":39.8310577,"lon":-112.5455091,"elevationM":1723},{"id":"node:356671986","kind":"peak","name":"Bald Mountain","lat":39.0727396,"lon":-112.3891069,"elevationM":1499},{"id":"node:356672023","kind":"peak","name":"Big Hill","lat":39.9518949,"lon":-112.0802225,"elevationM":2136},{"id":"node:356672079","kind":"peak","name":"Black Mountains","lat":39.6818937,"lon":-112.301058,"elevationM":1736},{"id":"node:356672088","kind":"peak","name":"Black Rock","lat":39.2249571,"lon":-112.756896,"elevationM":1508},{"id":"node:356672112","kind":"peak","name":"Blue Mountain","lat":39.2738482,"lon":-112.2721616,"elevationM":2605},{"id":"node:356672135","kind":"peak","name":"Boulter Summit","lat":39.9585589,"lon":-112.2421709,"elevationM":1866},{"id":"node:356672179","kind":"peak","name":"Buckhorn Mountain","lat":39.8535617,"lon":-112.081055,"elevationM":2396},{"id":"node:356672313","kind":"peak","name":"Cedar Mountain","lat":39.0360735,"lon":-112.3257717,"elevationM":1715},{"id":"node:356672330","kind":"peak","name":"Chalk Knolls","lat":39.3721743,"lon":-112.9388484,"elevationM":1449},{"id":"node:356672336","kind":"peak","name":"Chicken Rock","lat":39.8524472,"lon":-112.3838394,"elevationM":2160},{"id":"node:356672354","kind":"peak","name":"Clay Knoll","lat":39.2527331,"lon":-112.8827336,"elevationM":1395},{"id":"node:356672460","kind":"peak","name":"Coyote Knoll","lat":39.806058,"lon":-112.5316194,"elevationM":1704},{"id":"node:356672502","kind":"peak","name":"Cup Butte","lat":39.9038334,"lon":-112.8430203,"elevationM":1597},{"id":"node:356672575","kind":"peak","name":"Desert Mountain","lat":39.7813357,"lon":-112.5941208,"elevationM":1957},{"id":"node:356672673","kind":"peak","name":"Eureka Peak","lat":39.9405055,"lon":-112.1180011,"elevationM":2413},{"id":"node:356672760","kind":"volcano","name":"Fumarole Butte","lat":39.6153017,"lon":-112.8036616,"elevationM":1603},{"id":"node:356672821","kind":"peak","name":"Godiva Mountain","lat":39.9424502,"lon":-112.1032786,"elevationM":2448},{"id":"node:356672881","kind":"peak","name":"Great Stone Face","lat":39.2332903,"lon":-112.7488404,"elevationM":1482},{"id":"node:356672934","kind":"peak","name":"Hannifin Peak","lat":39.9982826,"lon":-112.1505024,"elevationM":2461},{"id":"node:356672976","kind":"peak","name":"Harvey Knoll","lat":39.8202232,"lon":-112.7930168,"elevationM":1585},{"id":"node:356673106","kind":"peak","name":"Horseshoe Hill","lat":39.87245,"lon":-112.1163338,"elevationM":1904},{"id":"node:356673344","kind":"peak","name":"Keg Mountain","lat":39.7888343,"lon":-112.8413515,"elevationM":2224},{"id":"node:356673364","kind":"peak","name":"Knobby","lat":39.1769044,"lon":-112.5032773,"elevationM":1433},{"id":"node:356673453","kind":"peak","name":"Lime Peak","lat":39.9807839,"lon":-112.0766116,"elevationM":2113},{"id":"node:356673474","kind":"peak","name":"Lion Peak","lat":39.9535557,"lon":-112.7238506,"elevationM":2469},{"id":"node:356673509","kind":"peak","name":"Little Hill","lat":39.948284,"lon":-112.0705001,"elevationM":1953},{"id":"node:356673589","kind":"peak","name":"Low Hills","lat":39.3232918,"lon":-112.1188247,"elevationM":1766},{"id":"node:356673612","kind":"peak","name":"Mammoth Peak","lat":39.9318946,"lon":-112.1035563,"elevationM":2471},{"id":"node:356673615","kind":"peak","name":"Maple Peak","lat":39.8657808,"lon":-112.3216161,"elevationM":2450},{"id":"node:356673670","kind":"peak","name":"Mineral Hill","lat":39.9477286,"lon":-112.0660556,"elevationM":1991},{"id":"node:356673768","kind":"peak","name":"North Hill","lat":39.964395,"lon":-112.0766115,"elevationM":1978},{"id":"node:356673806","kind":"peak","name":"Old Baldy","lat":39.9888386,"lon":-112.1282796,"elevationM":2227},{"id":"node:356673827","kind":"peak","name":"Pahvant Butte","lat":39.131627,"lon":-112.552167,"elevationM":1750},{"id":"node:356673842","kind":"peak","name":"Picture Rock Hills","lat":39.6724466,"lon":-112.9313532,"elevationM":1621},{"id":"node:356673858","kind":"peak","name":"Pinyon Peak","lat":39.9941174,"lon":-112.0663338,"elevationM":2345},{"id":"node:356673893","kind":"peak","name":"Pot Mountain","lat":39.1294031,"lon":-112.7735621,"elevationM":1463},{"id":"node:356673918","kind":"peak","name":"Rattlesnake Peak","lat":39.8149504,"lon":-112.1007773,"elevationM":2181},{"id":"node:356673930","kind":"peak","name":"Red Cedar Hill","lat":39.0063518,"lon":-112.2654921,"elevationM":1784},{"id":"node:356674000","kind":"peak","name":"Rocky Knoll","lat":39.1735677,"lon":-112.8941218,"elevationM":1396},{"id":"node:356674021","kind":"peak","name":"Round Knoll","lat":39.9727263,"lon":-112.1966143,"elevationM":1984},{"id":"node:356674059","kind":"peak","name":"Sand Hills","lat":39.638561,"lon":-112.4021699,"elevationM":1649},{"id":"node:356674109","kind":"peak","name":"Sioux Peak","lat":39.9355058,"lon":-112.1010563,"elevationM":2470},{"id":"node:356674116","kind":"peak","name":"Smelter Knolls","lat":39.43384,"lon":-112.8571796,"elevationM":1556},{"id":"node:356674130","kind":"peak","name":"South Apex Hill","lat":39.9357843,"lon":-112.0527217,"elevationM":1861},{"id":"node:356674347","kind":"peak","name":"Sunrise Peak","lat":39.8671727,"lon":-112.0904998,"elevationM":2343},{"id":"node:356674354","kind":"peak","name":"Sunstone Knoll","lat":39.1463478,"lon":-112.7171718,"elevationM":1412},{"id":"node:356674456","kind":"peak","name":"Table Mountain","lat":39.9391108,"lon":-112.8894114,"elevationM":1759},{"id":"node:356674538","kind":"peak","name":"The Knoll","lat":39.5666179,"lon":-112.4407805,"elevationM":1494},{"id":"node:356674560","kind":"peak","name":"The Summit","lat":39.9593946,"lon":-112.1018898,"elevationM":2008},{"id":"node:356674608","kind":"peak","name":"Tintic Mountain","lat":39.8193953,"lon":-112.0691098,"elevationM":2495},{"id":"node:356674625","kind":"peak","name":"Treasure Hill","lat":39.8960613,"lon":-112.1052226,"elevationM":2090},{"id":"node:356674685","kind":"peak","name":"Warehouse Rock","lat":39.9066113,"lon":-112.8252419,"elevationM":1484},{"id":"node:356674745","kind":"peak","name":"West Mountain","lat":39.0177337,"lon":-112.3823263,"elevationM":1559},{"id":"node:356676203","kind":"peak","name":"Sand Mountain","lat":39.632903,"lon":-112.3935502,"elevationM":1722},{"id":"node:356677367","kind":"peak","name":"Packard Peak","lat":39.9738387,"lon":-112.1243905,"elevationM":2371},{"id":"node:356677573","kind":"peak","name":"Black Crook Peak","lat":39.9843898,"lon":-112.539956,"elevationM":2802},{"id":"node:356677586","kind":"peak","name":"Black Peak","lat":39.9477238,"lon":-112.4860649,"elevationM":2711},{"id":"node:356677829","kind":"peak","name":"Champlin Peak","lat":39.6166179,"lon":-112.2204993,"elevationM":2283},{"id":"node:356677910","kind":"peak","name":"Coffee Peak","lat":39.0599615,"lon":-112.1377123,"elevationM":3038},{"id":"node:356678009","kind":"peak","name":"Dairy Knoll","lat":39.0905162,"lon":-112.041044,"elevationM":1831},{"id":"node:356678144","kind":"peak","name":"Dutch Peak","lat":39.954946,"lon":-112.4805093,"elevationM":2726},{"id":"node:356678250","kind":"peak","name":"Erickson Knoll","lat":39.8916126,"lon":-112.5805113,"elevationM":1783},{"id":"node:356678469","kind":"peak","name":"Fool Creek Peak","lat":39.393012,"lon":-112.2071615,"elevationM":2936},{"id":"node:356678904","kind":"peak","name":"Indian Knoll","lat":39.1341272,"lon":-112.057711,"elevationM":1846},{"id":"node:356678916","kind":"peak","name":"J Hill","lat":39.921336,"lon":-112.3446727,"elevationM":2246},{"id":"node:356679082","kind":"peak","name":"Lion Hill","lat":39.9991122,"lon":-112.5016216,"elevationM":2079},{"id":"node:356679146","kind":"peak","name":"Long Knoll","lat":39.1924603,"lon":-112.0827118,"elevationM":1797},{"id":"node:356679355","kind":"peak","name":"Noon Rock Peak","lat":39.1916271,"lon":-112.1210461,"elevationM":2341},{"id":"node:356679476","kind":"peak","name":"Partridge Mountain","lat":39.3291245,"lon":-112.2446618,"elevationM":2661},{"id":"node:356679673","kind":"peak","name":"Red Knoll","lat":39.0252387,"lon":-112.0396548,"elevationM":1902},{"id":"node:356679765","kind":"peak","name":"Round Hill","lat":39.0638501,"lon":-112.0966004,"elevationM":2233},{"id":"node:356679809","kind":"peak","name":"Sabie Mountain","lat":39.9666137,"lon":-112.3413398,"elevationM":2438},{"id":"node:356680159","kind":"peak","name":"Three Knolls","lat":39.0813496,"lon":-112.0377105,"elevationM":1870},{"id":"node:356680377","kind":"peak","name":"Wild Horse Peak","lat":39.4871765,"lon":-112.185773,"elevationM":2311},{"id":"node:356680398","kind":"peak","name":"Williams Peak","lat":39.2944033,"lon":-112.19716,"elevationM":2778},{"id":"node:356681300","kind":"peak","name":"Buck Peak","lat":39.3921783,"lon":-112.2363292,"elevationM":2623},{"id":"node:356684418","kind":"peak","name":"Red Skin Knolls","lat":39.9685576,"lon":-112.4046745,"elevationM":2160},{"id":"node:11367493118","kind":"peak","name":"Sixmile Point","lat":39.3159468,"lon":-112.3778529,"elevationM":null},{"id":"node:11367563981","kind":"peak","name":"Sage Hill","lat":39.0730973,"lon":-112.3249385,"elevationM":null},{"id":"node:11779583072","kind":"peak","name":"Sunset Ridge","lat":39.6189453,"lon":-112.3948225,"elevationM":null},{"id":"node:13166043561","kind":"peak","name":"Dog Valley","lat":39.7197432,"lon":-112.0229817,"elevationM":null}]}