{"tileKey":"la_p36_lo_p40","version":"v1-1775891056926","entries":[{"id":"node:567058884","kind":"peak","name":"قارة أبيض","lat":36.3215318,"lon":40.5308671,"elevationM":null},{"id":"node:567058885","kind":"peak","name":"تل التوينان","lat":36.2922654,"lon":40.4968245,"elevationM":null},{"id":"node:567060332","kind":"peak","name":"تل عرادة","lat":36.9915704,"lon":40.4238227,"elevationM":null},{"id":"node:567060527","kind":"peak","name":"تل مددان","lat":36.6917976,"lon":40.0161222,"elevationM":null},{"id":"node:567216204","kind":"peak","name":"تل شيل ويرن","lat":36.9294734,"lon":40.9508679,"elevationM":null},{"id":"node:567216455","kind":"peak","name":"تل شعير","lat":36.8833333,"lon":40.8833333,"elevationM":null},{"id":"node:571229891","kind":"peak","name":"تل كوكب","lat":36.536597,"lon":40.8604601,"elevationM":null},{"id":"node:571229909","kind":"peak","name":"تل بازاري","lat":36.6012151,"lon":40.7860407,"elevationM":null},{"id":"node:571229965","kind":"peak","name":"تل الأسود","lat":36.584213,"lon":40.8970006,"elevationM":null},{"id":"node:571230224","kind":"peak","name":"تل رجمان","lat":36.4917732,"lon":40.8040873,"elevationM":null},{"id":"node:571230335","kind":"peak","name":"تل ذئبة","lat":36.6652668,"lon":40.9292409,"elevationM":null},{"id":"node:572574291","kind":"peak","name":"تل رمان","lat":36.5739213,"lon":40.4816392,"elevationM":null},{"id":"node:572574369","kind":"peak","name":"تل الغارة","lat":36.4453872,"lon":40.3032244,"elevationM":null},{"id":"node:572574508","kind":"peak","name":"تل السوس","lat":36.4504273,"lon":40.3964151,"elevationM":null},{"id":"node:572574517","kind":"peak","name":"تل قطينة","lat":36.8018659,"lon":40.0478285,"elevationM":null},{"id":"node:572574628","kind":"peak","name":"تل الخزنة","lat":36.4817995,"lon":40.3512252,"elevationM":null},{"id":"node:572574776","kind":"peak","name":"تل بديري","lat":36.3875531,"lon":40.8138308,"elevationM":null},{"id":"node:572574791","kind":"peak","name":"أبو خشب","lat":36.4421094,"lon":40.613634,"elevationM":null},{"id":"node:572574944","kind":"peak","name":"تل أمطارية","lat":36.3006718,"lon":40.7505344,"elevationM":null},{"id":"node:572575091","kind":"peak","name":"تل الذهب","lat":36.35,"lon":40.7833333,"elevationM":null},{"id":"node:572575399","kind":"peak","name":"تل سليماني","lat":36.5717967,"lon":40.7632802,"elevationM":null},{"id":"node:572575407","kind":"peak","name":"تل بيدر","lat":36.7378479,"lon":40.5873051,"elevationM":null},{"id":"node:572575415","kind":"peak","name":"تل مبطوح","lat":36.4768488,"lon":40.1425229,"elevationM":null},{"id":"node:572575501","kind":"peak","name":"تل مجرجع","lat":36.5167094,"lon":40.7007526,"elevationM":null},{"id":"node:572575538","kind":"peak","name":"رجم الفيضات","lat":36.3794834,"lon":40.6764,"elevationM":null},{"id":"node:572575574","kind":"peak","name":"تل بارود","lat":36.4187411,"lon":40.6661003,"elevationM":null},{"id":"node:572575685","kind":"peak","name":"تل مدك","lat":36.7409312,"lon":40.147518,"elevationM":null},{"id":"node:572575763","kind":"peak","name":"تل برزان","lat":36.6010354,"lon":40.7546542,"elevationM":null},{"id":"node:572575770","kind":"peak","name":"تل مخروم","lat":36.35935,"lon":40.623457,"elevationM":null},{"id":"node:572575790","kind":"peak","name":"تل السوسة","lat":36.4790735,"lon":40.3790558,"elevationM":null},{"id":"node:572575809","kind":"peak","name":"تل المغر","lat":36.4775724,"lon":40.2449668,"elevationM":null},{"id":"node:572575816","kind":"peak","name":"تل مجدل","lat":36.5397117,"lon":40.6138722,"elevationM":null},{"id":"node:572575851","kind":"peak","name":"عبد العزيز","lat":36.4412071,"lon":40.4912504,"elevationM":835},{"id":"node:572575916","kind":"peak","name":"تل طابان","lat":36.3358209,"lon":40.7876776,"elevationM":null},{"id":"node:572575932","kind":"peak","name":"تل خليل","lat":36.3733157,"lon":40.6880515,"elevationM":null},{"id":"node:572575959","kind":"peak","name":"جبل السوسة","lat":36.4307898,"lon":40.3523488,"elevationM":null},{"id":"node:572575964","kind":"peak","name":"تل قعبة","lat":36.4330769,"lon":40.850731,"elevationM":null},{"id":"node:572575985","kind":"peak","name":"تل صفور","lat":36.3852444,"lon":40.4234106,"elevationM":null},{"id":"node:573545591","kind":"peak","name":"تل رشيدية","lat":36.1158014,"lon":40.7033959,"elevationM":null},{"id":"node:2311099970","kind":"peak","name":"Büyükkepez Tepesi","lat":36.8805361,"lon":40.0294863,"elevationM":461},{"id":"node:3469620619","kind":"peak","name":"تل السفيه","lat":36.7274448,"lon":40.161841,"elevationM":null},{"id":"node:3483843827","kind":"peak","name":"Tall Abu Bakr","lat":36.4957796,"lon":40.7730113,"elevationM":null},{"id":"node:3494533214","kind":"peak","name":"تل العصافير","lat":36.6912919,"lon":40.2187829,"elevationM":null},{"id":"node:3862588179","kind":"peak","name":"تل خنزير","lat":36.8375254,"lon":40.890132,"elevationM":null},{"id":"node:12703001190","kind":"peak","name":"Tall Maskan","lat":36.7621376,"lon":40.0856405,"elevationM":null},{"id":"node:12703001191","kind":"peak","name":"Tall Maskan","lat":36.7671527,"lon":40.0820571,"elevationM":null},{"id":"node:13423451047","kind":"peak","name":"Tell Tnenir (Thannuris)","lat":36.4215155,"lon":40.8664101,"elevationM":null}]}