{"tileKey":"la_p15_lo_p106","version":"v1-1775891056926","entries":[{"id":"node:560066032","kind":"peak","name":"ພູໂຂງ","lat":15.566667,"lon":106.366667,"elevationM":null},{"id":"node:4634648085","kind":"peak","name":"Phou Chun Tuar","lat":15.2408134,"lon":106.183386,"elevationM":1250},{"id":"node:4634649440","kind":"peak","name":"Phou Thevada","lat":15.1824377,"lon":106.2627745,"elevationM":1357},{"id":"node:4634649441","kind":"peak","name":"Phou Thevada","lat":15.1664862,"lon":106.2640083,"elevationM":1422},{"id":"node:4634649468","kind":"peak","name":"Phou Dan","lat":15.1298827,"lon":106.0861028,"elevationM":1142},{"id":"node:6269050763","kind":"peak","name":"Phou Phasouk","lat":15.8676495,"lon":106.454559,"elevationM":null}]}