{"tileKey":"la_p54_lo_m164","version":"v1-1775891056926","entries":[{"id":"node:2588520725","kind":"peak","name":"Brown Peak","lat":54.6448579,"lon":-163.742787,"elevationM":395},{"id":"node:2588520790","kind":"peak","name":"Conical Red Hill","lat":54.6403505,"lon":-163.996763,"elevationM":183},{"id":"node:2588520838","kind":"peak","name":"Sentinel Peak","lat":54.8236271,"lon":-163.3337508,"elevationM":null},{"id":"node:2588520851","kind":"peak","name":"Ikatok Peak","lat":54.7211526,"lon":-163.1603729,"elevationM":599},{"id":"node:2588520853","kind":"peak","name":"Traders Mountain","lat":54.931203,"lon":-163.3180224,"elevationM":564},{"id":"node:2588520970","kind":"volcano","name":"Ragged Jack","lat":54.7678276,"lon":-163.7284003,"elevationM":2470},{"id":"node:2588521004","kind":"peak","name":"Dora Peak","lat":54.711832,"lon":-163.1935035,"elevationM":550},{"id":"node:2588521023","kind":"volcano","name":"Shishaldin Volcano","lat":54.7563385,"lon":-163.9697562,"elevationM":2857},{"id":"node:2588521096","kind":"volcano","name":"Roundtop Mountain","lat":54.7995047,"lon":-163.5910712,"elevationM":1871},{"id":"node:2588521133","kind":"peak","name":"Lazaref Peak","lat":54.6449348,"lon":-163.5289175,"elevationM":371},{"id":"node:11657854459","kind":"peak","name":"Kenmore Head","lat":54.9460839,"lon":-163.0349073,"elevationM":91}]}