{"tileKey":"la_p22_lo_m160","version":"v1-1775891056926","entries":[{"id":"node:615323110","kind":"peak","name":"Pihea","lat":22.1549735,"lon":-159.6174719,"elevationM":1306},{"id":"node:3866624432","kind":"peak","name":"Nounou (Sleeping Giant)","lat":22.061406,"lon":-159.3548284,"elevationM":378},{"id":"node:5180999570","kind":"peak","name":"Hihimanu","lat":22.1717918,"lon":-159.4852725,"elevationM":716},{"id":"node:5180999571","kind":"peak","name":"Kauka'opua","lat":22.1850328,"lon":-159.4796409,"elevationM":388},{"id":"node:5181001827","kind":"peak","name":"Namolokama","lat":22.1310413,"lon":-159.4955674,"elevationM":1347},{"id":"node:5181001828","kind":"peak","name":"Kaliko","lat":22.1475801,"lon":-159.4963948,"elevationM":null},{"id":"node:5181001829","kind":"peak","name":"Pu'u Manu","lat":22.1564879,"lon":-159.5093385,"elevationM":977},{"id":"node:5181001830","kind":"peak","name":"Mamalahoa","lat":22.1636441,"lon":-159.514,"elevationM":1141},{"id":"node:5181001834","kind":"peak","name":"Pu'u Ki","lat":22.1779506,"lon":-159.4827991,"elevationM":398},{"id":"node:5181001969","kind":"peak","name":"Ni'ani'au","lat":22.159308,"lon":-159.654981,"elevationM":null},{"id":"node:5181033837","kind":"peak","name":"Kawaikini","lat":22.0555931,"lon":-159.4966744,"elevationM":1587},{"id":"node:5181033838","kind":"peak","name":"Wai‘ale‘ale","lat":22.0700655,"lon":-159.4979006,"elevationM":1569},{"id":"node:5181033839","kind":"peak","name":"Makaleha","lat":22.1227176,"lon":-159.4135234,"elevationM":980},{"id":"node:5181033840","kind":"peak","name":"Pu'u 'Eu","lat":22.1308087,"lon":-159.4097018,"elevationM":838},{"id":"node:5181033841","kind":"peak","name":"Namahana (Kekoiki)","lat":22.1491374,"lon":-159.4227705,"elevationM":858},{"id":"node:5181033842","kind":"peak","name":"Kalalea","lat":22.150209,"lon":-159.3302663,"elevationM":454},{"id":"node:5181139477","kind":"peak","name":"Ka'ou","lat":22.1026659,"lon":-159.6562828,"elevationM":1057},{"id":"node:5181139478","kind":"peak","name":"Pu'u Hinahina","lat":22.1062554,"lon":-159.6718225,"elevationM":1108},{"id":"node:5181139479","kind":"peak","name":"Kāhililoa","lat":22.0886715,"lon":-159.6436597,"elevationM":854},{"id":"node:5181139480","kind":"peak","name":"Ka'aha","lat":22.0650532,"lon":-159.6192648,"elevationM":null},{"id":"node:5181139481","kind":"peak","name":"Kaluaha'ula Ridge","lat":22.0801894,"lon":-159.6140603,"elevationM":1044},{"id":"node:5181139482","kind":"peak","name":"Po'okaeha","lat":22.0700658,"lon":-159.6473653,"elevationM":453},{"id":"node:5235931552","kind":"peak","name":"Kalepa","lat":22.0001953,"lon":-159.3582164,"elevationM":216},{"id":"node:5235931553","kind":"peak","name":"Kokomo","lat":22.0224743,"lon":-159.3528821,"elevationM":215},{"id":"node:5235932404","kind":"peak","name":"Mauna Kapu","lat":22.0391794,"lon":-159.3551783,"elevationM":208},{"id":"node:5235932405","kind":"peak","name":"Waiu","lat":22.0138794,"lon":-159.353139,"elevationM":202},{"id":"node:5235934167","kind":"peak","name":"Kailiiliahinale","lat":22.0088069,"lon":-159.3553233,"elevationM":null},{"id":"node:5235934186","kind":"peak","name":"Nāʻiliakaʻauea","lat":22.0342654,"lon":-159.352586,"elevationM":null},{"id":"node:5619014228","kind":"peak","name":"Ka‘anakeakua","lat":22.0448139,"lon":-159.5951915,"elevationM":1048},{"id":"node:5619014229","kind":"peak","name":"Kipole","lat":22.0342922,"lon":-159.5687986,"elevationM":908},{"id":"node:5619014230","kind":"peak","name":"Kāhililoa","lat":22.0205075,"lon":-159.598217,"elevationM":563},{"id":"node:5619015130","kind":"peak","name":"Kohua Ridge","lat":22.1064734,"lon":-159.6205142,"elevationM":1151},{"id":"node:6160091356","kind":"peak","name":"Puʻu ʻŌpae","lat":22.0363608,"lon":-159.7068465,"elevationM":null},{"id":"node:6160091494","kind":"peak","name":"Puʻu Lua","lat":22.0901533,"lon":-159.6791768,"elevationM":1060},{"id":"node:8528952699","kind":"peak","name":"Maunahou","lat":22.2144438,"lon":-159.5840335,"elevationM":455},{"id":"node:8528960780","kind":"peak","name":"Kanakou","lat":22.1780813,"lon":-159.638654,"elevationM":null},{"id":"node:8528971073","kind":"peak","name":"Makana","lat":22.2183333,"lon":-159.58,"elevationM":341},{"id":"node:8528972153","kind":"peak","name":"Maunapuluʻō","lat":22.2127778,"lon":-159.5836111,"elevationM":498},{"id":"node:11375521337","kind":"peak","name":"Paepae","lat":22.1932241,"lon":-159.509937,"elevationM":null},{"id":"node:11375521339","kind":"peak","name":"Waiokihi","lat":22.185971,"lon":-159.5137024,"elevationM":null},{"id":"node:11375521341","kind":"peak","name":"Keʻāpua","lat":22.0548574,"lon":-159.5426846,"elevationM":null},{"id":"node:11375521342","kind":"peak","name":"Waiahuakua","lat":22.175003,"lon":-159.6186089,"elevationM":null},{"id":"node:11375521347","kind":"peak","name":"Kāʻana","lat":22.0997761,"lon":-159.6767521,"elevationM":null},{"id":"node:11375521348","kind":"peak","name":"Anaki","lat":22.1476584,"lon":-159.7155976,"elevationM":null},{"id":"node:11375521351","kind":"peak","name":"Uluawaa","lat":22.1172273,"lon":-159.4194388,"elevationM":null},{"id":"node:11375521354","kind":"peak","name":"Pōhakuwaʻawaʻa","lat":22.1397331,"lon":-159.6456686,"elevationM":null},{"id":"node:11375521355","kind":"peak","name":"Sleeping Giant","lat":22.0641631,"lon":-159.3544863,"elevationM":null},{"id":"node:11375521356","kind":"peak","name":"Wēkiu","lat":22.1174025,"lon":-159.417555,"elevationM":null},{"id":"node:11375521357","kind":"peak","name":"Puʻupilo","lat":22.0536045,"lon":-159.3870521,"elevationM":null},{"id":"node:11375521358","kind":"peak","name":"Waipuni","lat":22.1767989,"lon":-159.4712153,"elevationM":null},{"id":"node:11375521361","kind":"peak","name":"Puu Laau","lat":22.1171791,"lon":-159.52505,"elevationM":null},{"id":"node:11375521362","kind":"peak","name":"Puʻuuahia","lat":22.2013889,"lon":-159.5472222,"elevationM":null},{"id":"node:11375521363","kind":"peak","name":"Puu Kinui","lat":22.1190053,"lon":-159.3635539,"elevationM":null},{"id":"node:11375521365","kind":"peak","name":"Puʻukī","lat":22.0175895,"lon":-159.6447758,"elevationM":null},{"id":"node:11375521366","kind":"peak","name":"Puu Maheu","lat":22.1794812,"lon":-159.4465022,"elevationM":null},{"id":"node:11375521367","kind":"peak","name":"Puu Lawii","lat":22.1112071,"lon":-159.3622079,"elevationM":null},{"id":"node:11375521368","kind":"peak","name":"Puu Konanae","lat":22.1483605,"lon":-159.3274235,"elevationM":null},{"id":"node:11375563769","kind":"peak","name":"Puʻunōpili","lat":22.2130556,"lon":-159.5597222,"elevationM":null},{"id":"node:11375563770","kind":"peak","name":"Puʻukī","lat":22.1763889,"lon":-159.6313889,"elevationM":null},{"id":"node:11375563771","kind":"peak","name":"Puʻukī","lat":22.0486111,"lon":-159.5163889,"elevationM":null},{"id":"node:11375563772","kind":"peak","name":"Puʻuʻiliahi","lat":22.1658333,"lon":-159.5522222,"elevationM":null},{"id":"node:11375563773","kind":"peak","name":"Puu Keakea","lat":22.159441,"lon":-159.3847079,"elevationM":null},{"id":"node:11375563775","kind":"peak","name":"Puʻukamanu","lat":22.2102778,"lon":-159.5241667,"elevationM":null},{"id":"node:11375563776","kind":"peak","name":"Puʻukamaha","lat":22.13,"lon":-159.535,"elevationM":null},{"id":"node:11375563778","kind":"peak","name":"Puʻuehu","lat":22.15652,"lon":-159.3492729,"elevationM":null},{"id":"node:11375563779","kind":"peak","name":"Pōhakupele","lat":22.0745015,"lon":-159.4815374,"elevationM":null},{"id":"node:11375563781","kind":"peak","name":"Poʻololoʻole","lat":22.0288889,"lon":-159.6422222,"elevationM":null},{"id":"node:11375563783","kind":"peak","name":"Puʻuokila","lat":22.1477413,"lon":-159.6310687,"elevationM":null},{"id":"node:11375563788","kind":"peak","name":"Puu o Miki","lat":22.1720105,"lon":-159.4708674,"elevationM":null},{"id":"node:11375563793","kind":"peak","name":"Pohakupili","lat":22.1146199,"lon":-159.3936182,"elevationM":null},{"id":"node:11375563794","kind":"peak","name":"Palikea","lat":22.1948579,"lon":-159.5654554,"elevationM":null},{"id":"node:11375563795","kind":"peak","name":"Pōhākea","lat":22.188784,"lon":-159.6053085,"elevationM":null},{"id":"node:11375563797","kind":"peak","name":"Palikea","lat":22.011941,"lon":-159.480819,"elevationM":null},{"id":"node:11375563799","kind":"peak","name":"Mālamalamaiki","lat":22.1490441,"lon":-159.3962481,"elevationM":null},{"id":"node:11375563800","kind":"peak","name":"Maunaʻou","lat":22.0388474,"lon":-159.4388674,"elevationM":null},{"id":"node:11375563801","kind":"peak","name":"Mahina Kehau","lat":22.1788578,"lon":-159.5310617,"elevationM":null},{"id":"node:11375563802","kind":"peak","name":"Paliʻeleʻele","lat":22.1847222,"lon":-159.5794444,"elevationM":null},{"id":"node:11375563803","kind":"peak","name":"Maheo","lat":22.0968096,"lon":-159.4535865,"elevationM":null},{"id":"node:11375563805","kind":"peak","name":"Pālehua","lat":22.0452744,"lon":-159.5224857,"elevationM":null},{"id":"node:11375563806","kind":"peak","name":"Nāmolokama Mountain","lat":22.1383299,"lon":-159.4997079,"elevationM":null},{"id":"node:11375563807","kind":"peak","name":"Makaopihi","lat":22.0375906,"lon":-159.5253539,"elevationM":null},{"id":"node:11375563809","kind":"peak","name":"Moaalele","lat":22.1677131,"lon":-159.6098378,"elevationM":null},{"id":"node:11375563810","kind":"peak","name":"Mount Namahana","lat":22.1492428,"lon":-159.4214389,"elevationM":null},{"id":"node:11375563811","kind":"peak","name":"Kuahua","lat":22.0263955,"lon":-159.5397019,"elevationM":null},{"id":"node:11375563813","kind":"peak","name":"ʻIole","lat":22.0276885,"lon":-159.4895983,"elevationM":null},{"id":"node:11375563814","kind":"peak","name":"Kuaohukini","lat":22.0684564,"lon":-159.4985104,"elevationM":null},{"id":"node:11375563815","kind":"peak","name":"Leleiwi","lat":22.1229931,"lon":-159.4165022,"elevationM":null},{"id":"node:11375563816","kind":"peak","name":"Kulanaililia","lat":22.2093421,"lon":-159.5673355,"elevationM":null},{"id":"node:11375563817","kind":"peak","name":"Kolopua","lat":22.1818223,"lon":-159.5321864,"elevationM":null},{"id":"node:11375563818","kind":"peak","name":"Kilohana","lat":22.1563471,"lon":-159.5941761,"elevationM":null},{"id":"node:11375563820","kind":"peak","name":"Leleiwi","lat":22.1484889,"lon":-159.4068455,"elevationM":null},{"id":"node:11375563821","kind":"peak","name":"Kukui","lat":22.0501931,"lon":-159.6582816,"elevationM":null},{"id":"node:11375563823","kind":"peak","name":"Kīloa","lat":22.1013855,"lon":-159.4869301,"elevationM":null},{"id":"node:11375563824","kind":"peak","name":"Koiohi","lat":22.03545,"lon":-159.63667,"elevationM":null},{"id":"node:11375563825","kind":"peak","name":"Kualapa","lat":22.1090048,"lon":-159.440434,"elevationM":null},{"id":"node:11375563826","kind":"peak","name":"Keanapuka","lat":22.1681871,"lon":-159.6198749,"elevationM":null},{"id":"node:11375563828","kind":"peak","name":"Keanapahu","lat":22.0308333,"lon":-159.64,"elevationM":null},{"id":"node:11375563829","kind":"peak","name":"Keahua","lat":22.1147346,"lon":-159.4316907,"elevationM":null},{"id":"node:11375563830","kind":"peak","name":"Keanaʻihiʻihi","lat":22.0267337,"lon":-159.5777035,"elevationM":null},{"id":"node:11375563831","kind":"peak","name":"Kawaiumakua","lat":22.153251,"lon":-159.3380198,"elevationM":null},{"id":"node:11375563832","kind":"peak","name":"Kaupuaʻa","lat":22.0130631,"lon":-159.5798219,"elevationM":null},{"id":"node:11375563833","kind":"peak","name":"Kaumanalehua","lat":22.1160614,"lon":-159.4769262,"elevationM":null},{"id":"node:11375563834","kind":"peak","name":"Kealawela","lat":22.1947188,"lon":-159.5477635,"elevationM":null},{"id":"node:11375563836","kind":"peak","name":"Kamani","lat":22.1893126,"lon":-159.5298257,"elevationM":null},{"id":"node:11375563837","kind":"peak","name":"Kawailewa","lat":22.1190162,"lon":-159.4817457,"elevationM":null},{"id":"node:11375563838","kind":"peak","name":"Kaumahaloa","lat":22.0583178,"lon":-159.54247,"elevationM":null},{"id":"node:11375563839","kind":"peak","name":"Kapalikea","lat":22.181113,"lon":-159.5147646,"elevationM":null},{"id":"node:11375563840","kind":"peak","name":"Kamoo Koleaka","lat":22.1936279,"lon":-159.4971864,"elevationM":null},{"id":"node:11375563844","kind":"peak","name":"Kapaka","lat":22.1649673,"lon":-159.456991,"elevationM":null},{"id":"node:11375563846","kind":"peak","name":"Kalaluapuu","lat":22.0297188,"lon":-159.533319,"elevationM":null},{"id":"node:11375563847","kind":"peak","name":"Kamakeanu","lat":22.1573381,"lon":-159.5507105,"elevationM":null},{"id":"node:11375563848","kind":"peak","name":"Kapailu","lat":22.1707984,"lon":-159.5287566,"elevationM":null},{"id":"node:11375563849","kind":"peak","name":"Kapehuaala","lat":22.1127036,"lon":-159.4133967,"elevationM":null},{"id":"node:11375563850","kind":"peak","name":"Kalehuahakihaki","lat":22.0608832,"lon":-159.6056199,"elevationM":null},{"id":"node:11375563851","kind":"peak","name":"Kalaluanahelehele","lat":22.0316633,"lon":-159.5305252,"elevationM":null},{"id":"node:11375563854","kind":"peak","name":"Kalalea","lat":22.0510831,"lon":-159.4835259,"elevationM":null},{"id":"node:11375563855","kind":"peak","name":"Kaooa","lat":22.1940761,"lon":-159.5297348,"elevationM":null},{"id":"node:11375563857","kind":"peak","name":"Kamahuna","lat":22.1008498,"lon":-159.3990248,"elevationM":null},{"id":"node:11375563858","kind":"peak","name":"Kamanu","lat":22.0487685,"lon":-159.4802697,"elevationM":null},{"id":"node:11375563859","kind":"peak","name":"Kalahū","lat":22.1562067,"lon":-159.6510945,"elevationM":null},{"id":"node:11375563860","kind":"peak","name":"Kaʻinamanu","lat":22.1463103,"lon":-159.6533203,"elevationM":null},{"id":"node:11375563864","kind":"peak","name":"Kahoʻopulu","lat":22.1575,"lon":-159.3772222,"elevationM":null},{"id":"node:11375563865","kind":"peak","name":"Kāhili","lat":22.1507311,"lon":-159.4107344,"elevationM":null},{"id":"node:11375563867","kind":"peak","name":"Kaʻala","lat":22.0182199,"lon":-159.6082807,"elevationM":null},{"id":"node:11375563868","kind":"peak","name":"Hokualele","lat":22.1468024,"lon":-159.3259036,"elevationM":null},{"id":"node:11375563869","kind":"peak","name":"Honoʻonāpali","lat":22.1813889,"lon":-159.5869444,"elevationM":null},{"id":"node:11375563873","kind":"peak","name":"Hanalei","lat":22.1148956,"lon":-159.4350071,"elevationM":null},{"id":"node:11375563874","kind":"peak","name":"Haleone","lat":22.1551755,"lon":-159.4308404,"elevationM":null},{"id":"node:11375563875","kind":"peak","name":"Halaʻula","lat":22.1763889,"lon":-159.5030556,"elevationM":null},{"id":"node:11375563877","kind":"peak","name":"Crater Hill","lat":22.2232968,"lon":-159.3951917,"elevationM":null},{"id":"node:11375563878","kind":"peak","name":"Amu","lat":22.1732344,"lon":-159.352169,"elevationM":null},{"id":"node:11375563879","kind":"peak","name":"ʻAlēalau","lat":22.1744102,"lon":-159.6261764,"elevationM":null},{"id":"node:11375563880","kind":"peak","name":"ʻAikanaka","lat":22.1883333,"lon":-159.55,"elevationM":null},{"id":"node:11375563881","kind":"peak","name":"ʻAʻahoaka","lat":22.0414097,"lon":-159.3752357,"elevationM":null},{"id":"node:11375563883","kind":"peak","name":"Halemanu","lat":22.113172,"lon":-159.6698927,"elevationM":null},{"id":"node:11375563885","kind":"peak","name":"Papaʻalai","lat":22.0730556,"lon":-159.6919444,"elevationM":null},{"id":"node:11375563886","kind":"peak","name":"Puʻukapele","lat":22.0805556,"lon":-159.6663889,"elevationM":null},{"id":"node:11375563887","kind":"peak","name":"Pōhakumanō","lat":22.051941,"lon":-159.6799857,"elevationM":null}]}