{"tileKey":"la_p7_lo_p11","version":"v1-1775891056926","entries":[{"id":"node:501248869","kind":"peak","name":"Nyiti","lat":7.883333,"lon":11.9,"elevationM":857},{"id":"node:501249186","kind":"peak","name":"Kantakusum","lat":7.833333,"lon":11.75,"elevationM":null},{"id":"node:501250240","kind":"peak","name":"Jinaji Hill","lat":7.183333,"lon":11,"elevationM":null},{"id":"node:501255818","kind":"peak","name":"Kaa Sangare Hill","lat":7.383333,"lon":11.45,"elevationM":null},{"id":"node:501263752","kind":"peak","name":"Idanu Hill","lat":7.116667,"lon":11.45,"elevationM":null},{"id":"node:501279311","kind":"peak","name":"Shilim","lat":7.733333,"lon":11.816667,"elevationM":646},{"id":"node:501295976","kind":"peak","name":"Kunsa Hill","lat":7.566667,"lon":11.483333,"elevationM":null},{"id":"node:5301267521","kind":"peak","name":"Chappal Waddi (Nigeria's Highest Point)","lat":7.0357385,"lon":11.7147331,"elevationM":2419}]}