{"tileKey":"la_p10_lo_p49","version":"v1-1775891056926","entries":[{"id":"node:1401885075","kind":"peak","name":"Jarco","lat":10.924814,"lon":49.870172,"elevationM":null},{"id":"node:1401886847","kind":"peak","name":"Dawaad","lat":10.984358,"lon":49.089271,"elevationM":null},{"id":"node:1401887639","kind":"peak","name":"Buuraha Dhidhin Boocle","lat":10.119752,"lon":49.136788,"elevationM":null},{"id":"node:1401887953","kind":"peak","name":"Shiilaale","lat":10.915279,"lon":49.43176,"elevationM":null},{"id":"node:1401888672","kind":"peak","name":"Sirqo","lat":10.837559,"lon":49.198751,"elevationM":null},{"id":"node:1401889552","kind":"peak","name":"Buur Muufaale","lat":10.97674,"lon":49.328878,"elevationM":null},{"id":"node:1401893030","kind":"peak","name":"Deylaanjiic","lat":10.952374,"lon":49.364081,"elevationM":null},{"id":"node:1401899046","kind":"peak","name":"Moxorro","lat":10.148958,"lon":49.949815,"elevationM":null},{"id":"node:1401899719","kind":"peak","name":"Laac Wanaagsan","lat":10.9954,"lon":49.043506,"elevationM":null},{"id":"node:1401901016","kind":"peak","name":"Bilbil Ciid","lat":10.664492,"lon":49.671834,"elevationM":null},{"id":"node:1401901042","kind":"peak","name":"Buur Dameer","lat":10.99356,"lon":49.145872,"elevationM":null},{"id":"node:1401901866","kind":"peak","name":"Cal Miskaat","lat":10.853722,"lon":49.814039,"elevationM":null},{"id":"node:1401903335","kind":"peak","name":"Lediid","lat":10.933056,"lon":49.397316,"elevationM":null}]}