{"tileKey":"la_p2_lo_p95","version":"v1-1775891056926","entries":[{"id":"node:1070159079","kind":"peak","name":"Leuleu Amabaan","lat":2.8127,"lon":95.8563,"elevationM":null},{"id":"node:1070161093","kind":"peak","name":"Leuleu Ivan Melaju","lat":2.6986,"lon":95.9422,"elevationM":null},{"id":"node:1070161210","kind":"peak","name":"Leuleu Mitem","lat":2.7861,"lon":95.8787,"elevationM":null},{"id":"node:1070163711","kind":"peak","name":"Sanulok","lat":2.737222,"lon":95.845556,"elevationM":null},{"id":"node:1070173380","kind":"peak","name":"Dolok Selingkambing","lat":2.874,"lon":95.8157,"elevationM":null},{"id":"node:1070173483","kind":"peak","name":"Sibigo","lat":2.8748,"lon":95.8959,"elevationM":null},{"id":"node:1070173544","kind":"peak","name":"Dolok Lakobang","lat":2.5959,"lon":95.9823,"elevationM":null},{"id":"node:1070177312","kind":"peak","name":"Leuleu Sangiran","lat":2.8934,"lon":95.8728,"elevationM":null},{"id":"node:1070179404","kind":"peak","name":"Leuleu Sibusu","lat":2.7986,"lon":95.9434,"elevationM":null},{"id":"node:1070188096","kind":"peak","name":"Leuleu Ituvo","lat":2.7157,"lon":95.9585,"elevationM":null},{"id":"node:1070190037","kind":"peak","name":"Dolok Toyang","lat":2.539,"lon":95.9334,"elevationM":null},{"id":"node:1070190665","kind":"peak","name":"Labauya","lat":2.776,"lon":95.9717,"elevationM":null},{"id":"node:13092624179","kind":"peak","name":"Leuleu Larao O Ja","lat":2.7762332,"lon":95.9705973,"elevationM":294}]}