{"tileKey":"la_p16_lo_p108","version":"v1-1775891056926","entries":[{"id":"node:1623183649","kind":"peak","name":"Núi Sơn Trà","lat":16.1195909,"lon":108.2866498,"elevationM":696},{"id":"node:1758586662","kind":"peak","name":"Thuỷ Sơn","lat":16.0043044,"lon":108.263527,"elevationM":160},{"id":"node:2093848431","kind":"peak","name":"Mộc Sơn","lat":16.0000029,"lon":108.2621751,"elevationM":null},{"id":"node:2093848443","kind":"peak","name":"Thổ Sơn","lat":16.0047612,"lon":108.255928,"elevationM":null},{"id":"node:10303626687","kind":"peak","name":"Núi Phước Tường","lat":16.0277351,"lon":108.1647027,"elevationM":327},{"id":"node:10303626688","kind":"peak","name":"Núi Cẩm Khê","lat":16.0349223,"lon":108.1622001,"elevationM":null},{"id":"node:10694135392","kind":"peak","name":"Núi Phú Gia","lat":16.2753372,"lon":108.0414454,"elevationM":334},{"id":"node:10892129283","kind":"peak","name":"Núi Đồng Đen","lat":16.1073907,"lon":108.0386388,"elevationM":868},{"id":"node:11629996926","kind":"peak","name":"Núi Hải Vân","lat":16.1922104,"lon":108.136611,"elevationM":724},{"id":"node:11630013743","kind":"peak","name":"Núi Hoi","lat":16.1836944,"lon":108.1097027,"elevationM":1192},{"id":"node:11804009414","kind":"peak","name":"Núi Giòn","lat":16.3337973,"lon":108.0256985,"elevationM":215}]}