{"tileKey":"la_p62_lo_p17","version":"v1-1775891056926","entries":[{"id":"node:149317939","kind":"peak","name":"Orraklinten","lat":62.1570143,"lon":17.3196367,"elevationM":241},{"id":"node:431006697","kind":"peak","name":"Kläppberget","lat":62.940557,"lon":17.7205241,"elevationM":null},{"id":"node:431006698","kind":"peak","name":"Latberget","lat":62.9263843,"lon":17.7166993,"elevationM":290},{"id":"node:431006700","kind":"peak","name":"Fäboberget","lat":62.9314613,"lon":17.6965506,"elevationM":null},{"id":"node:471605257","kind":"peak","name":"Svarttjärnsberget","lat":62.892466,"lon":17.7154638,"elevationM":364},{"id":"node:471605258","kind":"peak","name":"Icktjärnsberget","lat":62.90864,"lon":17.70714,"elevationM":285},{"id":"node:471605259","kind":"peak","name":"Mällbyberget","lat":62.9400354,"lon":17.7523931,"elevationM":205},{"id":"node:471605260","kind":"peak","name":"Ödsberget","lat":62.9440575,"lon":17.7598431,"elevationM":165},{"id":"node:514956289","kind":"peak","name":"Vårdkasberget","lat":62.6098777,"lon":17.9509193,"elevationM":175},{"id":"node:521553184","kind":"peak","name":"Oljeberget","lat":62.2719153,"lon":17.486623,"elevationM":null},{"id":"node:529385692","kind":"peak","name":"Björstberget","lat":62.9270728,"lon":17.7671627,"elevationM":80},{"id":"node:534772321","kind":"peak","name":"Kattberget","lat":62.9256913,"lon":17.7737083,"elevationM":80},{"id":"node:568475129","kind":"peak","name":"Ingesberget","lat":62.9195946,"lon":17.7728966,"elevationM":95},{"id":"node:573433299","kind":"peak","name":"Prästberget","lat":62.9103147,"lon":17.770037,"elevationM":150},{"id":"node:576873456","kind":"peak","name":"Ålidberget","lat":62.6587515,"lon":17.3245372,"elevationM":273},{"id":"node:576873457","kind":"peak","name":"Vitterknularna","lat":62.7657241,"lon":17.2583832,"elevationM":360},{"id":"node:576873458","kind":"peak","name":"Kroksjöåsen","lat":62.7704372,"lon":17.297522,"elevationM":345},{"id":"node:577244578","kind":"peak","name":"Billberget","lat":62.7950548,"lon":17.4065446,"elevationM":null},{"id":"node:577244581","kind":"peak","name":"Björnlandhöjden","lat":62.8469818,"lon":17.5411486,"elevationM":410},{"id":"node:577244596","kind":"peak","name":"Murstenberget","lat":62.831819,"lon":17.275524,"elevationM":null},{"id":"node:577244604","kind":"peak","name":"Bräntkullen","lat":62.8290951,"lon":17.2791289,"elevationM":null},{"id":"node:577244606","kind":"peak","name":"Lagsvedjaberget","lat":62.8051376,"lon":17.3313354,"elevationM":null},{"id":"node:577244611","kind":"peak","name":"Björnberget","lat":62.9193285,"lon":17.4645447,"elevationM":453},{"id":"node:577282160","kind":"peak","name":"Lattakåtaberget","lat":62.8055246,"lon":17.3620941,"elevationM":null},{"id":"node:577282163","kind":"peak","name":"Aldersjöhöjden","lat":62.7885153,"lon":17.2553208,"elevationM":408},{"id":"node:577282167","kind":"peak","name":"Storberget","lat":62.7902226,"lon":17.2523167,"elevationM":null},{"id":"node:577282172","kind":"peak","name":"Viksberget","lat":62.9279475,"lon":17.6128056,"elevationM":null},{"id":"node:577282178","kind":"peak","name":"Näverviksberget","lat":62.9219703,"lon":17.6540901,"elevationM":null},{"id":"node:584711178","kind":"peak","name":"Brälleberget","lat":62.6645207,"lon":17.3449893,"elevationM":null},{"id":"node:584711180","kind":"peak","name":"Trappberet","lat":62.6629244,"lon":17.2963233,"elevationM":null},{"id":"node:584711184","kind":"peak","name":"Braskusberget","lat":62.6608748,"lon":17.1588654,"elevationM":null},{"id":"node:584711189","kind":"peak","name":"Storbacken","lat":62.6598499,"lon":17.1310563,"elevationM":null},{"id":"node:584771533","kind":"peak","name":"Vitberget","lat":62.9829697,"lon":17.4366135,"elevationM":430},{"id":"node:584771541","kind":"peak","name":"Vattentjärnshöjden","lat":62.9709976,"lon":17.435369,"elevationM":null},{"id":"node:584771547","kind":"peak","name":"Erik-Matshöjden","lat":62.8547858,"lon":17.4879403,"elevationM":452},{"id":"node:584771558","kind":"peak","name":"Gillersberget","lat":62.7685663,"lon":17.5442881,"elevationM":null},{"id":"node:584786677","kind":"peak","name":"Brandbärssvedberget","lat":62.7890428,"lon":17.3183914,"elevationM":null},{"id":"node:584786686","kind":"peak","name":"Spånhyvelberget","lat":62.800952,"lon":17.357144,"elevationM":null},{"id":"node:584810576","kind":"peak","name":"Kolmsberget","lat":62.7632262,"lon":17.1808049,"elevationM":null},{"id":"node:584810582","kind":"peak","name":"Mogodsåsen","lat":62.7302895,"lon":17.2129055,"elevationM":375},{"id":"node:584810587","kind":"peak","name":"Stor-Tunberget","lat":62.68375,"lon":17.3828932,"elevationM":null},{"id":"node:584810592","kind":"peak","name":"Loberget","lat":62.7081407,"lon":17.1233412,"elevationM":null},{"id":"node:584810611","kind":"peak","name":"Hästkullen","lat":62.8207378,"lon":17.2650906,"elevationM":447},{"id":"node:597842600","kind":"peak","name":"Vangstaberget","lat":62.6223338,"lon":17.9934823,"elevationM":null},{"id":"node:619516248","kind":"peak","name":"Himmelsberget","lat":62.6104269,"lon":17.9840961,"elevationM":null},{"id":"node:619517747","kind":"peak","name":"Bräntberget","lat":62.6059098,"lon":17.9635489,"elevationM":null},{"id":"node:688491641","kind":"peak","name":"Svalaberget","lat":62.2497846,"lon":17.2855908,"elevationM":null},{"id":"node:728625506","kind":"peak","name":"Bergtjärnsberget","lat":62.8952609,"lon":17.7364641,"elevationM":275},{"id":"node:746525023","kind":"peak","name":"Bjässberget","lat":62.9125055,"lon":17.7502508,"elevationM":180},{"id":"node:761610921","kind":"peak","name":"Stigberget","lat":62.9484161,"lon":17.7253359,"elevationM":215},{"id":"node:761611156","kind":"peak","name":"Råberget","lat":62.945338,"lon":17.7240766,"elevationM":215},{"id":"node:833165138","kind":"peak","name":"Lalampberget","lat":62.8021845,"lon":17.2958034,"elevationM":null},{"id":"node:833165141","kind":"peak","name":"Isak-Olsberget","lat":62.7559646,"lon":17.362687,"elevationM":315},{"id":"node:839234563","kind":"peak","name":"Prästberget","lat":62.7996281,"lon":17.8882992,"elevationM":190},{"id":"node:900426779","kind":"peak","name":"Svartberget","lat":62.5609713,"lon":17.9406117,"elevationM":null},{"id":"node:900426825","kind":"peak","name":"Rödberget","lat":62.5586173,"lon":17.9323434,"elevationM":30},{"id":"node:900427041","kind":"peak","name":"Skravelberget","lat":62.5661285,"lon":17.954939,"elevationM":30},{"id":"node:900714663","kind":"peak","name":"Revberget","lat":62.5530447,"lon":17.9327784,"elevationM":null},{"id":"node:900714849","kind":"peak","name":"Gropberget","lat":62.5519952,"lon":17.8976652,"elevationM":null},{"id":"node:900944396","kind":"peak","name":"Lomtjärnsberget","lat":62.5895379,"lon":17.8587165,"elevationM":null},{"id":"node:900944405","kind":"peak","name":"Tjockberget","lat":62.5812526,"lon":17.9051316,"elevationM":null},{"id":"node:900944419","kind":"peak","name":"Tjockberget","lat":62.578384,"lon":17.9135993,"elevationM":null},{"id":"node:900944421","kind":"peak","name":"Frölandsberget","lat":62.6009157,"lon":17.8759108,"elevationM":null},{"id":"node:900944452","kind":"peak","name":"Blaraberget","lat":62.5781722,"lon":17.8961345,"elevationM":null},{"id":"node:900944458","kind":"peak","name":"Fälleberget","lat":62.5957294,"lon":17.895554,"elevationM":null},{"id":"node:900944459","kind":"peak","name":"Björntjärnsberget","lat":62.5719954,"lon":17.8616227,"elevationM":null},{"id":"node:900944460","kind":"peak","name":"Värptjärnsberget","lat":62.5945856,"lon":17.8652084,"elevationM":null},{"id":"node:900944461","kind":"peak","name":"Slätberget","lat":62.5940163,"lon":17.8819071,"elevationM":null},{"id":"node:900944462","kind":"peak","name":"Långseberget","lat":62.5819398,"lon":17.9461725,"elevationM":null},{"id":"node:904222064","kind":"peak","name":"Långtoberget","lat":62.5652545,"lon":17.8700136,"elevationM":null},{"id":"node:904222374","kind":"peak","name":"Truggsberget","lat":62.5657541,"lon":17.7995169,"elevationM":null},{"id":"node:904222613","kind":"peak","name":"Högberget","lat":62.5784961,"lon":17.7875693,"elevationM":null},{"id":"node:904222700","kind":"peak","name":"Lindomsberget","lat":62.5587312,"lon":17.8004611,"elevationM":null},{"id":"node:904222707","kind":"peak","name":"Spjutåsberget","lat":62.5885839,"lon":17.8354651,"elevationM":195},{"id":"node:904222747","kind":"peak","name":"Åkergrindsberget","lat":62.5574259,"lon":17.8152975,"elevationM":null},{"id":"node:904222796","kind":"peak","name":"Svältberget","lat":62.5640507,"lon":17.8512544,"elevationM":null},{"id":"node:918874779","kind":"peak","name":"Lockåsberget","lat":62.1498355,"lon":17.240215,"elevationM":null},{"id":"node:964675842","kind":"peak","name":"Blåberget","lat":62.2016647,"lon":17.4335436,"elevationM":128},{"id":"node:964676032","kind":"peak","name":"Böleberget","lat":62.2224464,"lon":17.3980664,"elevationM":null},{"id":"node:964965020","kind":"peak","name":"Hökberget","lat":62.2052523,"lon":17.3466662,"elevationM":151},{"id":"node:964965655","kind":"peak","name":"Grindbacksberget","lat":62.200719,"lon":17.3623288,"elevationM":null},{"id":"node:964965944","kind":"peak","name":"Åstjärnsberget","lat":62.1957735,"lon":17.3438415,"elevationM":null},{"id":"node:972708254","kind":"peak","name":"Skedloberget","lat":62.2597632,"lon":17.4119008,"elevationM":null},{"id":"node:1079351468","kind":"peak","name":"Södra Stadsberget","lat":62.367617,"lon":17.3161309,"elevationM":241},{"id":"node:1081213705","kind":"peak","name":"Ängomsåsen","lat":62.3568955,"lon":17.064562,"elevationM":218},{"id":"node:1081217315","kind":"peak","name":"Klissberget","lat":62.3786625,"lon":17.2037316,"elevationM":266},{"id":"node:1081231305","kind":"peak","name":"Bölomsklacken","lat":62.2057174,"lon":17.1225491,"elevationM":286},{"id":"node:1132162218","kind":"peak","name":"Oxstaberget","lat":62.4448171,"lon":17.1275225,"elevationM":null},{"id":"node:1132162230","kind":"peak","name":"Bykullen","lat":62.4460053,"lon":17.0530181,"elevationM":342},{"id":"node:1156254810","kind":"peak","name":"Algarsberget","lat":62.2521531,"lon":17.461086,"elevationM":96},{"id":"node:1156260788","kind":"peak","name":"Tomasberget","lat":62.2177209,"lon":17.6953566,"elevationM":73},{"id":"node:1375267178","kind":"peak","name":"Kaptensberget","lat":62.4168397,"lon":17.2553797,"elevationM":null},{"id":"node:1375271582","kind":"peak","name":"Klockråberget","lat":62.4212456,"lon":17.2736614,"elevationM":null},{"id":"node:1387134598","kind":"peak","name":"Ortviksberget","lat":62.4059385,"lon":17.3508229,"elevationM":90},{"id":"node:1396332344","kind":"peak","name":"Getberget","lat":62.3734191,"lon":17.3358665,"elevationM":null},{"id":"node:1413622527","kind":"peak","name":"Vinberget","lat":62.3737641,"lon":17.4280171,"elevationM":120},{"id":"node:1941983817","kind":"peak","name":"Skönviksberget","lat":62.4612655,"lon":17.3405762,"elevationM":null},{"id":"node:1941983818","kind":"peak","name":"Näsberget","lat":62.4803509,"lon":17.3205578,"elevationM":null},{"id":"node:1941983820","kind":"peak","name":"Laggarbergsberget","lat":62.4587246,"lon":17.2753448,"elevationM":null},{"id":"node:1941983822","kind":"peak","name":"Åsängsberget","lat":62.4454363,"lon":17.2751802,"elevationM":115},{"id":"node:1941983823","kind":"peak","name":"Granmyrberget","lat":62.4433072,"lon":17.2521416,"elevationM":null},{"id":"node:1941984049","kind":"peak","name":"Kvarnberget","lat":62.4302868,"lon":17.2501567,"elevationM":null},{"id":"node:1941984050","kind":"peak","name":"Uvberget","lat":62.4358279,"lon":17.2425607,"elevationM":185},{"id":"node:1946793109","kind":"peak","name":"Fillaberget","lat":62.4248854,"lon":17.3626028,"elevationM":148},{"id":"node:1965401263","kind":"peak","name":"Långberget","lat":62.2004871,"lon":17.3046456,"elevationM":150},{"id":"node:1965463752","kind":"peak","name":"Vargberget","lat":62.1834172,"lon":17.3218418,"elevationM":null},{"id":"node:1965587284","kind":"peak","name":"Järnåsbodberget","lat":62.1649351,"lon":17.3002244,"elevationM":null},{"id":"node:1965587288","kind":"peak","name":"Järnåsen","lat":62.1613156,"lon":17.2828483,"elevationM":274},{"id":"node:1975882827","kind":"peak","name":"Gammelbodberget","lat":62.1740186,"lon":17.2828299,"elevationM":null},{"id":"node:1976743389","kind":"peak","name":"Gårdvikberget","lat":62.2263256,"lon":17.2443141,"elevationM":null},{"id":"node:1976768165","kind":"peak","name":"Skärsättsberget","lat":62.2149635,"lon":17.2645324,"elevationM":150},{"id":"node:1976810232","kind":"peak","name":"Fulhällsberget","lat":62.2066884,"lon":17.3103626,"elevationM":null},{"id":"node:1984733661","kind":"peak","name":"Finstaberget","lat":62.4629195,"lon":17.3532831,"elevationM":null},{"id":"node:1985654645","kind":"peak","name":"Galgberget","lat":62.2114594,"lon":17.3603409,"elevationM":null},{"id":"node:1985654646","kind":"peak","name":"Gårdsjöberget","lat":62.2092488,"lon":17.3626908,"elevationM":null},{"id":"node:1985654647","kind":"peak","name":"Kopparmyrråberget","lat":62.212264,"lon":17.3689918,"elevationM":null},{"id":"node:1986852385","kind":"peak","name":"Bjässbodhällan","lat":62.4045041,"lon":17.5069913,"elevationM":65},{"id":"node:1986852387","kind":"peak","name":"Hovberget","lat":62.3998122,"lon":17.4716084,"elevationM":135},{"id":"node:1986852400","kind":"peak","name":"Skärberget","lat":62.3702093,"lon":17.4821908,"elevationM":null},{"id":"node:1986852401","kind":"peak","name":"Tranviksberget","lat":62.3667841,"lon":17.50864,"elevationM":null},{"id":"node:1986852402","kind":"peak","name":"Trappberget","lat":62.3803514,"lon":17.4606078,"elevationM":115},{"id":"node:2014191553","kind":"peak","name":"Hömyråsen","lat":62.2396435,"lon":17.2120241,"elevationM":null},{"id":"node:2014191559","kind":"peak","name":"Massmyrberget","lat":62.2153765,"lon":17.205801,"elevationM":null},{"id":"node:2016222664","kind":"peak","name":"Norra Stadsberget","lat":62.4018963,"lon":17.2946729,"elevationM":155},{"id":"node:2061408958","kind":"peak","name":"Bastusjöberget","lat":62.9058449,"lon":17.2696629,"elevationM":null},{"id":"node:2065391184","kind":"peak","name":"Grönviksberget","lat":62.4212879,"lon":17.5026851,"elevationM":null},{"id":"node:2065525661","kind":"peak","name":"Gammelbodberget","lat":62.4292544,"lon":17.0792676,"elevationM":null},{"id":"node:2065588045","kind":"peak","name":"Hällomsberget","lat":62.4292638,"lon":17.1925185,"elevationM":null},{"id":"node:2080511629","kind":"peak","name":"Bjärmeberget","lat":62.5087877,"lon":17.1335335,"elevationM":null},{"id":"node:2085023629","kind":"peak","name":"Gruvberget","lat":62.2683079,"lon":17.2685685,"elevationM":null},{"id":"node:2085023630","kind":"peak","name":"Källåsberget","lat":62.2581453,"lon":17.2747651,"elevationM":null},{"id":"node:2085023631","kind":"peak","name":"Rånaberget","lat":62.2666048,"lon":17.2888745,"elevationM":157},{"id":"node:2085023632","kind":"peak","name":"Vantjärnsberget","lat":62.2654943,"lon":17.2999799,"elevationM":null},{"id":"node:2086230361","kind":"peak","name":"Storberget","lat":62.3875142,"lon":17.5679617,"elevationM":92},{"id":"node:2086291582","kind":"peak","name":"Högåsen","lat":62.2810379,"lon":17.1754369,"elevationM":197},{"id":"node:2086291583","kind":"peak","name":"Per-Hansberget","lat":62.2781232,"lon":17.1465937,"elevationM":null},{"id":"node:2086328506","kind":"peak","name":"Hamreberget","lat":62.2667543,"lon":17.2185993,"elevationM":null},{"id":"node:2086328507","kind":"peak","name":"Långsjöberget","lat":62.2630112,"lon":17.2307046,"elevationM":null},{"id":"node:2086328508","kind":"peak","name":"Stordalsberget","lat":62.2551518,"lon":17.2178143,"elevationM":null},{"id":"node:2131959356","kind":"peak","name":"Brattberget","lat":62.3295903,"lon":17.4246806,"elevationM":null},{"id":"node:2131977373","kind":"peak","name":"Flaggstångsberget","lat":62.3342783,"lon":17.4135205,"elevationM":null},{"id":"node:2131977381","kind":"peak","name":"Flaggberget","lat":62.331777,"lon":17.3950454,"elevationM":30},{"id":"node:2199999651","kind":"peak","name":"Åstadberget","lat":62.2615371,"lon":17.0955722,"elevationM":null},{"id":"node:2200001925","kind":"peak","name":"Grimåsen","lat":62.1866602,"lon":17.1031253,"elevationM":null},{"id":"node:2260546964","kind":"peak","name":"Gärdeberget","lat":62.4188638,"lon":17.3578845,"elevationM":null},{"id":"node:2260548161","kind":"peak","name":"Korstaberget","lat":62.4026942,"lon":17.3776256,"elevationM":null},{"id":"node:2270294498","kind":"peak","name":"Torrsvedsberget","lat":62.4367848,"lon":17.3043211,"elevationM":105},{"id":"node:2349944872","kind":"peak","name":"Hornöberget","lat":62.8026514,"lon":17.9596851,"elevationM":123},{"id":"node:2367754135","kind":"peak","name":"Lörkullen","lat":62.2368833,"lon":17.6172175,"elevationM":35},{"id":"node:2378931621","kind":"peak","name":"Strömåsberget","lat":62.5264785,"lon":17.1802459,"elevationM":279},{"id":"node:2384360378","kind":"peak","name":"Konnsjöberget","lat":62.2083668,"lon":17.4650104,"elevationM":null},{"id":"node:2384526425","kind":"peak","name":"Älgdalsmoberget","lat":62.3719637,"lon":17.2010743,"elevationM":null},{"id":"node:2384528145","kind":"peak","name":"Pålängsberget","lat":62.3658702,"lon":17.1443555,"elevationM":null},{"id":"node:2384528146","kind":"peak","name":"Gillermyrbergen","lat":62.3618889,"lon":17.1673582,"elevationM":null},{"id":"node:2403781719","kind":"peak","name":"Gådeåberget","lat":62.6229311,"lon":17.8931006,"elevationM":140},{"id":"node:2609581317","kind":"peak","name":"Orsillberget","lat":62.4777893,"lon":17.2775116,"elevationM":null},{"id":"node:2655729893","kind":"peak","name":"Lillberget","lat":62.4998719,"lon":17.3327843,"elevationM":null},{"id":"node:2665799592","kind":"peak","name":"Bräntberget","lat":62.5068544,"lon":17.2953663,"elevationM":null},{"id":"node:2698467145","kind":"peak","name":"Brandberget","lat":62.8615967,"lon":17.9923551,"elevationM":null},{"id":"node:2698467147","kind":"peak","name":"Broberget","lat":62.8331078,"lon":17.9445056,"elevationM":null},{"id":"node:2698467149","kind":"peak","name":"Brudmoberget","lat":62.8234124,"lon":17.9576246,"elevationM":null},{"id":"node:2698467167","kind":"peak","name":"Djuptjärnsberget","lat":62.8497996,"lon":17.9662122,"elevationM":null},{"id":"node:2698467179","kind":"peak","name":"Folkjansberget","lat":62.8781712,"lon":17.9838626,"elevationM":281},{"id":"node:2698467185","kind":"peak","name":"Fäbodberget","lat":62.8820136,"lon":17.9955556,"elevationM":null},{"id":"node:2698467192","kind":"peak","name":"Grubbeberget","lat":62.8722332,"lon":17.9582584,"elevationM":null},{"id":"node:2698467193","kind":"peak","name":"Grubbeklippen","lat":62.8764232,"lon":17.9644376,"elevationM":null},{"id":"node:2698467202","kind":"peak","name":"Gusterberget","lat":62.8068649,"lon":17.9913727,"elevationM":null},{"id":"node:2698467206","kind":"peak","name":"Hakarydsberget","lat":62.8333827,"lon":17.9139581,"elevationM":null},{"id":"node:2698467207","kind":"peak","name":"Halmstubberget","lat":62.8836747,"lon":17.9485618,"elevationM":null},{"id":"node:2698467214","kind":"peak","name":"Hamptjärnsberget","lat":62.8536891,"lon":17.9799649,"elevationM":null},{"id":"node:2698467235","kind":"peak","name":"Högmyrberget","lat":62.8750073,"lon":17.9968548,"elevationM":null},{"id":"node:2698467237","kind":"peak","name":"Ingesberget","lat":62.8558578,"lon":17.9616174,"elevationM":null},{"id":"node:2698467247","kind":"peak","name":"Klackberget","lat":62.8401675,"lon":17.9420656,"elevationM":null},{"id":"node:2698467258","kind":"peak","name":"Krångberget","lat":62.8275948,"lon":17.951382,"elevationM":null},{"id":"node:2698467321","kind":"peak","name":"Nylandsberget","lat":62.8627386,"lon":17.9331612,"elevationM":null},{"id":"node:2698467323","kind":"peak","name":"Näsberget","lat":62.8365077,"lon":17.9938127,"elevationM":null},{"id":"node:2698467335","kind":"peak","name":"Ryberget","lat":62.8280289,"lon":17.9408298,"elevationM":null},{"id":"node:2698467336","kind":"peak","name":"Råstångberget","lat":62.8891281,"lon":17.9178192,"elevationM":null},{"id":"node:2698467364","kind":"peak","name":"Skallerbacken","lat":62.8174199,"lon":17.9969499,"elevationM":null},{"id":"node:2698467380","kind":"peak","name":"Stortoberget","lat":62.86719,"lon":17.98494,"elevationM":null},{"id":"node:2698467412","kind":"peak","name":"Trollbergsberget","lat":62.8437546,"lon":17.9672262,"elevationM":null},{"id":"node:2698467430","kind":"peak","name":"Vitansberget","lat":62.8320082,"lon":17.9602864,"elevationM":null},{"id":"node:2702825692","kind":"peak","name":"Råbergsberget","lat":62.7741326,"lon":17.9706066,"elevationM":null},{"id":"node:3080833058","kind":"peak","name":"Kullberget","lat":62.3693693,"lon":17.2151667,"elevationM":null},{"id":"node:3350436135","kind":"peak","name":"Vettberget","lat":62.0242817,"lon":17.3591809,"elevationM":null},{"id":"node:3652950132","kind":"peak","name":"Tuäggen","lat":62.8558454,"lon":17.8121961,"elevationM":null},{"id":"node:3652974890","kind":"peak","name":"Spelåsen","lat":62.8583037,"lon":17.8298584,"elevationM":283},{"id":"node:3655557018","kind":"peak","name":"Möckelsjöberget","lat":62.7469435,"lon":17.8819969,"elevationM":249},{"id":"node:3661370151","kind":"peak","name":"Söruddberget","lat":62.5658941,"lon":17.9777807,"elevationM":null},{"id":"node:3661370152","kind":"peak","name":"Långremberget","lat":62.573891,"lon":17.9713649,"elevationM":null},{"id":"node:3661370153","kind":"peak","name":"Kölvabergen","lat":62.580779,"lon":17.9894108,"elevationM":null},{"id":"node:3661370154","kind":"peak","name":"Kallkällberget","lat":62.5887026,"lon":17.9618377,"elevationM":null},{"id":"node:3661387955","kind":"peak","name":"Bockberget","lat":62.5987709,"lon":17.9930103,"elevationM":null},{"id":"node:3663252306","kind":"peak","name":"Hosjöberget","lat":62.8197838,"lon":17.7445486,"elevationM":null},{"id":"node:3663252307","kind":"peak","name":"Åsberget","lat":62.8218372,"lon":17.768667,"elevationM":null},{"id":"node:3663252309","kind":"peak","name":"Stor-Byberget","lat":62.8004339,"lon":17.7450636,"elevationM":null},{"id":"node:3663252310","kind":"peak","name":"Skottjärnsberget","lat":62.8309605,"lon":17.8021625,"elevationM":null},{"id":"node:3663252311","kind":"peak","name":"Buberget","lat":62.8251497,"lon":17.7875927,"elevationM":null},{"id":"node:3663252312","kind":"peak","name":"Flödeberget","lat":62.820122,"lon":17.8155091,"elevationM":null},{"id":"node:3663252313","kind":"peak","name":"Judestuguberget","lat":62.8363685,"lon":17.7838162,"elevationM":null},{"id":"node:3663252314","kind":"peak","name":"Flakatoberget","lat":62.8429801,"lon":17.7530029,"elevationM":null},{"id":"node:3663252315","kind":"peak","name":"Årstaberget","lat":62.8481117,"lon":17.7363518,"elevationM":null},{"id":"node:3663252316","kind":"peak","name":"Högberget","lat":62.8497959,"lon":17.7161601,"elevationM":null},{"id":"node:3663252317","kind":"peak","name":"Västansjöberget","lat":62.8080146,"lon":17.8522447,"elevationM":null},{"id":"node:3663252318","kind":"peak","name":"Kvarnberget","lat":62.8141326,"lon":17.8468159,"elevationM":null},{"id":"node:3664040951","kind":"peak","name":"Skalberget","lat":62.8343677,"lon":17.8029943,"elevationM":null},{"id":"node:3713758047","kind":"peak","name":"Kånkåsberget","lat":62.4465995,"lon":17.639409,"elevationM":null},{"id":"node:3875830253","kind":"peak","name":"Rotmyrsberget","lat":62.4825528,"lon":17.2412017,"elevationM":null},{"id":"node:3875841883","kind":"peak","name":"Fågelvinberget","lat":62.4806795,"lon":17.1878364,"elevationM":null},{"id":"node:3875841888","kind":"peak","name":"Örlingsberget","lat":62.4900437,"lon":17.1866498,"elevationM":null},{"id":"node:3875844414","kind":"peak","name":"Hästsvedberget","lat":62.4892434,"lon":17.2017421,"elevationM":null},{"id":"node:3875844731","kind":"peak","name":"Lodensberget","lat":62.4860516,"lon":17.2280492,"elevationM":null},{"id":"node:3991692791","kind":"peak","name":"Snusviksåsen","lat":62.3973523,"lon":17.582863,"elevationM":null},{"id":"node:4139924561","kind":"peak","name":"Bodberget","lat":62.4918288,"lon":17.264192,"elevationM":null},{"id":"node:4139924562","kind":"peak","name":"Storberget","lat":62.5109068,"lon":17.2462599,"elevationM":null},{"id":"node:4141355516","kind":"peak","name":"Knipberget","lat":62.5092179,"lon":17.2146463,"elevationM":null},{"id":"node:4141355574","kind":"peak","name":"Svedberget","lat":62.5048089,"lon":17.2326933,"elevationM":null},{"id":"node:4142239992","kind":"peak","name":"Bandsjöberget","lat":62.4925818,"lon":17.2387015,"elevationM":null},{"id":"node:4142241632","kind":"peak","name":"Fummelråberget","lat":62.4931001,"lon":17.2840995,"elevationM":null},{"id":"node:4142241633","kind":"peak","name":"Älgåsen","lat":62.5031049,"lon":17.2165571,"elevationM":null},{"id":"node:4142241634","kind":"peak","name":"Grymyrberget","lat":62.4986276,"lon":17.3042332,"elevationM":null},{"id":"node:4142241635","kind":"peak","name":"Gapåsberget","lat":62.5049901,"lon":17.2753447,"elevationM":null},{"id":"node:4142241636","kind":"peak","name":"Edsgårdsberget","lat":62.4972205,"lon":17.2799796,"elevationM":null},{"id":"node:4142241637","kind":"peak","name":"Nybräntberget","lat":62.5000742,"lon":17.2902793,"elevationM":null},{"id":"node:4281870026","kind":"peak","name":"Högberget","lat":62.9975625,"lon":17.708078,"elevationM":null},{"id":"node:4281870027","kind":"peak","name":"Korsberget","lat":62.9890074,"lon":17.7324539,"elevationM":125},{"id":"node:4281870030","kind":"peak","name":"Näsberget","lat":62.9953996,"lon":17.7318531,"elevationM":null},{"id":"node:4281870034","kind":"peak","name":"Trollberget","lat":62.9979132,"lon":17.7221113,"elevationM":null},{"id":"node:4281870035","kind":"peak","name":"Väjaberget","lat":62.980947,"lon":17.686513,"elevationM":null},{"id":"node:4309130640","kind":"peak","name":"Gamm-Skabäcksberget","lat":62.7190542,"lon":17.7691483,"elevationM":null},{"id":"node:4793857300","kind":"peak","name":"Mosjöberget","lat":62.4226219,"lon":17.058014,"elevationM":null},{"id":"node:5033771420","kind":"peak","name":"Storberget","lat":62.5125494,"lon":17.3938202,"elevationM":null},{"id":"node:5033771821","kind":"peak","name":"Lastlavaberget","lat":62.5140604,"lon":17.4082285,"elevationM":null},{"id":"node:5064972306","kind":"peak","name":"Råberget","lat":62.4910469,"lon":17.1440491,"elevationM":null},{"id":"node:5067092760","kind":"peak","name":"Solumsberget","lat":62.4707492,"lon":17.1868639,"elevationM":null},{"id":"node:5067097600","kind":"peak","name":"Gräsdalsberget","lat":62.4660106,"lon":17.2143243,"elevationM":null},{"id":"node:5067097601","kind":"peak","name":"Långmyrberget","lat":62.4399388,"lon":17.1973451,"elevationM":null},{"id":"node:5067097602","kind":"peak","name":"Orrvinberget","lat":62.4474527,"lon":17.1974221,"elevationM":null},{"id":"node:5076625446","kind":"peak","name":"Nordansjöberget","lat":62.5025316,"lon":17.1731616,"elevationM":null},{"id":"node:5076668939","kind":"peak","name":"Rösåsberget","lat":62.5220424,"lon":17.1862508,"elevationM":279},{"id":"node:5110522263","kind":"peak","name":"Trappråberget","lat":62.5351164,"lon":17.2160446,"elevationM":null},{"id":"node:5110522264","kind":"peak","name":"Hålberget","lat":62.5325625,"lon":17.2136414,"elevationM":null},{"id":"node:5110522265","kind":"peak","name":"Lappmoberget","lat":62.5321483,"lon":17.2404173,"elevationM":null},{"id":"node:5115902417","kind":"peak","name":"Rocka","lat":62.5234802,"lon":17.3815329,"elevationM":null},{"id":"node:5211085120","kind":"peak","name":"Patronssvedberget","lat":62.5227292,"lon":17.2658913,"elevationM":null},{"id":"node:5213060377","kind":"peak","name":"Sammelsberget","lat":62.5497261,"lon":17.2030203,"elevationM":null},{"id":"node:5213060378","kind":"peak","name":"Grovmyrberget","lat":62.5509615,"lon":17.230897,"elevationM":null},{"id":"node:5214978034","kind":"peak","name":"Trappråberget","lat":62.5425965,"lon":17.1877183,"elevationM":null},{"id":"node:5223555164","kind":"peak","name":"Rudtjärnsberget","lat":62.531835,"lon":17.2857632,"elevationM":null},{"id":"node:5223559255","kind":"peak","name":"Bodberget","lat":62.5494285,"lon":17.2725066,"elevationM":null},{"id":"node:5223559257","kind":"peak","name":"Snägdberget","lat":62.5421256,"lon":17.2870485,"elevationM":null},{"id":"node:5223559258","kind":"peak","name":"Tjädervinsberget","lat":62.5432159,"lon":17.3070921,"elevationM":null},{"id":"node:5223559259","kind":"peak","name":"Lunderåsberget","lat":62.5367428,"lon":17.3094503,"elevationM":null},{"id":"node:5223735907","kind":"peak","name":"Borgberget","lat":62.5277382,"lon":17.3532722,"elevationM":null},{"id":"node:5223735908","kind":"peak","name":"Björnberget","lat":62.5269957,"lon":17.3399449,"elevationM":null},{"id":"node:5225339323","kind":"peak","name":"Riberget","lat":62.5332647,"lon":17.368866,"elevationM":null},{"id":"node:5275516795","kind":"peak","name":"Bykvistberget","lat":62.5447654,"lon":17.3481236,"elevationM":null},{"id":"node:5277885596","kind":"peak","name":"Gammeldammsberget","lat":62.5502187,"lon":17.3053975,"elevationM":null},{"id":"node:5277885598","kind":"peak","name":"Kvickberget","lat":62.5574841,"lon":17.3130563,"elevationM":210},{"id":"node:5282746735","kind":"peak","name":"Stenbitberget","lat":62.566526,"lon":17.2760864,"elevationM":null},{"id":"node:5282748976","kind":"peak","name":"Fågeltuvberget","lat":62.5631448,"lon":17.2569461,"elevationM":null},{"id":"node:5282748977","kind":"peak","name":"Nässjöberget","lat":62.5647861,"lon":17.2326131,"elevationM":null},{"id":"node:5282748978","kind":"peak","name":"Storfågeltuvberget","lat":62.5610883,"lon":17.2670312,"elevationM":null},{"id":"node:5568598596","kind":"peak","name":"Kalmarksberget","lat":62.4329787,"lon":17.1325396,"elevationM":null},{"id":"node:5568598597","kind":"peak","name":"Stenbäcksberget","lat":62.424428,"lon":17.1428189,"elevationM":null},{"id":"node:5569194286","kind":"peak","name":"Storsvedberget","lat":62.4070399,"lon":17.1702376,"elevationM":null},{"id":"node:5569194287","kind":"peak","name":"Robergsberget","lat":62.4116314,"lon":17.1448789,"elevationM":null},{"id":"node:5569198758","kind":"peak","name":"Hovsåsen","lat":62.3947529,"lon":17.1589508,"elevationM":null},{"id":"node:5581836610","kind":"peak","name":"Rännberget","lat":62.4581858,"lon":17.1266847,"elevationM":null},{"id":"node:5581836649","kind":"peak","name":"Slåttsvedberget","lat":62.4600322,"lon":17.1173104,"elevationM":null},{"id":"node:5582775299","kind":"peak","name":"Lövsättberget","lat":62.4704141,"lon":17.1296958,"elevationM":null},{"id":"node:5582775453","kind":"peak","name":"Skvalaberget","lat":62.4694956,"lon":17.1138514,"elevationM":null},{"id":"node:5582785597","kind":"peak","name":"Bodåsberget","lat":62.4738256,"lon":17.0760516,"elevationM":null},{"id":"node:5623860975","kind":"peak","name":"Midskogsberget","lat":62.3125687,"lon":17.2813979,"elevationM":257},{"id":"node:5623896070","kind":"peak","name":"Slättberget","lat":62.34702,"lon":17.2606486,"elevationM":null},{"id":"node:5624596995","kind":"peak","name":"Skalberget","lat":62.3352662,"lon":17.2385258,"elevationM":null},{"id":"node:5631900755","kind":"peak","name":"Döviksjöberget","lat":62.3036454,"lon":17.3987019,"elevationM":null},{"id":"node:5631900756","kind":"peak","name":"Haraberget","lat":62.3026187,"lon":17.3914921,"elevationM":null},{"id":"node:5675819381","kind":"peak","name":"Kvarntjärnskullen","lat":62.9970291,"lon":17.3532505,"elevationM":null},{"id":"node:5675819399","kind":"peak","name":"Västansjöklippan","lat":62.9977506,"lon":17.4513968,"elevationM":null},{"id":"node:5675819402","kind":"peak","name":"Skjutvallskullen","lat":62.9946231,"lon":17.3642153,"elevationM":null},{"id":"node:5675819404","kind":"peak","name":"Tjärdalskullen","lat":62.985171,"lon":17.3788731,"elevationM":null},{"id":"node:5675821323","kind":"peak","name":"Gårdberget","lat":62.9977018,"lon":17.5278698,"elevationM":null},{"id":"node:5675822454","kind":"peak","name":"Björnberget","lat":62.989313,"lon":17.5203156,"elevationM":null},{"id":"node:5675822455","kind":"peak","name":"Vedbackberget","lat":62.9812624,"lon":17.5078702,"elevationM":null},{"id":"node:5675824867","kind":"peak","name":"Vitberget","lat":62.9753346,"lon":17.5630175,"elevationM":null},{"id":"node:5675824868","kind":"peak","name":"Grelsberget","lat":62.9779079,"lon":17.543963,"elevationM":null},{"id":"node:5675838999","kind":"peak","name":"Stor-Kroksjöberget","lat":62.9596327,"lon":17.3456137,"elevationM":null},{"id":"node:5675839000","kind":"peak","name":"Betholmsberget","lat":62.965134,"lon":17.2770779,"elevationM":null},{"id":"node:5675839001","kind":"peak","name":"Klingertjärnsberget","lat":62.9534483,"lon":17.2789662,"elevationM":null},{"id":"node:5675839002","kind":"peak","name":"Hammarshöjden","lat":62.9738521,"lon":17.3315138,"elevationM":471},{"id":"node:5675839003","kind":"peak","name":"Frättentjärnsberget","lat":62.9518871,"lon":17.2672503,"elevationM":null},{"id":"node:5713886104","kind":"peak","name":"Nolbykullen","lat":62.3048349,"lon":17.3633983,"elevationM":180},{"id":"node:5772233721","kind":"peak","name":"Bölesberget","lat":62.3027307,"lon":17.3384918,"elevationM":null},{"id":"node:5772233722","kind":"peak","name":"Brattåkersberget","lat":62.310189,"lon":17.3346723,"elevationM":null},{"id":"node:5899637710","kind":"peak","name":"Räntberget","lat":62.3006439,"lon":17.4372921,"elevationM":null},{"id":"node:5899637713","kind":"peak","name":"Hångstensberget","lat":62.3021998,"lon":17.4598441,"elevationM":null},{"id":"node:5922751417","kind":"peak","name":"Kappelsberg","lat":62.6289163,"lon":17.9734075,"elevationM":null},{"id":"node:5960896693","kind":"peak","name":"Åltjämsberget","lat":62.6200364,"lon":17.6297949,"elevationM":null},{"id":"node:5960896715","kind":"peak","name":"Djuptjärnsberget","lat":62.6562895,"lon":17.597866,"elevationM":null},{"id":"node:6069340727","kind":"peak","name":"Skataberget","lat":62.5605348,"lon":17.9597378,"elevationM":null},{"id":"node:6124942010","kind":"peak","name":"Omsberget","lat":62.3179567,"lon":17.3205578,"elevationM":null},{"id":"node:6124943162","kind":"peak","name":"Allstaåsen","lat":62.3195407,"lon":17.2509502,"elevationM":null},{"id":"node:6124948537","kind":"peak","name":"Tunomsberget","lat":62.3141386,"lon":17.2166608,"elevationM":null},{"id":"node:6124948538","kind":"peak","name":"Lillberget","lat":62.3071589,"lon":17.2588895,"elevationM":null},{"id":"node:6139028517","kind":"peak","name":"Omsberget","lat":62.343641,"lon":17.2159049,"elevationM":null},{"id":"node:6139028518","kind":"peak","name":"Vintertjärnsberget","lat":62.3474459,"lon":17.2254965,"elevationM":null},{"id":"node:6204964298","kind":"peak","name":"Brodalsberget","lat":62.5988664,"lon":17.7180936,"elevationM":null},{"id":"node:6204964299","kind":"peak","name":"Älgtjärnsberget","lat":62.5989672,"lon":17.6978418,"elevationM":null},{"id":"node:6204966460","kind":"peak","name":"Flärkberget","lat":62.5847342,"lon":17.7358648,"elevationM":null},{"id":"node:6204970485","kind":"peak","name":"Berge","lat":62.5911258,"lon":17.6984732,"elevationM":null},{"id":"node:6205014987","kind":"peak","name":"Bräntberget","lat":62.5682791,"lon":17.6921319,"elevationM":null},{"id":"node:6210433902","kind":"peak","name":"Vitmyrberget","lat":62.5704542,"lon":17.7040824,"elevationM":null},{"id":"node:6223341179","kind":"peak","name":"Blåsåsen","lat":62.5827967,"lon":17.67825,"elevationM":null},{"id":"node:6239194991","kind":"peak","name":"Rödberget","lat":62.5668562,"lon":17.723751,"elevationM":null},{"id":"node:6240417731","kind":"peak","name":"Lilltjärnsberget","lat":62.5923996,"lon":17.736454,"elevationM":null},{"id":"node:6251274325","kind":"peak","name":"Björnaberget","lat":62.6038119,"lon":17.6922747,"elevationM":null},{"id":"node:6252257490","kind":"peak","name":"Fågelmyrberget","lat":62.5903783,"lon":17.6185097,"elevationM":null},{"id":"node:6252257491","kind":"peak","name":"Trappberget","lat":62.5840557,"lon":17.6481856,"elevationM":null},{"id":"node:6252258144","kind":"peak","name":"Långvitberget","lat":62.5924667,"lon":17.6535281,"elevationM":null},{"id":"node:6254355494","kind":"peak","name":"Ansåsberget","lat":62.5618602,"lon":17.6965877,"elevationM":null},{"id":"node:6289249256","kind":"peak","name":"Högberget","lat":62.5462799,"lon":17.7009688,"elevationM":null},{"id":"node:6289253337","kind":"peak","name":"Sunneberget","lat":62.5481505,"lon":17.6424591,"elevationM":null},{"id":"node:6289377398","kind":"peak","name":"Storberget","lat":62.54041,"lon":17.6219177,"elevationM":null},{"id":"node:6289377399","kind":"peak","name":"Ladbackberget","lat":62.5340787,"lon":17.6395172,"elevationM":null},{"id":"node:6289380484","kind":"peak","name":"Råberget","lat":62.5282994,"lon":17.6915049,"elevationM":null},{"id":"node:6289380685","kind":"peak","name":"Stenskravelberget","lat":62.5241021,"lon":17.6764845,"elevationM":null},{"id":"node:6289380999","kind":"peak","name":"Daljeberget","lat":62.5248753,"lon":17.7008175,"elevationM":null},{"id":"node:6289384912","kind":"peak","name":"Tranboberget","lat":62.5380777,"lon":17.7009892,"elevationM":null},{"id":"node:6289384913","kind":"peak","name":"Kattskreberget","lat":62.5224963,"lon":17.7102804,"elevationM":null},{"id":"node:6289387326","kind":"peak","name":"Bäcksveddalsberget","lat":62.5457367,"lon":17.7160096,"elevationM":null},{"id":"node:6343479026","kind":"peak","name":"Brattsvedsberget","lat":62.6181013,"lon":17.7215962,"elevationM":null},{"id":"node:6343482708","kind":"peak","name":"Lappberget","lat":62.6218502,"lon":17.7010108,"elevationM":null},{"id":"node:6343503291","kind":"peak","name":"Näggärdsbergen","lat":62.6323618,"lon":17.679478,"elevationM":null},{"id":"node:6442510669","kind":"peak","name":"Lintjärnberget","lat":62.6424286,"lon":17.8320121,"elevationM":null},{"id":"node:6442510671","kind":"peak","name":"Flygarberget","lat":62.6249108,"lon":17.8489208,"elevationM":null},{"id":"node:6442510672","kind":"peak","name":"Edsberget","lat":62.6204705,"lon":17.8460025,"elevationM":null},{"id":"node:6442510673","kind":"peak","name":"Slumpbackberget","lat":62.6268248,"lon":17.8348445,"elevationM":null},{"id":"node:6442510674","kind":"peak","name":"Galgberget","lat":62.6248911,"lon":17.8079795,"elevationM":null},{"id":"node:6442510675","kind":"peak","name":"Hårstaberget","lat":62.6213882,"lon":17.8116488,"elevationM":null},{"id":"node:6596959717","kind":"peak","name":"Savberget","lat":62.5878686,"lon":17.7964573,"elevationM":null},{"id":"node:6634661400","kind":"peak","name":"Källberget","lat":62.5633952,"lon":17.835498,"elevationM":null},{"id":"node:6641304245","kind":"peak","name":"Högberget","lat":62.55166,"lon":17.8759032,"elevationM":null},{"id":"node:6641304247","kind":"peak","name":"Flatberget","lat":62.5511254,"lon":17.8829827,"elevationM":null},{"id":"node:6641376961","kind":"peak","name":"Koldalsberget","lat":62.6016162,"lon":17.7979459,"elevationM":null},{"id":"node:6641433042","kind":"peak","name":"Hällenylandsberget","lat":62.6078958,"lon":17.8027519,"elevationM":null},{"id":"node:6698513650","kind":"peak","name":"Högberget","lat":62.5457208,"lon":17.8424865,"elevationM":null},{"id":"node:6698513651","kind":"peak","name":"Kråkberget","lat":62.5503008,"lon":17.8364231,"elevationM":null},{"id":"node:6780395285","kind":"peak","name":"Byviksberget","lat":62.5362418,"lon":17.8672267,"elevationM":null},{"id":"node:6789809101","kind":"peak","name":"Bräntberget","lat":62.5311669,"lon":17.8491999,"elevationM":null},{"id":"node:6796391169","kind":"peak","name":"Hästsjöberget","lat":62.5292948,"lon":17.8659603,"elevationM":null},{"id":"node:6895997824","kind":"peak","name":"Västansjökullen","lat":62.1367147,"lon":17.0876812,"elevationM":null},{"id":"node:6932330921","kind":"peak","name":"Lillåbroberget","lat":62.6671982,"lon":17.5970506,"elevationM":100},{"id":"node:6932892709","kind":"peak","name":"Gorkdalsbergen","lat":62.6442232,"lon":17.5540923,"elevationM":null},{"id":"node:6932892734","kind":"peak","name":"Mösslandsberget","lat":62.6527805,"lon":17.565422,"elevationM":null},{"id":"node:6937107533","kind":"peak","name":"Bredtoberget","lat":62.6386221,"lon":17.5857638,"elevationM":null},{"id":"node:6937107534","kind":"peak","name":"Högsvedberget","lat":62.6420539,"lon":17.5434493,"elevationM":null},{"id":"node:6937107535","kind":"peak","name":"Roteberget","lat":62.6331827,"lon":17.5619244,"elevationM":null},{"id":"node:6937107536","kind":"peak","name":"Grandalsberget","lat":62.623786,"lon":17.5868368,"elevationM":null},{"id":"node:6937131234","kind":"peak","name":"Trångtoberget","lat":62.6253647,"lon":17.6266193,"elevationM":null},{"id":"node:6937131235","kind":"peak","name":"Fagertoberget","lat":62.6259567,"lon":17.6153754,"elevationM":null},{"id":"node:6937131236","kind":"peak","name":"Rotingberget","lat":62.6309683,"lon":17.6117705,"elevationM":null},{"id":"node:6937904229","kind":"peak","name":"Felemala","lat":62.6385827,"lon":17.5673961,"elevationM":null},{"id":"node:6937928995","kind":"peak","name":"Rotenhöjden","lat":62.6183785,"lon":17.5562381,"elevationM":null},{"id":"node:6937929017","kind":"peak","name":"Stormyrberget","lat":62.6162862,"lon":17.590227,"elevationM":null},{"id":"node:7021789225","kind":"peak","name":"Lappmoberget","lat":62.2624031,"lon":17.0024829,"elevationM":251},{"id":"node:7110922282","kind":"peak","name":"Billstaberget","lat":62.6377318,"lon":17.7846921,"elevationM":null},{"id":"node:7215387107","kind":"peak","name":"Hälletorpsberget","lat":62.637626,"lon":17.8953784,"elevationM":null},{"id":"node:7448446467","kind":"peak","name":"Barnberget","lat":62.4770131,"lon":17.2126834,"elevationM":null},{"id":"node:7468406013","kind":"peak","name":"Bräsmoberget","lat":62.1357536,"lon":17.3118843,"elevationM":null},{"id":"node:7468406014","kind":"peak","name":"Portberget","lat":62.1424521,"lon":17.3050178,"elevationM":null},{"id":"node:7767139952","kind":"peak","name":"Östtjärnsberget","lat":62.3304938,"lon":17.2720098,"elevationM":null},{"id":"node:7906080710","kind":"peak","name":"Slammersjöberget","lat":62.5834685,"lon":17.7158715,"elevationM":null},{"id":"node:8961027648","kind":"peak","name":"Vitberget","lat":62.6174791,"lon":17.8938754,"elevationM":null},{"id":"node:9144163953","kind":"peak","name":"Gråberget","lat":62.5289567,"lon":17.0755747,"elevationM":null},{"id":"node:9831235283","kind":"peak","name":"Finsviksberget","lat":62.6857643,"lon":17.9482268,"elevationM":null},{"id":"node:9831235284","kind":"peak","name":"Gårdmyrberget","lat":62.6931284,"lon":17.9472827,"elevationM":null},{"id":"node:9831235285","kind":"peak","name":"Middagsberget","lat":62.7024982,"lon":17.9623031,"elevationM":null},{"id":"node:9831235286","kind":"peak","name":"Åberget","lat":62.698916,"lon":17.9641914,"elevationM":null},{"id":"node:10761476253","kind":"peak","name":"Olleberget","lat":62.9006064,"lon":17.632361,"elevationM":271},{"id":"node:10761476254","kind":"peak","name":"Bastuberget","lat":62.904576,"lon":17.6231931,"elevationM":344},{"id":"node:11162381034","kind":"peak","name":"Lappkälsberget","lat":62.9695811,"lon":17.9979443,"elevationM":null},{"id":"node:11197519445","kind":"peak","name":"Snödåsberget","lat":62.9302943,"lon":17.950716,"elevationM":null},{"id":"node:12100092933","kind":"peak","name":"Bjöckesberget","lat":62.7570782,"lon":17.7108599,"elevationM":211},{"id":"node:12252684781","kind":"peak","name":"Pingstkojberget","lat":62.6914612,"lon":17.8597339,"elevationM":78},{"id":"node:12254837410","kind":"peak","name":"Middagsberget","lat":62.678132,"lon":17.7661093,"elevationM":206},{"id":"node:12402632362","kind":"peak","name":"Hjässberget","lat":62.4106431,"lon":17.0948415,"elevationM":null},{"id":"node:12402632363","kind":"peak","name":"Lönnåsen","lat":62.4086882,"lon":17.1077174,"elevationM":null},{"id":"node:12402632364","kind":"peak","name":"Roberget","lat":62.4076416,"lon":17.1214411,"elevationM":null},{"id":"node:12402642403","kind":"peak","name":"Täppberget","lat":62.5168575,"lon":17.0685772,"elevationM":null},{"id":"node:12402642404","kind":"peak","name":"Gubbgärdsberget","lat":62.512803,"lon":17.0851345,"elevationM":null},{"id":"node:12402642405","kind":"peak","name":"Kvarnsvedberget","lat":62.5069549,"lon":17.091162,"elevationM":null},{"id":"node:12402642406","kind":"peak","name":"Gruvberget","lat":62.5143803,"lon":17.132917,"elevationM":null},{"id":"node:12402642407","kind":"peak","name":"Gåltjärnsberget","lat":62.5062519,"lon":17.1027211,"elevationM":null},{"id":"node:12465616831","kind":"peak","name":"Sned-Håkansberget","lat":62.5606566,"lon":17.361516,"elevationM":null},{"id":"node:12465616832","kind":"peak","name":"Finngadden","lat":62.5561932,"lon":17.3401544,"elevationM":null},{"id":"node:12474378894","kind":"peak","name":"Kvarnberget","lat":62.9496328,"lon":17.1756112,"elevationM":null},{"id":"node:12474378899","kind":"peak","name":"Hålldammberget","lat":62.9422093,"lon":17.1733905,"elevationM":null},{"id":"node:12819152209","kind":"peak","name":"Blåberget","lat":62.3718949,"lon":17.1814849,"elevationM":null},{"id":"node:13355052795","kind":"peak","name":"Trappberget","lat":62.697106,"lon":17.7976795,"elevationM":192},{"id":"node:13473996635","kind":"peak","name":"Hammalåsen","lat":62.4294415,"lon":17.2904033,"elevationM":null},{"id":"node:13474020231","kind":"peak","name":"Kullsåsen","lat":62.4324854,"lon":17.3202597,"elevationM":null},{"id":"node:13474029086","kind":"peak","name":"Birstaberget","lat":62.4606397,"lon":17.3138387,"elevationM":185},{"id":"node:13474029087","kind":"peak","name":"Målåsberget","lat":62.4554139,"lon":17.3157628,"elevationM":null},{"id":"node:13474092737","kind":"peak","name":"Åsen","lat":62.4328916,"lon":17.2638449,"elevationM":null},{"id":"node:13474162149","kind":"peak","name":"Tjärnberget","lat":62.4778801,"lon":17.2578606,"elevationM":null},{"id":"node:13474162152","kind":"peak","name":"Roksberget","lat":62.4734453,"lon":17.256226,"elevationM":null},{"id":"node:13475976308","kind":"peak","name":"Kvickensberget","lat":62.4784691,"lon":17.2414329,"elevationM":null},{"id":"node:13476024630","kind":"peak","name":"Räbberget","lat":62.4757237,"lon":17.206445,"elevationM":null},{"id":"node:13476061987","kind":"peak","name":"Brödlösklippen","lat":62.4535097,"lon":17.2078681,"elevationM":null},{"id":"node:13476061988","kind":"peak","name":"Lillklippen","lat":62.4550514,"lon":17.2032172,"elevationM":null},{"id":"node:13476061989","kind":"peak","name":"Nyslåttberget","lat":62.4527501,"lon":17.1961433,"elevationM":null},{"id":"node:13476061990","kind":"peak","name":"Storberget","lat":62.4509376,"lon":17.1948423,"elevationM":null},{"id":"node:13476072909","kind":"peak","name":"Tornen","lat":62.4533917,"lon":17.2165812,"elevationM":null},{"id":"node:13476072910","kind":"peak","name":"Tjärdalsberget","lat":62.4485111,"lon":17.2339489,"elevationM":null},{"id":"node:13476133814","kind":"peak","name":"Kalvberget","lat":62.4620019,"lon":17.1852398,"elevationM":null},{"id":"node:13476137874","kind":"peak","name":"Kråkberget","lat":62.4577629,"lon":17.2382213,"elevationM":null},{"id":"node:13476665951","kind":"peak","name":"Lillsvedjeberget","lat":62.4452661,"lon":17.1479232,"elevationM":null},{"id":"node:13476665952","kind":"peak","name":"Stryberget","lat":62.4461793,"lon":17.1537382,"elevationM":null},{"id":"node:13476687832","kind":"peak","name":"Kallkällberget","lat":62.4412245,"lon":17.1348788,"elevationM":null},{"id":"node:13476778792","kind":"peak","name":"Åsberget","lat":62.4445193,"lon":17.4607956,"elevationM":null},{"id":"node:13682006324","kind":"peak","name":"Jon-Ers kulle","lat":62.416942,"lon":17.2771893,"elevationM":null},{"id":"node:13694806553","kind":"peak","name":"Uvberget","lat":62.3399414,"lon":17.0151681,"elevationM":null},{"id":"node:13694808672","kind":"peak","name":"Hagaberget","lat":62.3322896,"lon":17.015724,"elevationM":null}]}