{"tileKey":"la_p9_lo_p34","version":"v1-1775891056926","entries":[{"id":"node:7731288879","kind":"peak","name":"Jabal Mughade","lat":9.716667,"lon":34.05,"elevationM":null},{"id":"node:7731292464","kind":"peak","name":"Jabal Fanfan","lat":9.783333,"lon":34.133333,"elevationM":null},{"id":"node:7731292486","kind":"peak","name":"Jabal Dogabali","lat":9.7667304,"lon":34.0430477,"elevationM":null},{"id":"node:7731292487","kind":"peak","name":"Jabal Kai","lat":9.733333,"lon":34.033333,"elevationM":null},{"id":"node:7731292488","kind":"peak","name":"Jabal Uwa","lat":9.666667,"lon":34.066667,"elevationM":null},{"id":"node:7731312104","kind":"peak","name":"Jabal Shafa","lat":9.583333,"lon":34.05,"elevationM":null},{"id":"node:7731312291","kind":"peak","name":"Jabal Zazing","lat":9.583333,"lon":34.166667,"elevationM":null},{"id":"node:7731312299","kind":"peak","name":"Jabal Gemi","lat":9.033333,"lon":34.15,"elevationM":null},{"id":"node:7731312302","kind":"peak","name":"Jabal Manga","lat":9.550002,"lon":34.0999953,"elevationM":null},{"id":"node:7731312304","kind":"peak","name":"Jabal Kusha","lat":9.766667,"lon":34.166667,"elevationM":null}]}