{"tileKey":"la_p14_lo_p101","version":"v1-1775891056926","entries":[{"id":"node:2411872508","kind":"peak","name":"เขาเขียว","lat":14.3547608,"lon":101.3753637,"elevationM":1292},{"id":"node:2411879170","kind":"peak","name":"เขาร่ม","lat":14.3880375,"lon":101.4250418,"elevationM":1351},{"id":"node:6169106138","kind":"peak","name":"เขาหนองมะก๊อ","lat":14.460722,"lon":101.369694,"elevationM":null},{"id":"node:6169106139","kind":"peak","name":"เขาฟาละมี","lat":14.466639,"lon":101.319667,"elevationM":null},{"id":"node:6169106140","kind":"peak","name":"เขาสามยอด","lat":14.493611,"lon":101.333417,"elevationM":null},{"id":"node:6169106141","kind":"peak","name":"เขาค่าง","lat":14.352861,"lon":101.311556,"elevationM":null},{"id":"node:11607821661","kind":"peak","name":"เขาพระ","lat":14.9029539,"lon":101.0707595,"elevationM":223},{"id":"node:11621602598","kind":"peak","name":"เขาลาด","lat":14.5036464,"lon":101.0019223,"elevationM":116},{"id":"node:12387703769","kind":"peak","name":"เขามัน","lat":14.5932178,"lon":101.0824356,"elevationM":null},{"id":"node:13274719971","kind":"peak","name":"เขาขนานจิตร","lat":14.8397089,"lon":101.5021032,"elevationM":679},{"id":"node:13274719973","kind":"peak","name":"เขาสะเดา","lat":14.9189716,"lon":101.5822857,"elevationM":578},{"id":"node:13316085121","kind":"peak","name":"Silvara Khaoyai","lat":14.6283461,"lon":101.6023018,"elevationM":null}]}