{"tileKey":"la_p37_lo_p46","version":"v1-1775891056926","entries":[{"id":"node:1867772085","kind":"peak","name":"باش داغ","lat":37.8946403,"lon":46.8174822,"elevationM":2198},{"id":"node:1868073185","kind":"peak","name":"آغ داغ","lat":37.7298276,"lon":46.4548491,"elevationM":3583},{"id":"node:1868073195","kind":"peak","name":"آیقیر","lat":37.7579864,"lon":46.6005286,"elevationM":2782},{"id":"node:1868073197","kind":"peak","name":"شیله سر","lat":37.7737012,"lon":46.455017,"elevationM":3119},{"id":"node:1868073198","kind":"peak","name":"قاباخ داغی","lat":37.7778615,"lon":46.5679635,"elevationM":2915},{"id":"node:1868073199","kind":"peak","name":"نوور","lat":37.7846967,"lon":46.2851529,"elevationM":3131},{"id":"node:1868073200","kind":"peak","name":"آرا داغی","lat":37.785415,"lon":46.3518894,"elevationM":3131},{"id":"node:1868073208","kind":"peak","name":"موتال داغی","lat":37.7905828,"lon":46.5012809,"elevationM":3053},{"id":"node:1868073211","kind":"peak","name":"بیوک داغ","lat":37.8066848,"lon":46.5581685,"elevationM":2982},{"id":"node:1868073239","kind":"peak","name":"تک آلتی","lat":37.9808605,"lon":46.6390981,"elevationM":2560},{"id":"node:2573030015","kind":"peak","name":"بئش دالان داغی","lat":37.6165621,"lon":46.0894062,"elevationM":2858},{"id":"node:2573069638","kind":"peak","name":"جام","lat":37.6342424,"lon":46.4723878,"elevationM":3548},{"id":"node:3117071094","kind":"peak","name":"بیلیندی","lat":37.8689738,"lon":46.332041,"elevationM":2538},{"id":"node:3122051872","kind":"peak","name":"سلطان","lat":37.7551193,"lon":46.3328547,"elevationM":3451},{"id":"node:3146592533","kind":"peak","name":"کوه قبله","lat":37.6623411,"lon":46.0071009,"elevationM":2523},{"id":"node:3208168908","kind":"volcano","name":"کمال","lat":37.7300055,"lon":46.4999351,"elevationM":3704},{"id":"node:3208184392","kind":"peak","name":"دمیرلی","lat":37.7291112,"lon":46.4663938,"elevationM":3605},{"id":"node:3689992527","kind":"peak","name":"سیاه پوش","lat":37.858808,"lon":46.2940733,"elevationM":2430},{"id":"node:3771516131","kind":"peak","name":"چناق","lat":37.6578131,"lon":46.7398869,"elevationM":2340},{"id":"node:3801047658","kind":"peak","name":"قره قشون","lat":37.2654515,"lon":46.0905477,"elevationM":1680},{"id":"node:4069735941","kind":"peak","name":"پاپاخلی","lat":37.0450144,"lon":46.3085846,"elevationM":1500},{"id":"node:5079442000","kind":"peak","name":"حسن یوردو","lat":37.675033,"lon":46.4444489,"elevationM":2850},{"id":"node:5213932792","kind":"peak","name":"سنهد","lat":37.6296216,"lon":46.4554282,"elevationM":3528},{"id":"node:5540004914","kind":"peak","name":"اوریان","lat":37.695236,"lon":46.1810823,"elevationM":2815},{"id":"node:7162725110","kind":"peak","name":"jamiş olan","lat":37.0315945,"lon":46.2870704,"elevationM":1480},{"id":"node:7162725111","kind":"peak","name":"بالاغ اولن","lat":37.0356458,"lon":46.2849465,"elevationM":null},{"id":"node:8928129921","kind":"peak","name":"قره ناز","lat":37.7068022,"lon":46.3628989,"elevationM":3301},{"id":"node:8928142776","kind":"peak","name":"آختا","lat":37.6728927,"lon":46.4214452,"elevationM":3335},{"id":"node:8931848387","kind":"peak","name":"شاه نظر","lat":37.7709498,"lon":46.4279406,"elevationM":3045},{"id":"node:8931848388","kind":"peak","name":"یانیخ داغی","lat":37.7800591,"lon":46.4319348,"elevationM":3047},{"id":"node:8931848389","kind":"peak","name":"شرف داغی","lat":37.7618357,"lon":46.4833143,"elevationM":3108},{"id":"node:8932526250","kind":"peak","name":"بهادر داغی","lat":37.6888814,"lon":46.279131,"elevationM":3181},{"id":"node:9423452159","kind":"peak","name":"تپه تخت سلیمان","lat":37.1838739,"lon":46.0744673,"elevationM":1391},{"id":"node:9582258498","kind":"peak","name":"ناخیر داغی","lat":37.7783214,"lon":46.4232186,"elevationM":3028},{"id":"node:9582258499","kind":"peak","name":"قوناق گورمز","lat":37.7585583,"lon":46.4612509,"elevationM":3135},{"id":"node:10052981260","kind":"peak","name":"خیردا پاپاخلی","lat":37.044911,"lon":46.3019183,"elevationM":null},{"id":"node:10052981308","kind":"peak","name":"محمود داغلاری","lat":37.0502385,"lon":46.2851282,"elevationM":null},{"id":"node:10052981309","kind":"peak","name":"Gün batan dağı","lat":37.0643901,"lon":46.3722546,"elevationM":1888},{"id":"node:10658612305","kind":"peak","name":"بز داغی","lat":37.7382771,"lon":46.5273683,"elevationM":3628},{"id":"node:10658831115","kind":"peak","name":"زینکی","lat":37.7423624,"lon":46.3613657,"elevationM":3403},{"id":"node:10658831116","kind":"peak","name":"عمر داغی","lat":37.7446446,"lon":46.3741055,"elevationM":3439},{"id":"node:10658831117","kind":"peak","name":"قئچی قیه سی","lat":37.7738127,"lon":46.3079198,"elevationM":3305},{"id":"node:10658854926","kind":"peak","name":"درویشلر","lat":37.7267354,"lon":46.5130714,"elevationM":3613},{"id":"node:11119828665","kind":"peak","name":"حرم داغی","lat":37.744216,"lon":46.5311689,"elevationM":3562},{"id":"node:11125978777","kind":"peak","name":"چشمه آخان","lat":37.7528936,"lon":46.4915089,"elevationM":3232},{"id":"node:11125978778","kind":"peak","name":"پلنگ سر","lat":37.7719824,"lon":46.4922151,"elevationM":2936},{"id":"node:11176567308","kind":"peak","name":"حورو قالاسی","lat":37.5963046,"lon":46.0922194,"elevationM":2676},{"id":"node:11176567309","kind":"peak","name":"چیچکلی داغی","lat":37.6176875,"lon":46.0681602,"elevationM":2724},{"id":"node:11176567310","kind":"peak","name":"دینگجه داغی","lat":37.6444338,"lon":46.0298828,"elevationM":2476},{"id":"node:11176567313","kind":"peak","name":"گدیح باشی","lat":37.6826367,"lon":46.1674224,"elevationM":2768},{"id":"node:11176567314","kind":"peak","name":"تاختا داغی","lat":37.6417238,"lon":46.1087562,"elevationM":2794},{"id":"node:11176567315","kind":"peak","name":"داش اخار داغی","lat":37.6346194,"lon":46.0987674,"elevationM":2770},{"id":"node:11221687324","kind":"peak","name":"اروانه","lat":37.7428346,"lon":46.6506904,"elevationM":2949},{"id":"node:11443353188","kind":"peak","name":"سامانچی داغی","lat":37.5944559,"lon":46.1600678,"elevationM":2602},{"id":"node:11443354474","kind":"peak","name":"کرکس داغی","lat":37.6189418,"lon":46.0381072,"elevationM":2631},{"id":"node:11800254172","kind":"peak","name":"دودانلو","lat":37.6280714,"lon":46.4343482,"elevationM":3012},{"id":"node:11800254173","kind":"peak","name":"شکر داغی","lat":37.6346022,"lon":46.4195744,"elevationM":3035},{"id":"node:11800254174","kind":"peak","name":"چورو داغی","lat":37.6472409,"lon":46.3898275,"elevationM":2847},{"id":"node:11800254175","kind":"peak","name":"ورزن داغی","lat":37.7065835,"lon":46.3455819,"elevationM":3399},{"id":"node:11800254176","kind":"peak","name":"توراغایی","lat":37.7006119,"lon":46.3406383,"elevationM":3401},{"id":"node:11800254177","kind":"peak","name":"تندیرلی","lat":37.7047979,"lon":46.3377026,"elevationM":3376},{"id":"node:11800254178","kind":"peak","name":"پالان توکن","lat":37.7141771,"lon":46.334476,"elevationM":3314},{"id":"node:11800254179","kind":"peak","name":"قانشار داغی","lat":37.7188798,"lon":46.3301607,"elevationM":3319},{"id":"node:11800254180","kind":"peak","name":"قاریمیش داغی","lat":37.7327407,"lon":46.3453098,"elevationM":3388},{"id":"node:11800254181","kind":"peak","name":"قوجا داغی","lat":37.6994832,"lon":46.3155349,"elevationM":3348},{"id":"node:11800254182","kind":"peak","name":"چاخ چاخ داغی","lat":37.6809827,"lon":46.2698352,"elevationM":3117},{"id":"node:11800254183","kind":"peak","name":"چوبان داغی","lat":37.7655727,"lon":46.3447029,"elevationM":3358},{"id":"node:11800254184","kind":"peak","name":"قیزیل داغی","lat":37.7992376,"lon":46.3498949,"elevationM":3061},{"id":"node:11800254185","kind":"peak","name":"قیلیش قیه","lat":37.8049307,"lon":46.3610688,"elevationM":2835},{"id":"node:12168612323","kind":"peak","name":"پیرکوزن داغی","lat":37.4886316,"lon":46.6747187,"elevationM":2305},{"id":"node:12168612325","kind":"peak","name":"او داغی","lat":37.6004331,"lon":46.7778947,"elevationM":2293},{"id":"node:12168612327","kind":"peak","name":"اوش تپه","lat":37.7202361,"lon":46.7888159,"elevationM":2223},{"id":"node:12372176673","kind":"peak","name":"اجاق داغی(اربت داغی-خاله اوشاغی)","lat":37.041268,"lon":46.8123772,"elevationM":2842},{"id":"node:12372176674","kind":"peak","name":"سنگر داغی","lat":37.0270651,"lon":46.8308255,"elevationM":2718},{"id":"node:12386823543","kind":"peak","name":"گلدامن","lat":37.0648192,"lon":46.8048034,"elevationM":2697},{"id":"node:12444958209","kind":"peak","name":"مستالی","lat":37.6912393,"lon":46.5311872,"elevationM":3002},{"id":"node:12444958210","kind":"peak","name":"گیروه داغی","lat":37.7142794,"lon":46.5001424,"elevationM":3534},{"id":"node:12444958211","kind":"peak","name":"گیروه داغی 2","lat":37.7186737,"lon":46.5041635,"elevationM":3524},{"id":"node:12601297232","kind":"peak","name":"قارقالان","lat":37.7066011,"lon":46.9168093,"elevationM":2145},{"id":"node:12603543549","kind":"peak","name":"بامبللی","lat":37.6524392,"lon":46.131053,"elevationM":2627}]}