{"tileKey":"la_p62_lo_p164","version":"v1-1775891056926","entries":[{"id":"node:8379952426","kind":"peak","name":"Плоская","lat":62.7880671,"lon":164.1625213,"elevationM":null},{"id":"node:8379952695","kind":"peak","name":"Круглая","lat":62.7368421,"lon":164.1020965,"elevationM":null},{"id":"node:8379952720","kind":"peak","name":"Большая Хапица","lat":62.8358727,"lon":164.3050432,"elevationM":null},{"id":"node:8379952721","kind":"peak","name":"Экеней","lat":62.796681,"lon":164.3900585,"elevationM":null},{"id":"node:8379952765","kind":"peak","name":"Лылантеминаль","lat":62.8686133,"lon":164.9250412,"elevationM":null},{"id":"node:8379953108","kind":"peak","name":"Лысая","lat":62.6694937,"lon":164.9325942,"elevationM":null},{"id":"node:8379953109","kind":"peak","name":"Кытымтин","lat":62.7650976,"lon":164.8687361,"elevationM":null},{"id":"node:8379953110","kind":"peak","name":"Ананычин","lat":62.8250557,"lon":164.5788859,"elevationM":null},{"id":"node:8379953111","kind":"peak","name":"Мингазин","lat":62.8789841,"lon":164.0850162,"elevationM":null}]}