{"tileKey":"la_p15_lo_p22","version":"v1-1775891056926","entries":[{"id":"node:322501799","kind":"volcano","name":"هاجر كورغو Hadjer Kourgou","lat":15.1834316,"lon":22.2685436,"elevationM":null},{"id":"node:3104088475","kind":"peak","name":"Hadjer Yoka","lat":15.8731758,"lon":22.9898355,"elevationM":null},{"id":"node:3106661436","kind":"peak","name":"Hadjer Arso حجر أرسو","lat":15.9537746,"lon":22.7082226,"elevationM":920},{"id":"node:3106661463","kind":"peak","name":"Hadjer Dibri","lat":15.7656244,"lon":22.7798301,"elevationM":null},{"id":"node:3106661464","kind":"peak","name":"Hadjer Guié","lat":15.7142201,"lon":22.9362806,"elevationM":null},{"id":"node:3106661466","kind":"peak","name":"Hadjer Mouhdou","lat":15.6586409,"lon":22.9178163,"elevationM":null},{"id":"node:3106826565","kind":"peak","name":"هاجر ميبا Hadjer Mayba","lat":15.6848768,"lon":22.5093143,"elevationM":null},{"id":"node:3106826566","kind":"peak","name":"Hadjer Goura","lat":15.6557221,"lon":22.5066042,"elevationM":null},{"id":"node:3106826567","kind":"peak","name":"Hadjer Tagouni","lat":15.6487557,"lon":22.6196603,"elevationM":null},{"id":"node:3107561836","kind":"peak","name":"Hadjer Hatér","lat":15.5277742,"lon":22.4789993,"elevationM":null},{"id":"node:3107561850","kind":"peak","name":"Hadjer Diouyé","lat":15.5700561,"lon":22.5262911,"elevationM":null},{"id":"node:3107561851","kind":"peak","name":"Hadjer Oroua","lat":15.5796742,"lon":22.517364,"elevationM":null},{"id":"node:3107561869","kind":"peak","name":"Hadjer Dolidissi","lat":15.5970249,"lon":22.4993052,"elevationM":null},{"id":"node:3107561906","kind":"peak","name":"هاجر ميني Hadjer Méni","lat":15.4364038,"lon":22.647518,"elevationM":null},{"id":"node:3107561914","kind":"peak","name":"Hadjer Orou","lat":15.4003994,"lon":22.6408834,"elevationM":null},{"id":"node:3107561921","kind":"peak","name":"Hadjer Guerdéssiguera","lat":15.4564172,"lon":22.6094989,"elevationM":null},{"id":"node:3107569464","kind":"peak","name":"Hadjer Modjioukéy","lat":15.4980167,"lon":22.6183502,"elevationM":null},{"id":"node:3114885638","kind":"peak","name":"Hadjer Abougoudi","lat":15.5132703,"lon":22.3967513,"elevationM":null},{"id":"node:3114885664","kind":"peak","name":"هاجر إر Hadjer Er","lat":15.4831307,"lon":22.2494409,"elevationM":null},{"id":"node:3114885706","kind":"peak","name":"Hadjer Nanou","lat":15.5062261,"lon":22.2460628,"elevationM":null},{"id":"node:3115007679","kind":"peak","name":"Hadjer Moura","lat":15.4037948,"lon":22.4163703,"elevationM":null},{"id":"node:3115008563","kind":"peak","name":"Hadjer Kadouga","lat":15.4087464,"lon":22.2889994,"elevationM":null},{"id":"node:3116182025","kind":"peak","name":"هاجر مارليني Hadjer Marléni","lat":15.3207885,"lon":22.21556,"elevationM":null},{"id":"node:3116182028","kind":"peak","name":"هاجر كورغول Hadjer Kourgoul","lat":15.362718,"lon":22.2288488,"elevationM":null},{"id":"node:3116182039","kind":"peak","name":"Hadjer Arso حجر أرسو","lat":15.2937383,"lon":22.2148181,"elevationM":null},{"id":"node:3116182049","kind":"peak","name":"هاجر مير Hadjer Mir","lat":15.2800174,"lon":22.1801822,"elevationM":null},{"id":"node:3116336869","kind":"volcano","name":"هاجر غاروجي Hadjer Garoudji","lat":15.3035725,"lon":22.3043124,"elevationM":null},{"id":"node:3118529349","kind":"peak","name":"Hadjer Borfoura","lat":15.1180157,"lon":22.5864075,"elevationM":null},{"id":"node:3118529390","kind":"peak","name":"Hadjer Essana","lat":15.1356835,"lon":22.5861714,"elevationM":960},{"id":"node:3118529393","kind":"peak","name":"Hadjer Soloun","lat":15.083521,"lon":22.5808928,"elevationM":null},{"id":"node:3118529398","kind":"peak","name":"Hadjer Dorokaouli","lat":15.2915144,"lon":22.7142737,"elevationM":null},{"id":"node:3122269114","kind":"peak","name":"Hadjer Ogona","lat":15.2604755,"lon":22.9461158,"elevationM":null},{"id":"node:3135001357","kind":"peak","name":"Hadjer Déyné Korabé","lat":15.1451315,"lon":22.9075163,"elevationM":null},{"id":"node:3135001386","kind":"peak","name":"Hadjer Erméni","lat":15.0646963,"lon":22.8555313,"elevationM":null},{"id":"node:7721325076","kind":"peak","name":"Hadjer Argagoni","lat":15.233333,"lon":22.183333,"elevationM":null},{"id":"node:7721325079","kind":"peak","name":"Hadjer Abougoun Toun","lat":15.183333,"lon":22.05,"elevationM":null},{"id":"node:7721349074","kind":"peak","name":"Hadjer Sidir","lat":15.95,"lon":22.483333,"elevationM":null},{"id":"node:7721349091","kind":"peak","name":"Hadjer Kouaré","lat":15.933333,"lon":22.55,"elevationM":null},{"id":"node:7721349095","kind":"peak","name":"Hadjer Dinoura","lat":15.866667,"lon":22.9,"elevationM":null},{"id":"node:7721349096","kind":"peak","name":"Hadjer Djouga","lat":15.966667,"lon":22.883333,"elevationM":null},{"id":"node:7721349097","kind":"peak","name":"Hadjer Ergoui","lat":15.95,"lon":22.833333,"elevationM":null},{"id":"node:7721349220","kind":"peak","name":"Hadjer Dorokaouli","lat":15.316667,"lon":22.716667,"elevationM":null},{"id":"node:7721349346","kind":"peak","name":"Hadjer Modjioukey","lat":15.5,"lon":22.583333,"elevationM":null},{"id":"node:7721349349","kind":"peak","name":"Hadjer Edgi Gourfou","lat":15.716667,"lon":22.116667,"elevationM":null},{"id":"node:7721349353","kind":"peak","name":"Hadjer Gyéri","lat":15.316667,"lon":22.266667,"elevationM":null},{"id":"node:7721349355","kind":"peak","name":"Hadjer Souligin","lat":15.75,"lon":22.2,"elevationM":null},{"id":"node:7721349357","kind":"peak","name":"Hadjer Traoré","lat":15.116667,"lon":22.533333,"elevationM":null},{"id":"node:7721349358","kind":"peak","name":"Hadjer Délimé","lat":15.666667,"lon":22.333333,"elevationM":null},{"id":"node:7721349359","kind":"peak","name":"Hadjer Télikobou","lat":15.566667,"lon":22.15,"elevationM":null},{"id":"node:7721349451","kind":"peak","name":"Hadjer Mada","lat":15.833333,"lon":22.15,"elevationM":null},{"id":"node:7721349452","kind":"peak","name":"Hadjer Mya","lat":15.6,"lon":22.666667,"elevationM":null},{"id":"node:7721349455","kind":"peak","name":"Hadjer Moura","lat":15.4,"lon":22.383333,"elevationM":null},{"id":"node:7721349460","kind":"peak","name":"Hadjer Baoda","lat":15.716667,"lon":22.3,"elevationM":null},{"id":"node:7721349467","kind":"peak","name":"Hadjer Baysa","lat":15.866667,"lon":22.316667,"elevationM":null},{"id":"node:7721349468","kind":"peak","name":"Hadjer Nanou","lat":15.533333,"lon":22.266667,"elevationM":null},{"id":"node:7721349469","kind":"peak","name":"Djebel Esana","lat":15.133333,"lon":22.583333,"elevationM":null},{"id":"node:7721349595","kind":"peak","name":"Hadjer Mardébé","lat":15.633333,"lon":22.266667,"elevationM":null},{"id":"node:7721349597","kind":"peak","name":"Hadjer Doroba","lat":15.133333,"lon":22.466667,"elevationM":null},{"id":"node:7721349599","kind":"peak","name":"Hadjer Mouroba","lat":15.433333,"lon":22.45,"elevationM":null},{"id":"node:7721349678","kind":"peak","name":"Hadjer Kabokèti","lat":15.716667,"lon":22.066667,"elevationM":null},{"id":"node:7721349680","kind":"peak","name":"Hadjer Hasiéli","lat":15.35,"lon":22.3,"elevationM":null},{"id":"node:7721349681","kind":"peak","name":"Hadjer Amkarada","lat":15.25,"lon":22.35,"elevationM":null},{"id":"node:7721349685","kind":"peak","name":"Hadjer Oriba","lat":15.65,"lon":22.05,"elevationM":null},{"id":"node:7721349693","kind":"peak","name":"Hadjer Kadouga","lat":15.416667,"lon":22.333333,"elevationM":null},{"id":"node:7721349697","kind":"peak","name":"Hadjer Mara","lat":15.05,"lon":22.833333,"elevationM":null},{"id":"node:7721349700","kind":"peak","name":"Hadjer Sérinaout","lat":15.05,"lon":22.5,"elevationM":null},{"id":"node:7721349703","kind":"peak","name":"Hadjer Daraba","lat":15.683333,"lon":22.416667,"elevationM":null},{"id":"node:7721349705","kind":"peak","name":"Hadjer Diéti","lat":15.083333,"lon":22.25,"elevationM":null},{"id":"node:7721349708","kind":"peak","name":"Hadjer Gouba","lat":15,"lon":22.166667,"elevationM":null},{"id":"node:7721349709","kind":"peak","name":"Hadjer Nianga Kébir","lat":15.05,"lon":22.65,"elevationM":null},{"id":"node:7721349710","kind":"peak","name":"Hadjer Dolidisi","lat":15.6,"lon":22.466667,"elevationM":null},{"id":"node:7721349712","kind":"peak","name":"Hadjer Diouyé","lat":15.566667,"lon":22.55,"elevationM":null},{"id":"node:7721349713","kind":"peak","name":"Hadjer Gié","lat":15.766667,"lon":22.916667,"elevationM":null},{"id":"node:7721349718","kind":"peak","name":"Hadjer Bayba","lat":15.616667,"lon":22.9,"elevationM":null},{"id":"node:7721349724","kind":"peak","name":"Hadjer Dido","lat":15.633333,"lon":22.116667,"elevationM":null},{"id":"node:7721349730","kind":"peak","name":"Hadjer Drobra","lat":15.15,"lon":22.5,"elevationM":null},{"id":"node:7721349734","kind":"peak","name":"Hadjer Akasa","lat":15.716667,"lon":22.433333,"elevationM":null},{"id":"node:7721349739","kind":"peak","name":"Hadjer Malankourou","lat":15.066667,"lon":22.316667,"elevationM":null},{"id":"node:7721349742","kind":"peak","name":"Hadjer Djiordogi","lat":15.1,"lon":22.183333,"elevationM":null},{"id":"node:7721349743","kind":"peak","name":"Hadjer Kourgou","lat":15.183333,"lon":22.266667,"elevationM":null},{"id":"node:7721349745","kind":"peak","name":"Hadjer Margi","lat":15.216667,"lon":22.366667,"elevationM":null},{"id":"node:7721349748","kind":"peak","name":"Hadjer Hélia","lat":15.116667,"lon":22.45,"elevationM":null},{"id":"node:7721349751","kind":"peak","name":"Hadjer Hamé","lat":15.1435792,"lon":22.2068394,"elevationM":null},{"id":"node:7721349756","kind":"peak","name":"Hadjer Ménehir","lat":15.133333,"lon":22.466667,"elevationM":null},{"id":"node:7721349757","kind":"peak","name":"Hadjer Souyli","lat":15.566667,"lon":22.583333,"elevationM":null},{"id":"node:7721349759","kind":"peak","name":"Hadjer Bakaosiri","lat":15.8,"lon":22.45,"elevationM":null},{"id":"node:7721349764","kind":"peak","name":"Hadjer Tanabili","lat":15.616667,"lon":22.083333,"elevationM":null},{"id":"node:7721349766","kind":"peak","name":"Hadjer Dourou","lat":15.083333,"lon":22.616667,"elevationM":null},{"id":"node:7721349775","kind":"peak","name":"Hadjer Sélimé","lat":15.166667,"lon":22.2,"elevationM":null},{"id":"node:7721349779","kind":"peak","name":"Hadjer Beydama","lat":15.55,"lon":22.533333,"elevationM":null},{"id":"node:7721349787","kind":"peak","name":"Hadjer Hatater","lat":15.216667,"lon":22.066667,"elevationM":null},{"id":"node:7721349789","kind":"peak","name":"Djebel Gonou","lat":15.933333,"lon":22.066667,"elevationM":null},{"id":"node:7721349795","kind":"peak","name":"Hadjer Mayougoun","lat":15.2,"lon":22.2,"elevationM":null},{"id":"node:7721349892","kind":"peak","name":"Hadjer Tawater","lat":15.1,"lon":22.366667,"elevationM":null},{"id":"node:7721349894","kind":"peak","name":"Hadjer Wasi","lat":15.7,"lon":22.65,"elevationM":null},{"id":"node:7721349898","kind":"peak","name":"Hadjer Sourgin","lat":15.683333,"lon":22.1,"elevationM":null},{"id":"node:7721349899","kind":"peak","name":"Hadjer Gasiéri","lat":15.583333,"lon":22.316667,"elevationM":null},{"id":"node:7721349912","kind":"peak","name":"Hadjer Ogora","lat":15.016667,"lon":22.016667,"elevationM":null},{"id":"node:7721349916","kind":"peak","name":"Hadjer Seyta Rokouaré","lat":15.15,"lon":22.333333,"elevationM":null},{"id":"node:7721349925","kind":"peak","name":"Hadjer Mani","lat":15.483333,"lon":22.416667,"elevationM":null},{"id":"node:7721349943","kind":"peak","name":"Hadjer Gaoudji","lat":15.3,"lon":22.283333,"elevationM":null},{"id":"node:7721878100","kind":"peak","name":"Hadjer Bagourtou","lat":15.283333,"lon":22.083333,"elevationM":null},{"id":"node:7721878114","kind":"peak","name":"Hadjer Gouba Oroumna","lat":15.066667,"lon":22.216667,"elevationM":null},{"id":"node:7721878118","kind":"peak","name":"Hadjer Toboui Abougoudi","lat":15.35,"lon":22.183333,"elevationM":null},{"id":"node:7731291445","kind":"peak","name":"Jabal Kūrī","lat":15.483333,"lon":22.95,"elevationM":null},{"id":"node:11382458525","kind":"peak","name":"hajer baydama","lat":15.5498316,"lon":22.5438001,"elevationM":7}]}