{"tileKey":"la_p21_lo_p18","version":"v1-1775891056926","entries":[{"id":"node:4717810955","kind":"peak","name":"Elemay","lat":21.6310639,"lon":18.6731933,"elevationM":1880},{"id":"node:4718350382","kind":"peak","name":"Mouskorbe","lat":21.3472204,"lon":18.6016329,"elevationM":3070},{"id":"node:4718370007","kind":"volcano","name":"Gour","lat":21.1003366,"lon":18.3533043,"elevationM":2260},{"id":"node:4718370043","kind":"peak","name":"Godeno","lat":21.1328268,"lon":18.4200356,"elevationM":2560},{"id":"node:4718391576","kind":"peak","name":"Kegueur Tegi","lat":21.4148027,"lon":18.7028498,"elevationM":2960},{"id":"node:4720700271","kind":"peak","name":"Kekeroua","lat":21.4962028,"lon":18.1728863,"elevationM":1610},{"id":"node:4726062104","kind":"peak","name":"Kakerda","lat":21.8375413,"lon":18.6868659,"elevationM":1520},{"id":"node:4726131035","kind":"peak","name":"Toudouguor","lat":21.4262859,"lon":18.3940105,"elevationM":null},{"id":"node:4727176935","kind":"peak","name":"Ndoua","lat":21.6061469,"lon":18.5814627,"elevationM":1807},{"id":"node:4744514637","kind":"peak","name":"Zeurta","lat":21.232853,"lon":18.3007113,"elevationM":2150},{"id":"node:4796229510","kind":"volcano","name":"Pombo","lat":21.0126868,"lon":18.2333886,"elevationM":2080},{"id":"node:4796231428","kind":"peak","name":"Kaha","lat":21.0324854,"lon":18.2665294,"elevationM":2060},{"id":"node:4796260854","kind":"peak","name":"Didoge","lat":21.2073569,"lon":18.2460368,"elevationM":2240},{"id":"node:4796261047","kind":"peak","name":"Eremi","lat":21.187249,"lon":18.2052865,"elevationM":2180},{"id":"node:5163536614","kind":"peak","name":"Tarso Emissi","lat":21.1872551,"lon":18.5878809,"elevationM":2920},{"id":"node:5321761728","kind":"peak","name":"Youla","lat":21.0921469,"lon":18.2353325,"elevationM":2160},{"id":"node:5976259463","kind":"peak","name":"Kré Dahon","lat":21.5270234,"lon":18.6688392,"elevationM":null},{"id":"node:7296290720","kind":"peak","name":"Gara Tougoumchi","lat":21.4197524,"lon":18.7897075,"elevationM":2130},{"id":"node:7298528491","kind":"peak","name":"Kourouano","lat":21.8576949,"lon":18.8034442,"elevationM":1890},{"id":"node:7397642767","kind":"peak","name":"Bremena","lat":21.2688616,"lon":18.3411588,"elevationM":2210},{"id":"node:7414543536","kind":"peak","name":"Askawaloleu","lat":21.0160113,"lon":18.186049,"elevationM":null},{"id":"node:7414551715","kind":"peak","name":"Ounibabora","lat":21.0388441,"lon":18.0976842,"elevationM":null},{"id":"node:7721349131","kind":"peak","name":"Goroa","lat":21.6,"lon":18.15,"elevationM":null},{"id":"node:7721349559","kind":"peak","name":"Aodo","lat":21.433333,"lon":18.116667,"elevationM":null},{"id":"node:7721349562","kind":"peak","name":"Tougoy","lat":21.2,"lon":18.4,"elevationM":null},{"id":"node:7721349567","kind":"peak","name":"Kouri","lat":21.45,"lon":18.416667,"elevationM":null},{"id":"node:7721349572","kind":"peak","name":"Niadougor","lat":21.65,"lon":18.25,"elevationM":null},{"id":"node:7721349573","kind":"peak","name":"Toobou","lat":21.15,"lon":18.083333,"elevationM":null},{"id":"node:7721349574","kind":"peak","name":"Ehi Tioua","lat":21.65,"lon":18.25,"elevationM":null},{"id":"node:7721349577","kind":"peak","name":"Grada-Tougoy","lat":21.1,"lon":18.083333,"elevationM":null},{"id":"node:7721349624","kind":"peak","name":"Ehi Chili Siri","lat":21.583333,"lon":18.316667,"elevationM":null},{"id":"node:7721349651","kind":"peak","name":"Askawaloleu","lat":21,"lon":18.116667,"elevationM":null},{"id":"node:7721349652","kind":"peak","name":"Pombo","lat":21,"lon":18.2,"elevationM":null},{"id":"node:7721349658","kind":"peak","name":"Lohi-Niala","lat":21.666667,"lon":18.983333,"elevationM":null},{"id":"node:7721349785","kind":"peak","name":"Yoachi","lat":21.6,"lon":18.583333,"elevationM":null},{"id":"node:7721860970","kind":"peak","name":"Toudougour","lat":21.4,"lon":18.383333,"elevationM":null},{"id":"node:7721860971","kind":"peak","name":"Ehi Godoon","lat":21.2,"lon":18.166667,"elevationM":null},{"id":"node:7721860982","kind":"peak","name":"Tarso Emissi","lat":21.216667,"lon":18.533333,"elevationM":null},{"id":"node:7721861001","kind":"peak","name":"Kegueur Souma","lat":21.616667,"lon":18.583333,"elevationM":null},{"id":"node:7721861005","kind":"peak","name":"Borou","lat":21.666667,"lon":18.433333,"elevationM":null},{"id":"node:7721861007","kind":"peak","name":"Ehi Aouï","lat":21.566667,"lon":18.5,"elevationM":null},{"id":"node:7721861022","kind":"peak","name":"Tarso Mourouï","lat":21.45,"lon":18.516667,"elevationM":null},{"id":"node:7721861027","kind":"peak","name":"Tārsū Mūsá","lat":21.3,"lon":18.6,"elevationM":null},{"id":"node:7721861035","kind":"peak","name":"Tarso Aozi","lat":21.1,"lon":18.583333,"elevationM":null},{"id":"node:7721861036","kind":"peak","name":"Tarso Aozi","lat":21.033333,"lon":18.633333,"elevationM":null},{"id":"node:7721861038","kind":"peak","name":"Tarso Ouri","lat":21.416667,"lon":18.933333,"elevationM":null},{"id":"node:7721861044","kind":"peak","name":"Gara Tougoumchi","lat":21.416667,"lon":18.833333,"elevationM":null},{"id":"node:7721861052","kind":"peak","name":"Pic Tuchussou","lat":21.05,"lon":18.616667,"elevationM":null},{"id":"node:7721861066","kind":"peak","name":"Ndoua","lat":21.616667,"lon":18.616667,"elevationM":null},{"id":"node:7721861068","kind":"peak","name":"Ehi Eché Dégouli","lat":21.966667,"lon":18.216667,"elevationM":null}]}