{"tileKey":"la_p49_lo_m57","version":"v1-1775891056926","entries":[{"id":"node:565051700","kind":"peak","name":"George's Hill","lat":49.8151567,"lon":-56.1196539,"elevationM":null},{"id":"node:1552980006","kind":"peak","name":"Willmen's Hill","lat":49.5515894,"lon":-56.8680516,"elevationM":null},{"id":"node:6087405302","kind":"peak","name":"Misery Hill","lat":49.07673,"lon":-56.4017461,"elevationM":370},{"id":"node:6094209972","kind":"peak","name":"Gull Hill","lat":49.158015,"lon":-56.1761463,"elevationM":297},{"id":"node:6094287518","kind":"peak","name":"Skull Hill","lat":49.0015043,"lon":-56.247227,"elevationM":410},{"id":"node:6094299928","kind":"peak","name":"Gaff Topsail","lat":49.1301955,"lon":-56.6347551,"elevationM":570},{"id":"node:6094325522","kind":"peak","name":"Mizzen Topsail","lat":49.094286,"lon":-56.6226167,"elevationM":540},{"id":"node:6094327819","kind":"peak","name":"Main Topsail","lat":49.1345455,"lon":-56.555393,"elevationM":560},{"id":"node:6094334137","kind":"peak","name":"Foretopsail Hill","lat":49.1778915,"lon":-56.4865389,"elevationM":490},{"id":"node:6094369479","kind":"peak","name":"Sheffield Hill","lat":49.2418475,"lon":-56.5515383,"elevationM":500},{"id":"node:6094463604","kind":"peak","name":"Mount Sykes","lat":49.3130363,"lon":-56.652685,"elevationM":434},{"id":"node:6094491011","kind":"peak","name":"Mount Seemore","lat":49.287002,"lon":-56.7607128,"elevationM":500},{"id":"node:6100975832","kind":"peak","name":"Sugarloaf Hill","lat":49.4062145,"lon":-56.0948298,"elevationM":145},{"id":"node:6100975835","kind":"peak","name":"Barney's Hill","lat":49.3860474,"lon":-56.1739764,"elevationM":130},{"id":"node:6100975842","kind":"peak","name":"West Pond Hill","lat":49.3730246,"lon":-56.2264748,"elevationM":156},{"id":"node:6101681199","kind":"peak","name":"Rowsell Hill","lat":49.4243136,"lon":-56.0743266,"elevationM":260},{"id":"node:6101681397","kind":"peak","name":"Hall Hill","lat":49.3465077,"lon":-56.0721894,"elevationM":320},{"id":"node:6957893986","kind":"peak","name":"Green Hill Lookout","lat":49.5398942,"lon":-56.8615715,"elevationM":117}]}