{"tileKey":"la_p37_lo_p12","version":"v1-1775891056926","entries":[{"id":"node:26863253","kind":"peak","name":"Monte Falcone","lat":37.9809648,"lon":12.052591,"elevationM":685},{"id":"node:1222779867","kind":"peak","name":"Monte Santa Caterina","lat":37.9268174,"lon":12.3122402,"elevationM":314},{"id":"node:1224056162","kind":"peak","name":"Pizzo Spirone","lat":37.9556452,"lon":12.0747953,"elevationM":332},{"id":"node:1254150852","kind":"peak","name":"Montagna Grande","lat":37.8945916,"lon":12.762444,"elevationM":751},{"id":"node:1291439273","kind":"peak","name":"Cozzo Monaco","lat":37.9964049,"lon":12.8835913,"elevationM":638},{"id":"node:1291439290","kind":"peak","name":"Rocca delle Penne","lat":37.7906859,"lon":12.9376935,"elevationM":669},{"id":"node:1350365604","kind":"peak","name":"Monte Bonifato","lat":37.9545536,"lon":12.9643728,"elevationM":825},{"id":"node:1543330238","kind":"peak","name":"Monte Calemici","lat":37.886516,"lon":12.8188188,"elevationM":546},{"id":"node:1543330239","kind":"peak","name":"Monte San Giuseppe","lat":37.8747779,"lon":12.8067588,"elevationM":679},{"id":"node:1543330241","kind":"peak","name":"Monte di Pietralunga","lat":37.8797702,"lon":12.8332017,"elevationM":527},{"id":"node:1990132273","kind":"peak","name":"Pizzo Lisandro","lat":37.9584346,"lon":12.0696349,"elevationM":481},{"id":"node:2499990619","kind":"peak","name":"Timpone Campana","lat":37.9314629,"lon":12.7426572,"elevationM":261},{"id":"node:2579831884","kind":"peak","name":"Timpone Pontillo","lat":37.7986734,"lon":12.8770036,"elevationM":329},{"id":"node:2665977286","kind":"peak","name":"Cresta di Gallo","lat":37.8028318,"lon":12.756788,"elevationM":365},{"id":"node:5966186610","kind":"peak","name":"Monte Finestrelle","lat":37.7905868,"lon":12.9219282,"elevationM":656},{"id":"node:5968704174","kind":"peak","name":"Monte Casal Monaco","lat":37.8940074,"lon":12.7844274,"elevationM":572},{"id":"node:5969854392","kind":"peak","name":"Monte Pispisa","lat":37.93973,"lon":12.8235984,"elevationM":515},{"id":"node:5979172532","kind":"peak","name":"Monte Sette Soldi","lat":37.8445711,"lon":12.8332329,"elevationM":543},{"id":"node:6135567046","kind":"volcano","name":"Banco Graham - ex Isola Ferdinandea","lat":37.1663814,"lon":12.7166009,"elevationM":-7},{"id":"node:6606859396","kind":"peak","name":"Monte Scorace","lat":37.9908994,"lon":12.7823567,"elevationM":641},{"id":"node:6815528711","kind":"volcano","name":"Empedokles","lat":37.1662417,"lon":12.716715,"elevationM":-8},{"id":"node:8305580890","kind":"peak","name":"Monte Fontanelle","lat":37.9250069,"lon":12.8266844,"elevationM":490},{"id":"node:8305683548","kind":"peak","name":"Monte Pelato","lat":37.9300503,"lon":12.8230994,"elevationM":367},{"id":"node:8458545757","kind":"peak","name":"Monte Centurino","lat":37.9993755,"lon":12.821061,"elevationM":479},{"id":"node:8812950400","kind":"peak","name":"Monte Baronia","lat":37.866811,"lon":12.8517834,"elevationM":627},{"id":"node:9705601949","kind":"peak","name":"Cozzo Monaco","lat":37.9830335,"lon":12.0478949,"elevationM":607},{"id":"node:9705640697","kind":"peak","name":"Pizzo del Capraro","lat":37.976985,"lon":12.0543742,"elevationM":623},{"id":"node:9705640698","kind":"peak","name":"Punta Campana","lat":37.9717317,"lon":12.0561613,"elevationM":626},{"id":"node:9705640699","kind":"peak","name":"Punta Ansini","lat":37.9649812,"lon":12.0606992,"elevationM":491},{"id":"node:9724927159","kind":"peak","name":"Pizzo delle Fragole","lat":37.985138,"lon":12.0497094,"elevationM":542},{"id":"node:9724927160","kind":"peak","name":"Pizzo Madonnuzza","lat":37.9859606,"lon":12.0570364,"elevationM":390},{"id":"node:13167033090","kind":"peak","name":"Pizzo Scaturro","lat":37.9617465,"lon":12.0543974,"elevationM":403}]}