{"tileKey":"la_p35_lo_p35","version":"v1-1775891056926","entries":[{"id":"node:567063183","kind":"peak","name":"Kel Dağı","lat":35.9520301,"lon":35.9691563,"elevationM":1717},{"id":"node:572536239","kind":"peak","name":"جبل فيليك","lat":35.85,"lon":35.9166667,"elevationM":442},{"id":"node:572557285","kind":"peak","name":"ضهر الصفراء","lat":35.0741107,"lon":35.9198355,"elevationM":null},{"id":"node:3768937710","kind":"peak","name":"جبل زغارو","lat":35.6807049,"lon":35.9875017,"elevationM":393},{"id":"node:3769074996","kind":"peak","name":"جبل الحرامية","lat":35.8632583,"lon":35.9812683,"elevationM":null},{"id":"node:3878791230","kind":"peak","name":"جبل النسر","lat":35.8876925,"lon":35.9690926,"elevationM":858},{"id":"node:3883836599","kind":"peak","name":"جبل كزبر","lat":35.7304069,"lon":35.9939515,"elevationM":null}]}