{"tileKey":"la_p47_lo_p18","version":"v1-1775891056926","entries":[{"id":"node:26862755","kind":"peak","name":"Csóványos","lat":47.9490938,"lon":18.9485328,"elevationM":938},{"id":"node:26864277","kind":"peak","name":"Pilis","lat":47.6878628,"lon":18.8723311,"elevationM":756},{"id":"node:268169155","kind":"peak","name":"János-hegy","lat":47.5179821,"lon":18.9594632,"elevationM":527},{"id":"node:269289961","kind":"peak","name":"Hosszú-hegy","lat":47.6664015,"lon":18.9158545,"elevationM":480},{"id":"node:269289980","kind":"peak","name":"Dobogó-kő","lat":47.719955,"lon":18.8990175,"elevationM":699},{"id":"node:285890273","kind":"peak","name":"Hármashatár-hegy","lat":47.5549965,"lon":18.9984498,"elevationM":495},{"id":"node:305040439","kind":"peak","name":"Bence-hegy","lat":47.2484961,"lon":18.6249708,"elevationM":232},{"id":"node:320663548","kind":"peak","name":"Nagy-Kopasz","lat":47.5518005,"lon":18.8651414,"elevationM":559},{"id":"node:456373253","kind":"peak","name":"Kis-Hárs-hegy","lat":47.5299827,"lon":18.9662093,"elevationM":362},{"id":"node:457136019","kind":"peak","name":"Tündér-hegy","lat":47.5148649,"lon":18.966939,"elevationM":386},{"id":"node:582632083","kind":"peak","name":"Nagyvillám hegy","lat":47.795434,"lon":18.992654,"elevationM":377},{"id":"node:588565403","kind":"peak","name":"Nagy-Hideg-hegy","lat":47.9369278,"lon":18.9226626,"elevationM":864},{"id":"node:706624956","kind":"peak","name":"Kopasz-hegy","lat":47.6801495,"lon":18.7909222,"elevationM":null},{"id":"node:765815526","kind":"peak","name":"Oroszlánkő","lat":47.4416582,"lon":18.3562856,"elevationM":345},{"id":"node:766003261","kind":"peak","name":"Hirsch-orom","lat":47.7514013,"lon":18.8441469,"elevationM":414},{"id":"node:766009721","kind":"peak","name":"Alsó-Ecset-hegy","lat":47.7495809,"lon":18.8430886,"elevationM":452},{"id":"node:922447468","kind":"peak","name":"Nagy-Hárs-hegy","lat":47.5336953,"lon":18.9551722,"elevationM":454},{"id":"node:938105610","kind":"peak","name":"József-hegy","lat":47.4263665,"lon":18.9047246,"elevationM":243},{"id":"node:938105611","kind":"peak","name":"Anna-hegy","lat":47.4250019,"lon":18.9249914,"elevationM":266},{"id":"node:938105612","kind":"peak","name":"Tükör-hegy","lat":47.4376149,"lon":18.9215677,"elevationM":169},{"id":"node:938105613","kind":"peak","name":"Róka-hegy","lat":47.4309464,"lon":18.8860779,"elevationM":259},{"id":"node:938105614","kind":"peak","name":"Kerek-hegy","lat":47.4360755,"lon":18.8871378,"elevationM":211},{"id":"node:946783723","kind":"peak","name":"Törökugrató","lat":47.4582666,"lon":18.9247637,"elevationM":249},{"id":"node:949914263","kind":"peak","name":"Sziklás-hegy","lat":47.5924563,"lon":18.8986714,"elevationM":385},{"id":"node:955680145","kind":"peak","name":"Csóka-hegy","lat":47.3706339,"lon":18.2555508,"elevationM":479},{"id":"node:955697072","kind":"peak","name":"Zsíros-hegy","lat":47.591103,"lon":18.9008258,"elevationM":424},{"id":"node:955738062","kind":"peak","name":"Magas-Tax","lat":47.9231115,"lon":18.9370775,"elevationM":739},{"id":"node:955747056","kind":"peak","name":"Nagy-Mána","lat":47.9661741,"lon":18.9635693,"elevationM":707},{"id":"node:964796793","kind":"peak","name":"Farkas-hegy","lat":47.4746771,"lon":18.9392304,"elevationM":343},{"id":"node:964796795","kind":"peak","name":"Szekrényes-hegy","lat":47.4767609,"lon":18.9346781,"elevationM":364},{"id":"node:964796831","kind":"peak","name":"Szállás-hegy","lat":47.4723265,"lon":18.9330305,"elevationM":322},{"id":"node:972462197","kind":"peak","name":"Csík-hegy","lat":47.4656038,"lon":18.9185016,"elevationM":314},{"id":"node:972464762","kind":"peak","name":"Út-hegy","lat":47.4635811,"lon":18.9321673,"elevationM":262},{"id":"node:1041044752","kind":"peak","name":"Abov","lat":47.871042,"lon":18.158097,"elevationM":124},{"id":"node:1065165282","kind":"peak","name":"Kő-hegy","lat":47.4655755,"lon":18.957322,"elevationM":235},{"id":"node:1232195967","kind":"peak","name":"Fazekas-hegy","lat":47.5445969,"lon":18.9567184,"elevationM":281},{"id":"node:1233413014","kind":"peak","name":"Kis-kő","lat":47.7138447,"lon":18.6417366,"elevationM":264},{"id":"node:1233413241","kind":"peak","name":"Hegyes-kő","lat":47.7144512,"lon":18.6476611,"elevationM":311},{"id":"node:1234035447","kind":"peak","name":"Nagy-Gete","lat":47.7089845,"lon":18.6831508,"elevationM":457},{"id":"node:1234732011","kind":"peak","name":"Öreg-kő","lat":47.7230582,"lon":18.5743509,"elevationM":374},{"id":"node:1235921345","kind":"peak","name":"Kő-hegy","lat":47.7207712,"lon":18.611004,"elevationM":297},{"id":"node:1287698873","kind":"peak","name":"Ló-hegy","lat":47.4690874,"lon":18.9231083,"elevationM":309},{"id":"node:1287698880","kind":"peak","name":"Huszonnégyökrös-hegy","lat":47.4631928,"lon":18.907857,"elevationM":288},{"id":"node:1287700685","kind":"peak","name":"Kálvária-domb","lat":47.4301285,"lon":18.9119889,"elevationM":171},{"id":"node:1290503645","kind":"peak","name":"Baglyas-hegy","lat":47.2223919,"lon":18.2080098,"elevationM":349},{"id":"node:1290504204","kind":"peak","name":"Akasztó-hegy","lat":47.2344606,"lon":18.2174029,"elevationM":330},{"id":"node:1314026573","kind":"peak","name":"Kálvária-domb","lat":47.4629653,"lon":18.9511596,"elevationM":null},{"id":"node:1321972860","kind":"peak","name":"Nagy-Koppány","lat":47.8988967,"lon":18.8524285,"elevationM":548},{"id":"node:1321973404","kind":"peak","name":"Nagy-Galla","lat":47.8751654,"lon":18.8274319,"elevationM":479},{"id":"node:1376683210","kind":"peak","name":"Kis-Sas-hegy","lat":47.9029205,"lon":18.8893909,"elevationM":532},{"id":"node:1376683211","kind":"peak","name":"Ló-hegy","lat":47.904283,"lon":18.9006241,"elevationM":559},{"id":"node:1376683212","kind":"peak","name":"Nagy-Sas-hegy","lat":47.8976216,"lon":18.8922039,"elevationM":609},{"id":"node:1376683213","kind":"peak","name":"Só-hegy","lat":47.8924611,"lon":18.8900994,"elevationM":584},{"id":"node:1376743609","kind":"peak","name":"Fekete-fej","lat":47.5429908,"lon":18.9393337,"elevationM":386},{"id":"node:1376748267","kind":"peak","name":"Alsó-hegy","lat":47.868364,"lon":18.903195,"elevationM":351},{"id":"node:1376748283","kind":"peak","name":"Csák-hegy","lat":47.8549441,"lon":18.8664225,"elevationM":376},{"id":"node:1376748286","kind":"peak","name":"Eszperantó-hegy","lat":47.8155043,"lon":18.9575315,"elevationM":336},{"id":"node:1376748291","kind":"peak","name":"Fekete-hegy","lat":47.8715957,"lon":18.9512661,"elevationM":480},{"id":"node:1376748294","kind":"peak","name":"György-hegy","lat":47.8701371,"lon":18.8453949,"elevationM":296},{"id":"node:1376748297","kind":"peak","name":"Hegyes-tető","lat":47.784155,"lon":18.933414,"elevationM":482},{"id":"node:1376748300","kind":"peak","name":"Kis-Galla","lat":47.8729161,"lon":18.8181704,"elevationM":375},{"id":"node:1376748302","kind":"peak","name":"Kelemen-hegy","lat":47.8401923,"lon":18.9645953,"elevationM":361},{"id":"node:1376748320","kind":"peak","name":"Kis-Koppány","lat":47.9062703,"lon":18.8390867,"elevationM":522},{"id":"node:1376748321","kind":"peak","name":"Kis-Vadálló","lat":47.8540727,"lon":18.9089606,"elevationM":248},{"id":"node:1376748322","kind":"peak","name":"Kis-kőszikla","lat":47.8356172,"lon":18.9760559,"elevationM":326},{"id":"node:1376748323","kind":"peak","name":"Klöki-hegy","lat":47.8637815,"lon":18.981927,"elevationM":308},{"id":"node:1376748327","kind":"peak","name":"Kopasz-hegy","lat":47.8801137,"lon":18.8860238,"elevationM":539},{"id":"node:1376748331","kind":"peak","name":"Közép-hegy","lat":47.9081615,"lon":18.8491745,"elevationM":428},{"id":"node:1376748335","kind":"peak","name":"Madaras-fa","lat":47.9051347,"lon":18.9884101,"elevationM":391},{"id":"node:1376748346","kind":"peak","name":"Nagy-Vadálló","lat":47.8494422,"lon":18.9102761,"elevationM":278},{"id":"node:1376748350","kind":"peak","name":"Nagy-Vaskapu","lat":47.8718141,"lon":18.9156869,"elevationM":343},{"id":"node:1376748354","kind":"peak","name":"Pap-hegy","lat":47.8808959,"lon":18.9759753,"elevationM":473},{"id":"node:1376748357","kind":"peak","name":"Peres","lat":47.8813604,"lon":18.937619,"elevationM":360},{"id":"node:1376748360","kind":"peak","name":"Piroska-hegy","lat":47.8650257,"lon":18.9244612,"elevationM":335},{"id":"node:1376748362","kind":"peak","name":"Remetekereszt-bérc","lat":47.7907232,"lon":18.9301259,"elevationM":412},{"id":"node:1376748366","kind":"peak","name":"Ruzsás-hegy","lat":47.8329214,"lon":18.8829541,"elevationM":238},{"id":"node:1376748373","kind":"peak","name":"Széles-hegy","lat":47.8893228,"lon":18.8398064,"elevationM":499},{"id":"node:1376748382","kind":"peak","name":"Szőlőhegy","lat":47.8861594,"lon":18.9936826,"elevationM":391},{"id":"node:1376748387","kind":"peak","name":"Tar Péter-hegy","lat":47.8775311,"lon":18.959901,"elevationM":527},{"id":"node:1376748391","kind":"peak","name":"Varjú-hegy","lat":47.8711712,"lon":18.8277644,"elevationM":400},{"id":"node:1376748396","kind":"peak","name":"Vastag-hegy","lat":47.8762105,"lon":18.8878738,"elevationM":497},{"id":"node:1376748398","kind":"peak","name":"Várhegy","lat":47.8943197,"lon":18.9816527,"elevationM":359},{"id":"node:1376748400","kind":"peak","name":"Zuvári-hegy","lat":47.8600496,"lon":18.848357,"elevationM":313},{"id":"node:1488477493","kind":"peak","name":"Őr-hegy","lat":47.6452427,"lon":18.6179737,"elevationM":347},{"id":"node:1488477560","kind":"peak","name":"Palkó-hegy","lat":47.6403422,"lon":18.6567429,"elevationM":198},{"id":"node:1488477643","kind":"peak","name":"Nagy-Őr-hegy","lat":47.6404503,"lon":18.6217225,"elevationM":362},{"id":"node:1488934853","kind":"peak","name":"Ágacska-hegy","lat":47.4900697,"lon":18.5047229,"elevationM":248},{"id":"node:1488934854","kind":"peak","name":"Ürge-hegy","lat":47.4816646,"lon":18.5321487,"elevationM":225},{"id":"node:1488934862","kind":"peak","name":"Zuppa-tető","lat":47.5065799,"lon":18.515511,"elevationM":384},{"id":"node:1489915696","kind":"peak","name":"Prédikálószék","lat":47.7392742,"lon":18.9206526,"elevationM":639},{"id":"node:1494194309","kind":"peak","name":"Bolha-hegy","lat":47.446322,"lon":18.8122694,"elevationM":null},{"id":"node:1494609244","kind":"peak","name":"Meleg-hegy","lat":47.2586599,"lon":18.5969006,"elevationM":352},{"id":"node:1658783460","kind":"peak","name":"Kecske-hegy","lat":47.4728839,"lon":18.9120095,"elevationM":260},{"id":"node:1675745919","kind":"peak","name":"Katalin-hegy","lat":47.4893052,"lon":18.8516729,"elevationM":345},{"id":"node:1677382207","kind":"peak","name":"Iharos-hegy","lat":47.4558142,"lon":18.8466267,"elevationM":334},{"id":"node:1678035378","kind":"peak","name":"Közép-hegy","lat":47.4634972,"lon":18.8481904,"elevationM":242},{"id":"node:1678035379","kind":"peak","name":"Nap-hegy","lat":47.4678084,"lon":18.8459278,"elevationM":222},{"id":"node:1678035380","kind":"peak","name":"Kő-hegy","lat":47.4599861,"lon":18.8532347,"elevationM":301},{"id":"node:1680447309","kind":"peak","name":"Godóvár","lat":47.98,"lon":18.9058333,"elevationM":574},{"id":"node:1680447315","kind":"peak","name":"Gömbölyű-kő","lat":47.9131995,"lon":18.8338636,"elevationM":509},{"id":"node:1680447343","kind":"peak","name":"Hangyás-bérc","lat":47.9408215,"lon":18.9369348,"elevationM":863},{"id":"node:1680447355","kind":"peak","name":"Hegyes-hegy","lat":47.9544975,"lon":18.8507855,"elevationM":436},{"id":"node:1680447363","kind":"peak","name":"Kis-Hideg-hegy","lat":47.942205,"lon":18.9100188,"elevationM":665},{"id":"node:1680447375","kind":"peak","name":"Kis-Pogány-hegy","lat":47.9375,"lon":18.8795335,"elevationM":510},{"id":"node:1680447411","kind":"peak","name":"Kutya-hát","lat":47.9487459,"lon":18.8281892,"elevationM":237},{"id":"node:1680447425","kind":"peak","name":"Kövirózsás","lat":47.9680086,"lon":18.8807984,"elevationM":696},{"id":"node:1680447435","kind":"peak","name":"Magos-fa","lat":47.9577875,"lon":18.9385847,"elevationM":916},{"id":"node:1680447442","kind":"peak","name":"Magyar-hegy","lat":47.94904,"lon":18.8712409,"elevationM":714},{"id":"node:1680447481","kind":"peak","name":"Miklós-tető","lat":47.9725171,"lon":18.9119321,"elevationM":724},{"id":"node:1680447493","kind":"peak","name":"Nagy-Pogány-hegy","lat":47.9414295,"lon":18.8901931,"elevationM":630},{"id":"node:1680447503","kind":"peak","name":"Nagy-gyertyános","lat":47.9010009,"lon":18.8665761,"elevationM":511},{"id":"node:1680447517","kind":"peak","name":"Pintér-hegyese","lat":47.945,"lon":18.9013333,"elevationM":656},{"id":"node:1680447558","kind":"peak","name":"Ság-oldal","lat":47.9179723,"lon":18.7905829,"elevationM":182},{"id":"node:1687558470","kind":"peak","name":"Cseplek-hegy","lat":47.26731,"lon":18.655,"elevationM":222},{"id":"node:1687558478","kind":"peak","name":"Csúcsos-hegy","lat":47.2687992,"lon":18.6276381,"elevationM":268},{"id":"node:1687558487","kind":"peak","name":"János-hegy","lat":47.2520993,"lon":18.6175,"elevationM":231},{"id":"node:1687558493","kind":"peak","name":"Karácsony-hegy","lat":47.219983,"lon":18.53245,"elevationM":193},{"id":"node:1687558499","kind":"peak","name":"Murvás-hegy","lat":47.209081,"lon":18.495684,"elevationM":158},{"id":"node:1687558504","kind":"peak","name":"Mészeg-hegy","lat":47.2275,"lon":18.5816667,"elevationM":154},{"id":"node:1687558509","kind":"peak","name":"Sár-hegy","lat":47.229987,"lon":18.54177,"elevationM":226},{"id":"node:1687558513","kind":"peak","name":"Templom-hegy","lat":47.2676427,"lon":18.6049048,"elevationM":325},{"id":"node:1687558517","kind":"peak","name":"Tompos-hegy","lat":47.2266667,"lon":18.5183333,"elevationM":240},{"id":"node:1687558521","kind":"peak","name":"Vaskapu-hegy","lat":47.2691667,"lon":18.5775,"elevationM":273},{"id":"node:1693823637","kind":"peak","name":"Kálvária-hegy","lat":47.4131345,"lon":18.8270004,"elevationM":173},{"id":"node:1706231457","kind":"peak","name":"Nagy Széna-hegy","lat":47.4774732,"lon":18.4695123,"elevationM":null},{"id":"node:1716600421","kind":"peak","name":"Ballai-magyal","lat":47.2262767,"lon":18.0072806,"elevationM":479},{"id":"node:1716600440","kind":"peak","name":"Bér-hegy","lat":47.2166667,"lon":18.0666667,"elevationM":496},{"id":"node:1716600441","kind":"peak","name":"Fajdas-hegy","lat":47.2188777,"lon":18.0878976,"elevationM":413},{"id":"node:1716600445","kind":"peak","name":"Kis-Futóné","lat":47.2325,"lon":18.0388397,"elevationM":558},{"id":"node:1716600449","kind":"peak","name":"Márkus szekrénye","lat":47.2333333,"lon":18.0683333,"elevationM":508},{"id":"node:1716600489","kind":"peak","name":"Vár-berek","lat":47.2393495,"lon":18.099855,"elevationM":469},{"id":"node:1716600495","kind":"peak","name":"Öreg-Futóné","lat":47.2255785,"lon":18.0331127,"elevationM":576},{"id":"node:1716761293","kind":"peak","name":"Hegyes-berek","lat":47.2333333,"lon":18.0108333,"elevationM":563},{"id":"node:1762286968","kind":"peak","name":"Béla-tető","lat":47.7577961,"lon":18.8134265,"elevationM":404},{"id":"node:1762286975","kind":"peak","name":"Felső-Ecset-hegy","lat":47.7429742,"lon":18.8386598,"elevationM":478},{"id":"node:1762286982","kind":"peak","name":"Kis-Cserepes-tető","lat":47.7413546,"lon":18.8045154,"elevationM":264},{"id":"node:1762286990","kind":"peak","name":"Látó-hegy","lat":47.7562439,"lon":18.7900876,"elevationM":297},{"id":"node:1762286992","kind":"peak","name":"Nagy-Cserepes-tető","lat":47.7419915,"lon":18.8118097,"elevationM":323},{"id":"node:1762286993","kind":"peak","name":"Ráró-hegy","lat":47.7431702,"lon":18.8330841,"elevationM":488},{"id":"node:1762287235","kind":"peak","name":"István-hegy","lat":47.7506032,"lon":18.8224409,"elevationM":null},{"id":"node:1890684659","kind":"peak","name":"Kis-Strázsa-hegy","lat":47.7502538,"lon":18.7424756,"elevationM":233},{"id":"node:1890684660","kind":"peak","name":"Nagy-Strázsa-hegy","lat":47.7431211,"lon":18.7609888,"elevationM":309},{"id":"node:1960205021","kind":"peak","name":"Meszes-hegy","lat":47.5909243,"lon":18.8159893,"elevationM":381},{"id":"node:1997496836","kind":"peak","name":"Csúcs-hegy","lat":47.5709727,"lon":18.9839873,"elevationM":444},{"id":"node:1997496870","kind":"peak","name":"Ferenc-halom","lat":47.5242578,"lon":18.9691001,"elevationM":291},{"id":"node:1997496882","kind":"peak","name":"Kecske-hegy","lat":47.5429997,"lon":18.9910884,"elevationM":383},{"id":"node:2009608140","kind":"peak","name":"Kis-Inóc","lat":47.9127751,"lon":18.9099585,"elevationM":683},{"id":"node:2010910751","kind":"peak","name":"Budaörsi-hegy","lat":47.4832401,"lon":18.9534476,"elevationM":430},{"id":"node:2010910755","kind":"peak","name":"Frank-hegy","lat":47.4808014,"lon":18.9680096,"elevationM":417},{"id":"node:2010910758","kind":"peak","name":"Kakukk-hegy","lat":47.4817308,"lon":18.9632629,"elevationM":438},{"id":"node:2017334639","kind":"peak","name":"Hunyad-orom","lat":47.5141673,"lon":18.976076,"elevationM":349},{"id":"node:2052818873","kind":"peak","name":"Tűzkő-hegy","lat":47.4736714,"lon":18.9716279,"elevationM":278},{"id":"node:2057279062","kind":"peak","name":"Nagy-Kevély","lat":47.6228864,"lon":18.9846925,"elevationM":534},{"id":"node:2057281263","kind":"peak","name":"Kis-Kevély","lat":47.6302783,"lon":18.9721644,"elevationM":481},{"id":"node:2070946234","kind":"peak","name":"Kis-Csikóvár","lat":47.6744177,"lon":18.987409,"elevationM":475},{"id":"node:2070946235","kind":"peak","name":"Lom-hegy","lat":47.6912712,"lon":18.9665769,"elevationM":589},{"id":"node:2070946236","kind":"peak","name":"Nagy-Csikóvár","lat":47.6792891,"lon":18.9824684,"elevationM":557},{"id":"node:2070946316","kind":"peak","name":"Pörgelóci","lat":47.6820946,"lon":18.9775261,"elevationM":null},{"id":"node:2087683474","kind":"peak","name":"Széchenyi-hegy","lat":47.4970152,"lon":18.9723446,"elevationM":482},{"id":"node:2223142485","kind":"peak","name":"Csittény-hegy","lat":47.0210871,"lon":18.1468262,"elevationM":164},{"id":"node:2274350282","kind":"peak","name":"Gerecse","lat":47.6807054,"lon":18.4858874,"elevationM":634},{"id":"node:2274350285","kind":"peak","name":"Kis-Gerecse","lat":47.6855214,"lon":18.5016573,"elevationM":498},{"id":"node:2274350286","kind":"peak","name":"Marót-hegy","lat":47.6920413,"lon":18.5234978,"elevationM":350},{"id":"node:2274388173","kind":"peak","name":"Gorba-tető","lat":47.6612582,"lon":18.4326474,"elevationM":505},{"id":"node:2291907571","kind":"peak","name":"Rám-hegy","lat":47.7309529,"lon":18.8970441,"elevationM":486},{"id":"node:2312810507","kind":"peak","name":"Bükkös","lat":47.716347,"lon":18.9975941,"elevationM":464},{"id":"node:2312810514","kind":"peak","name":"Cser-hegy","lat":47.7041036,"lon":18.9951884,"elevationM":521},{"id":"node:2312810526","kind":"peak","name":"Kukac-hegy","lat":47.7109884,"lon":18.9874647,"elevationM":440},{"id":"node:2312810537","kind":"peak","name":"Tölgyes-hegy","lat":47.7033648,"lon":18.9985381,"elevationM":518},{"id":"node:2334883239","kind":"peak","name":"Somlyó","lat":47.5700357,"lon":18.5325566,"elevationM":435},{"id":"node:2334890284","kind":"peak","name":"Kakukk-hegy","lat":47.3514159,"lon":18.9355782,"elevationM":172},{"id":"node:2334890285","kind":"peak","name":"Varga-hegy","lat":47.3616667,"lon":18.3083333,"elevationM":375},{"id":"node:2334890286","kind":"peak","name":"Sas-hegy","lat":47.3683926,"lon":18.4044497,"elevationM":253},{"id":"node:2334890287","kind":"peak","name":"Zöld-hegy","lat":47.4059057,"lon":18.4405992,"elevationM":311},{"id":"node:2334890290","kind":"peak","name":"Boglári-tető","lat":47.4597956,"lon":18.4479646,"elevationM":367},{"id":"node:2334890291","kind":"peak","name":"Körtvélyes","lat":47.4886239,"lon":18.4523406,"elevationM":481},{"id":"node:2334890292","kind":"peak","name":"Mészáros-hegy","lat":47.5172247,"lon":18.4405087,"elevationM":435},{"id":"node:2334890293","kind":"peak","name":"Dobogó","lat":47.5173186,"lon":18.6071685,"elevationM":250},{"id":"node:2334890295","kind":"peak","name":"Sátor-hegy","lat":47.5410018,"lon":18.4943323,"elevationM":286},{"id":"node:2334890297","kind":"peak","name":"Nagy-Keselő-hegy","lat":47.559322,"lon":18.4610729,"elevationM":318},{"id":"node:2334890298","kind":"peak","name":"Baglyas","lat":47.5776906,"lon":18.5093694,"elevationM":430},{"id":"node:2334890300","kind":"peak","name":"Csúcsos-hegy","lat":47.5962034,"lon":18.4100154,"elevationM":374},{"id":"node:2334890301","kind":"peak","name":"Pes-kő","lat":47.6100285,"lon":18.4724539,"elevationM":393},{"id":"node:2334890303","kind":"peak","name":"Bő-Somlyó","lat":47.6272995,"lon":18.5647421,"elevationM":344},{"id":"node:2334890306","kind":"peak","name":"Pörös-hegy","lat":47.6396396,"lon":18.4775,"elevationM":364},{"id":"node:2334890309","kind":"peak","name":"Bárány-hegy","lat":47.6683333,"lon":18.8416667,"elevationM":418},{"id":"node:2334890310","kind":"peak","name":"Babály","lat":47.6723365,"lon":18.6498413,"elevationM":220},{"id":"node:2334890315","kind":"peak","name":"Nagy-Somlyó","lat":47.7041667,"lon":18.4091667,"elevationM":426},{"id":"node:2334890319","kind":"peak","name":"Hajdú-hegy","lat":47.7284917,"lon":18.4750722,"elevationM":359},{"id":"node:2334890321","kind":"peak","name":"Kis-Pap-hegy","lat":47.7572145,"lon":18.9655685,"elevationM":329},{"id":"node:2334890324","kind":"peak","name":"Szekrény-hegy","lat":47.770006,"lon":18.8805399,"elevationM":302},{"id":"node:2334890329","kind":"peak","name":"Sas-hegy","lat":47.8103046,"lon":18.8263157,"elevationM":318},{"id":"node:2334890399","kind":"peak","name":"Varjastető","lat":47.9969028,"lon":18.94,"elevationM":489},{"id":"node:2399401799","kind":"peak","name":"Szép-Bérc","lat":47.9077233,"lon":18.9106976,"elevationM":631},{"id":"node:2421198409","kind":"peak","name":"Nap-hegy","lat":47.470011,"lon":18.9639329,"elevationM":253},{"id":"node:2421198416","kind":"peak","name":"Odvas-hegy","lat":47.4678858,"lon":18.9460022,"elevationM":315},{"id":"node:2441942227","kind":"peak","name":"Domb","lat":47.7179915,"lon":18.300414,"elevationM":null},{"id":"node:2587256617","kind":"peak","name":"Kőszikla","lat":47.6491724,"lon":18.6649977,"elevationM":315},{"id":"node:2587283783","kind":"peak","name":"Vaskapu","lat":47.7870183,"lon":18.7750221,"elevationM":404},{"id":"node:2622522738","kind":"peak","name":"Postriežka","lat":47.8559452,"lon":18.3144431,"elevationM":198},{"id":"node:2630500837","kind":"peak","name":"Kender-hegy","lat":47.6658392,"lon":18.3584522,"elevationM":null},{"id":"node:2630500845","kind":"peak","name":"Szarvas-domb","lat":47.6576658,"lon":18.3533367,"elevationM":null},{"id":"node:2630500847","kind":"peak","name":"Sánc-hegy","lat":47.6353273,"lon":18.3647627,"elevationM":160},{"id":"node:2630500848","kind":"peak","name":"Taliga-hegy","lat":47.6799943,"lon":18.3549151,"elevationM":null},{"id":"node:2681398667","kind":"peak","name":"Nagy-Szénás","lat":47.5906528,"lon":18.8716382,"elevationM":550},{"id":"node:2696620738","kind":"peak","name":"Vadaskerti-hegy","lat":47.5457752,"lon":18.9783315,"elevationM":371},{"id":"node:2696623137","kind":"peak","name":"Nyéki-hegy","lat":47.5425822,"lon":18.9724983,"elevationM":334},{"id":"node:2696786266","kind":"peak","name":"Homok-hegy","lat":47.546906,"lon":18.9833102,"elevationM":340},{"id":"node:2707864846","kind":"peak","name":"Les-hegy","lat":47.6989948,"lon":18.3231489,"elevationM":236},{"id":"node:2713240420","kind":"peak","name":"Vörös-kővár","lat":47.5565279,"lon":18.979398,"elevationM":338},{"id":"node:2733611574","kind":"peak","name":"Árpádvár","lat":47.7388671,"lon":18.8874833,"elevationM":484},{"id":"node:2767103709","kind":"peak","name":"Ördög-orom","lat":47.4818027,"lon":18.9843018,"elevationM":312},{"id":"node:2807680780","kind":"peak","name":"Holló-kő","lat":47.972359,"lon":18.882923,"elevationM":685},{"id":"node:2858144038","kind":"peak","name":"Nagy-Eménkes","lat":47.7087522,"lon":18.5091935,"elevationM":526},{"id":"node:2858144039","kind":"peak","name":"Pecek-hegy","lat":47.7364528,"lon":18.5202519,"elevationM":184},{"id":"node:2858144041","kind":"peak","name":"Pisznice","lat":47.6997682,"lon":18.4999167,"elevationM":534},{"id":"node:2858144043","kind":"peak","name":"Réz-hegy","lat":47.7330816,"lon":18.5105592,"elevationM":220},{"id":"node:2858144044","kind":"peak","name":"Tűzköves","lat":47.7104369,"lon":18.5187531,"elevationM":485},{"id":"node:2867666126","kind":"peak","name":"Csúcs-hegy","lat":47.6416367,"lon":18.9763343,"elevationM":352},{"id":"node:2867717610","kind":"peak","name":"Majdán-hegy","lat":47.640034,"lon":18.9856992,"elevationM":273},{"id":"node:2867749020","kind":"peak","name":"Ezüst-kevély","lat":47.6148768,"lon":18.9978361,"elevationM":413},{"id":"node:2902802692","kind":"peak","name":"Kis-Villám","lat":47.8020012,"lon":18.9903724,"elevationM":266},{"id":"node:2902802693","kind":"peak","name":"Mogyoró-hegy","lat":47.7988884,"lon":18.9980736,"elevationM":265},{"id":"node:2906813125","kind":"peak","name":"Muzslai-tető","lat":47.7308686,"lon":18.5804036,"elevationM":315},{"id":"node:2923655915","kind":"peak","name":"Bagoly-hegy","lat":47.3728845,"lon":18.3793406,"elevationM":261},{"id":"node:2923655916","kind":"peak","name":"Bucka","lat":47.3501906,"lon":18.3590572,"elevationM":278},{"id":"node:2923655917","kind":"peak","name":"Gránás-hegy","lat":47.3581461,"lon":18.3755778,"elevationM":314},{"id":"node:2923655918","kind":"peak","name":"Gém-hegy","lat":47.3901257,"lon":18.4000954,"elevationM":316},{"id":"node:2923655919","kind":"peak","name":"Közép-hegy","lat":47.3499914,"lon":18.3765724,"elevationM":265},{"id":"node:2923701793","kind":"peak","name":"Mária-hegy","lat":47.5555799,"lon":18.98862,"elevationM":421},{"id":"node:2936165804","kind":"peak","name":"Kis-Kőfej","lat":47.5205877,"lon":18.9505641,"elevationM":396},{"id":"node:2957988529","kind":"peak","name":"Vadász-hegy","lat":47.4379169,"lon":18.9901459,"elevationM":224},{"id":"node:3007187064","kind":"peak","name":"Vár-bükk","lat":47.9579109,"lon":18.8777728,"elevationM":743},{"id":"node:3009936351","kind":"peak","name":"Öreg-hegy","lat":47.3887188,"lon":18.404512,"elevationM":316},{"id":"node:3013879972","kind":"peak","name":"Újlaki-hegy","lat":47.5518718,"lon":18.988967,"elevationM":448},{"id":"node:3013883453","kind":"peak","name":"Látó-hegy","lat":47.5362505,"lon":18.9971961,"elevationM":376},{"id":"node:3013886971","kind":"peak","name":"Vihar-hegy","lat":47.5613457,"lon":18.9927319,"elevationM":452},{"id":"node:3013887782","kind":"peak","name":"Les-hegy","lat":47.5786818,"lon":18.942666,"elevationM":319},{"id":"node:3037774567","kind":"peak","name":"Zsidó-hegy","lat":47.2745103,"lon":18.6619268,"elevationM":202},{"id":"node:3139190633","kind":"peak","name":"Sóder-hegy","lat":47.6214987,"lon":18.8476351,"elevationM":368},{"id":"node:3145390174","kind":"peak","name":"Kutya-hegy","lat":47.5894479,"lon":18.8508471,"elevationM":559},{"id":"node:3145395505","kind":"peak","name":"Kutya-széna","lat":47.5908878,"lon":18.8676217,"elevationM":520},{"id":"node:3145400138","kind":"peak","name":"Csaba-hegy","lat":47.6147223,"lon":18.8380343,"elevationM":291},{"id":"node:3146159794","kind":"peak","name":"Kálvária-hegy","lat":47.6256598,"lon":18.8357633,"elevationM":284},{"id":"node:3146189605","kind":"peak","name":"Vörös-hegy","lat":47.6227708,"lon":18.8588729,"elevationM":324},{"id":"node:3146194904","kind":"peak","name":"Kakukk-hegy","lat":47.619191,"lon":18.8628101,"elevationM":315},{"id":"node:3146199252","kind":"peak","name":"Hárs-hegy","lat":47.6134088,"lon":18.8571673,"elevationM":329},{"id":"node:3146205774","kind":"peak","name":"Disznófő","lat":47.6054361,"lon":18.854128,"elevationM":385},{"id":"node:3146210065","kind":"peak","name":"Sós-hegy","lat":47.6038262,"lon":18.8412644,"elevationM":415},{"id":"node:3146212522","kind":"peak","name":"Nádor-hegy","lat":47.6003197,"lon":18.8451641,"elevationM":444},{"id":"node:3146220086","kind":"peak","name":"Iváni-hegy","lat":47.6023235,"lon":18.8740918,"elevationM":371},{"id":"node:3146221372","kind":"peak","name":"Kis-Szénás","lat":47.603378,"lon":18.8627995,"elevationM":431},{"id":"node:3146245294","kind":"peak","name":"Perem-hegy","lat":47.5915888,"lon":18.8375868,"elevationM":486},{"id":"node:3146274744","kind":"peak","name":"Kerek-hegy","lat":47.5816472,"lon":18.9164378,"elevationM":419},{"id":"node:3147194666","kind":"peak","name":"Széna-hegy","lat":47.5835714,"lon":18.8459403,"elevationM":475},{"id":"node:3147353670","kind":"peak","name":"Fehér-hegy","lat":47.6100726,"lon":18.8850984,"elevationM":275},{"id":"node:3147366848","kind":"peak","name":"Szél-hegy","lat":47.6017022,"lon":18.9210679,"elevationM":241},{"id":"node:3147373266","kind":"peak","name":"Mátyás-domb","lat":47.5925826,"lon":18.9492712,"elevationM":180},{"id":"node:3147376066","kind":"peak","name":"Alsó-Patak-hegy","lat":47.5865653,"lon":18.9544979,"elevationM":216},{"id":"node:3147379725","kind":"peak","name":"György-hegy","lat":47.5846119,"lon":18.947351,"elevationM":202},{"id":"node:3150293152","kind":"peak","name":"Szerdahelyi-vágás","lat":47.5948436,"lon":18.827837,"elevationM":434},{"id":"node:3156196521","kind":"peak","name":"Cseres-tető","lat":47.5767651,"lon":18.843669,"elevationM":473},{"id":"node:3156200466","kind":"peak","name":"Zsíros-hegy","lat":47.5746698,"lon":18.8343832,"elevationM":452},{"id":"node:3156201197","kind":"peak","name":"Zsír-hegy","lat":47.5710771,"lon":18.8293337,"elevationM":434},{"id":"node:3156208760","kind":"peak","name":"Telki-hegy","lat":47.5538201,"lon":18.8452141,"elevationM":422},{"id":"node:3156211101","kind":"peak","name":"Kopasz-hegy","lat":47.5415381,"lon":18.8610015,"elevationM":407},{"id":"node:3156216991","kind":"peak","name":"Homok-hegy","lat":47.5715103,"lon":18.8655023,"elevationM":418},{"id":"node:3156287929","kind":"peak","name":"Kopasz-erdő-tető","lat":47.5565599,"lon":18.8852887,"elevationM":526},{"id":"node:3156288228","kind":"peak","name":"Vörös-pocsolyás-hát","lat":47.5528889,"lon":18.8995745,"elevationM":493},{"id":"node:3156289970","kind":"peak","name":"Kecske-hát","lat":47.5510348,"lon":18.9114727,"elevationM":453},{"id":"node:3156298544","kind":"peak","name":"Hosszúerdő-hegy","lat":47.5565657,"lon":18.9358297,"elevationM":363},{"id":"node:3156299038","kind":"peak","name":"Remete-hegy","lat":47.5647125,"lon":18.9246477,"elevationM":423},{"id":"node:3156300834","kind":"peak","name":"Kálvária-domb","lat":47.5729104,"lon":18.9244332,"elevationM":388},{"id":"node:3156300858","kind":"peak","name":"Jegenye-hegy","lat":47.5768353,"lon":18.9109454,"elevationM":418},{"id":"node:3156305099","kind":"peak","name":"Felső-Patak-hegy","lat":47.5793299,"lon":18.9495974,"elevationM":312},{"id":"node:3156580600","kind":"peak","name":"Vár-hegy","lat":47.555154,"lon":18.9540673,"elevationM":329},{"id":"node:3156588146","kind":"peak","name":"Kálvária-hegy","lat":47.5768572,"lon":18.9594823,"elevationM":384},{"id":"node:3156593832","kind":"peak","name":"Tök-hegy","lat":47.5736636,"lon":18.9753876,"elevationM":379},{"id":"node:3156593833","kind":"peak","name":"Szarvas-hegy","lat":47.5764175,"lon":18.9652763,"elevationM":356},{"id":"node:3156618324","kind":"peak","name":"Kanca-hegy","lat":47.2380441,"lon":18.5511515,"elevationM":152},{"id":"node:3156846860","kind":"peak","name":"Hárs-hegy","lat":47.5366553,"lon":18.9187864,"elevationM":437},{"id":"node:3157013376","kind":"peak","name":"Kakukk-hegy","lat":47.5320455,"lon":18.9023854,"elevationM":420},{"id":"node:3157017896","kind":"peak","name":"Vörös-hegy","lat":47.5254267,"lon":18.9226848,"elevationM":332},{"id":"node:3157031003","kind":"peak","name":"Pozsonyi-hegy","lat":47.5309451,"lon":18.9382228,"elevationM":372},{"id":"node:3160813761","kind":"peak","name":"Vaskapu-hegy","lat":47.5343889,"lon":18.9909928,"elevationM":293},{"id":"node:3160837286","kind":"peak","name":"Tót György-hegy","lat":47.529139,"lon":18.8530169,"elevationM":354},{"id":"node:3160840302","kind":"peak","name":"Vár-hegy","lat":47.5242335,"lon":18.8561149,"elevationM":353},{"id":"node:3160844598","kind":"peak","name":"Kuckó-hegy","lat":47.5204722,"lon":18.855412,"elevationM":360},{"id":"node:3160851877","kind":"peak","name":"Mézes-hegy","lat":47.5153712,"lon":18.8520352,"elevationM":341},{"id":"node:3160854113","kind":"peak","name":"Pince-hegy","lat":47.5089798,"lon":18.8338901,"elevationM":222},{"id":"node:3160892299","kind":"peak","name":"József-hegy","lat":47.4866045,"lon":18.8486854,"elevationM":305},{"id":"node:3161224423","kind":"peak","name":"Kis-Kopasz","lat":47.5067561,"lon":18.8703284,"elevationM":356},{"id":"node:3161228248","kind":"peak","name":"Hosszú-hajtás-hegy","lat":47.5131696,"lon":18.8741156,"elevationM":346},{"id":"node:3161259741","kind":"peak","name":"Biai-hegy","lat":47.4874742,"lon":18.8845658,"elevationM":316},{"id":"node:3161265478","kind":"peak","name":"Köszörűkő-hegy","lat":47.4786682,"lon":18.8824147,"elevationM":246},{"id":"node:3162420357","kind":"peak","name":"Rupp-hegy","lat":47.4746617,"lon":18.9797591,"elevationM":257},{"id":"node:3162429985","kind":"peak","name":"Magas-kő","lat":47.4948433,"lon":18.9456713,"elevationM":351},{"id":"node:3162435803","kind":"peak","name":"Meredek-csúcs","lat":47.5043644,"lon":18.9482873,"elevationM":401},{"id":"node:3162437361","kind":"peak","name":"Normafa","lat":47.5025593,"lon":18.9646898,"elevationM":479},{"id":"node:3162444264","kind":"peak","name":"Isten-hegy","lat":47.501378,"lon":18.9919881,"elevationM":372},{"id":"node:3162472094","kind":"peak","name":"Kerekdomb","lat":47.4688792,"lon":18.8367065,"elevationM":164},{"id":"node:3162472095","kind":"peak","name":"Szarvas-hegy","lat":47.4621713,"lon":18.8390567,"elevationM":263},{"id":"node:3162478009","kind":"peak","name":"Dobogó-hegy","lat":47.4453219,"lon":18.8445851,"elevationM":321},{"id":"node:3162545760","kind":"peak","name":"Dobogó-hegy","lat":47.432712,"lon":18.8645163,"elevationM":272},{"id":"node:3162560635","kind":"peak","name":"József-hegy","lat":47.4323343,"lon":18.9058515,"elevationM":229},{"id":"node:3163415898","kind":"peak","name":"Bölcső-hegy","lat":47.6909776,"lon":18.9798502,"elevationM":588},{"id":"node:3186488840","kind":"peak","name":"Sákola-tető","lat":47.8959827,"lon":18.8221477,"elevationM":489},{"id":"node:3216012879","kind":"peak","name":"Sukori-hegy","lat":47.1232883,"lon":18.0614363,"elevationM":253},{"id":"node:3255597039","kind":"peak","name":"Gráciák-bérce","lat":47.5048558,"lon":18.423127,"elevationM":null},{"id":"node:3265704844","kind":"peak","name":"Szentléleki-tető","lat":47.7276553,"lon":18.8516231,"elevationM":500},{"id":"node:3266195080","kind":"peak","name":"Oszoly-csúcs","lat":47.6465527,"lon":18.9739417,"elevationM":329},{"id":"node:3268493306","kind":"peak","name":"Kis-Szoplák","lat":47.713477,"lon":18.8623338,"elevationM":686},{"id":"node:3268493307","kind":"peak","name":"Nagy-Szoplák","lat":47.7107027,"lon":18.8550051,"elevationM":710},{"id":"node:3268493308","kind":"peak","name":"Nagy-bodzás-hegy","lat":47.7025966,"lon":18.858113,"elevationM":717},{"id":"node:3268493309","kind":"peak","name":"Vaskapu-hegy","lat":47.7011114,"lon":18.871215,"elevationM":645},{"id":"node:3285051772","kind":"peak","name":"Nagy-Csákány","lat":47.5007057,"lon":18.4628418,"elevationM":487},{"id":"node:3325443702","kind":"peak","name":"Bogrács-hegy","lat":47.2571951,"lon":18.2368534,"elevationM":325},{"id":"node:3327010162","kind":"peak","name":"Fekete-hegy","lat":47.788082,"lon":18.9841465,"elevationM":354},{"id":"node:3327010164","kind":"peak","name":"Mátyás-hegy","lat":47.7702461,"lon":18.9771388,"elevationM":280},{"id":"node:3327682095","kind":"peak","name":"Agostyáni-hegy","lat":47.669167,"lon":18.419167,"elevationM":435},{"id":"node:3327682096","kind":"peak","name":"Alsó-Látó-hegy","lat":47.685833,"lon":18.431667,"elevationM":351},{"id":"node:3327682099","kind":"peak","name":"Felső-Látó-hegy","lat":47.678333,"lon":18.426667,"elevationM":427},{"id":"node:3327682101","kind":"peak","name":"Hosszú-vontató","lat":47.6936,"lon":18.411713,"elevationM":455},{"id":"node:3327682102","kind":"peak","name":"Nyerges-hegy","lat":47.692724,"lon":18.4289293,"elevationM":302},{"id":"node:3327682103","kind":"peak","name":"Szél-hegy","lat":47.675,"lon":18.44625,"elevationM":345},{"id":"node:3328393241","kind":"peak","name":"Alsó-Pap-hegy","lat":47.7572938,"lon":18.9698847,"elevationM":343},{"id":"node:3328393242","kind":"peak","name":"Apát-kúti-bérc","lat":47.7601657,"lon":18.9886411,"elevationM":441},{"id":"node:3328393243","kind":"peak","name":"Kis-Disznó-hegy","lat":47.7353889,"lon":18.9417776,"elevationM":414},{"id":"node:3328393244","kind":"peak","name":"Nagy-bükk","lat":47.7598934,"lon":18.9768034,"elevationM":341},{"id":"node:3328393245","kind":"peak","name":"Nagy-Disznó-hegy","lat":47.7387293,"lon":18.9389783,"elevationM":431},{"id":"node:3328393247","kind":"peak","name":"Somos-bérc","lat":47.7627093,"lon":18.9867288,"elevationM":394},{"id":"node:3328417603","kind":"peak","name":"Borostás-hegy","lat":47.7191015,"lon":18.8258241,"elevationM":566},{"id":"node:3328417604","kind":"peak","name":"Fekete-hegy","lat":47.724669,"lon":18.8256841,"elevationM":585},{"id":"node:3330140336","kind":"peak","name":"Kis-hegy","lat":47.606785,"lon":18.705413,"elevationM":235},{"id":"node:3330140341","kind":"peak","name":"Nyakas-tető","lat":47.590833,"lon":18.724167,"elevationM":319},{"id":"node:3330140344","kind":"peak","name":"Töki-tető","lat":47.602837,"lon":18.723966,"elevationM":272},{"id":"node:3330140350","kind":"peak","name":"Zsámbéki-hegy","lat":47.5558267,"lon":18.7027221,"elevationM":295},{"id":"node:3330146445","kind":"peak","name":"Örsi-hegy","lat":47.554167,"lon":18.68875,"elevationM":265},{"id":"node:3334355830","kind":"peak","name":"Ökör-orom","lat":47.9763535,"lon":18.8860492,"elevationM":627},{"id":"node:3337486739","kind":"peak","name":"Mórocz-tető","lat":47.2166789,"lon":18.036634,"elevationM":515},{"id":"node:3340205590","kind":"peak","name":"Bagó-kő","lat":47.7745856,"lon":18.8551377,"elevationM":279},{"id":"node:3353761946","kind":"peak","name":"Fekete-hegy","lat":47.5388178,"lon":18.8886708,"elevationM":463},{"id":"node:3358741454","kind":"peak","name":"Gyenyiszka","lat":47.6550632,"lon":18.4325204,"elevationM":474},{"id":"node:3358741455","kind":"peak","name":"Kappan-bükk","lat":47.6208901,"lon":18.4264826,"elevationM":521},{"id":"node:3358741456","kind":"peak","name":"Kecske-hegy","lat":47.6492324,"lon":18.3960847,"elevationM":375},{"id":"node:3358741457","kind":"peak","name":"Kereszt-hát","lat":47.6476549,"lon":18.4071091,"elevationM":445},{"id":"node:3358741463","kind":"peak","name":"Szénás-hegy","lat":47.6379937,"lon":18.4263738,"elevationM":541},{"id":"node:3358741469","kind":"peak","name":"Öreg-Kovács-hegy","lat":47.6439562,"lon":18.4224924,"elevationM":552},{"id":"node:3358746247","kind":"peak","name":"Nagy-Dobó","lat":47.6812105,"lon":18.4080371,"elevationM":435},{"id":"node:3360101524","kind":"peak","name":"Han-Galla","lat":47.5817128,"lon":18.4469806,"elevationM":null},{"id":"node:3360101526","kind":"peak","name":"Irtás-hegy","lat":47.5809202,"lon":18.4407221,"elevationM":265},{"id":"node:3360101529","kind":"peak","name":"Kopasz-hegy","lat":47.58555,"lon":18.4349728,"elevationM":315},{"id":"node:3360101561","kind":"peak","name":"Őzfej","lat":47.5983443,"lon":18.4407802,"elevationM":312},{"id":"node:3360147368","kind":"peak","name":"Tornyó","lat":47.5751626,"lon":18.4873578,"elevationM":null},{"id":"node:3360161206","kind":"peak","name":"Kakukk-hegy","lat":47.5634699,"lon":18.4815596,"elevationM":210},{"id":"node:3360161207","kind":"peak","name":"Kis-Tornyó","lat":47.5717162,"lon":18.4893851,"elevationM":null},{"id":"node:3360161209","kind":"peak","name":"Lázár-hegy","lat":47.569647,"lon":18.4602574,"elevationM":null},{"id":"node:3360189325","kind":"peak","name":"Lőrinc-hegy","lat":47.8837577,"lon":18.8804006,"elevationM":455},{"id":"node:3360221019","kind":"peak","name":"Tamás-kő","lat":47.6040539,"lon":18.4902408,"elevationM":null},{"id":"node:3360240371","kind":"peak","name":"Bánya-hegy","lat":47.6625563,"lon":18.4708988,"elevationM":465},{"id":"node:3360240381","kind":"peak","name":"Halyagos","lat":47.6560849,"lon":18.4804498,"elevationM":null},{"id":"node:3360243693","kind":"peak","name":"Péter-tó","lat":47.6716715,"lon":18.4874298,"elevationM":601},{"id":"node:3360271796","kind":"peak","name":"Bagoly-hegy","lat":47.6825404,"lon":18.4516759,"elevationM":365},{"id":"node:3360271805","kind":"peak","name":"Kerek-domb","lat":47.6748491,"lon":18.5238087,"elevationM":275},{"id":"node:3360271819","kind":"peak","name":"Ökör-állás","lat":47.7006479,"lon":18.4694251,"elevationM":null},{"id":"node:3361585356","kind":"peak","name":"Csonka-oldal","lat":47.3948802,"lon":18.5932403,"elevationM":225},{"id":"node:3361585364","kind":"peak","name":"Ginza-erdők","lat":47.4529347,"lon":18.6895956,"elevationM":255},{"id":"node:3361585378","kind":"peak","name":"Kálvária-hegy","lat":47.4326008,"lon":18.5383721,"elevationM":190},{"id":"node:3361585386","kind":"peak","name":"Malom-domb","lat":47.3937218,"lon":18.5802157,"elevationM":215},{"id":"node:3361588001","kind":"peak","name":"Sínai-hegy","lat":47.4547375,"lon":18.5963067,"elevationM":175},{"id":"node:3361595258","kind":"peak","name":"Kerek-domb","lat":47.4787689,"lon":18.714014,"elevationM":160},{"id":"node:3361595265","kind":"peak","name":"Legelő-hegy","lat":47.439909,"lon":18.7306468,"elevationM":275},{"id":"node:3361816250","kind":"peak","name":"Akasztó-hegy","lat":47.7228073,"lon":18.941578,"elevationM":575},{"id":"node:3361816256","kind":"peak","name":"Keserű-hegy","lat":47.7340159,"lon":18.920748,"elevationM":631},{"id":"node:3361816258","kind":"peak","name":"Körtvélyes-hegy","lat":47.7497424,"lon":18.8953559,"elevationM":382},{"id":"node:3361816259","kind":"peak","name":"Prépost-hegy","lat":47.755175,"lon":18.8985158,"elevationM":424},{"id":"node:3361816268","kind":"peak","name":"Tüskés-hegy","lat":47.7256459,"lon":18.963978,"elevationM":510},{"id":"node:3361816850","kind":"peak","name":"Üstök-hegy","lat":47.7422398,"lon":18.9190446,"elevationM":575},{"id":"node:3362072752","kind":"peak","name":"Bagó-hegy","lat":47.5271233,"lon":18.6111711,"elevationM":250},{"id":"node:3362072756","kind":"peak","name":"Bimbó-hegy","lat":47.5493651,"lon":18.596544,"elevationM":210},{"id":"node:3362072782","kind":"peak","name":"Horvát-hegy","lat":47.4885198,"lon":18.5506117,"elevationM":null},{"id":"node:3362072794","kind":"peak","name":"Kis-Pap-cser","lat":47.523574,"lon":18.5521067,"elevationM":220},{"id":"node:3362072798","kind":"peak","name":"Kálvária-hegy","lat":47.4737341,"lon":18.5311221,"elevationM":null},{"id":"node:3362072810","kind":"peak","name":"Lófingató-hegy","lat":47.5142438,"lon":18.5650021,"elevationM":305},{"id":"node:3362072819","kind":"peak","name":"Pap-cser","lat":47.5323342,"lon":18.5565585,"elevationM":240},{"id":"node:3362084751","kind":"peak","name":"Csúcsos-hegy","lat":47.5839998,"lon":18.6321022,"elevationM":null},{"id":"node:3362084756","kind":"peak","name":"Góré-hegy","lat":47.5884868,"lon":18.6203923,"elevationM":335},{"id":"node:3362084760","kind":"peak","name":"Kerek-erdő","lat":47.5740893,"lon":18.5902621,"elevationM":230},{"id":"node:3362085107","kind":"peak","name":"Új-hegy","lat":47.5811601,"lon":18.6219159,"elevationM":null},{"id":"node:3362093624","kind":"peak","name":"Bagoly-hegy","lat":47.593678,"lon":18.6176595,"elevationM":null},{"id":"node:3362103153","kind":"peak","name":"Vár-hegy","lat":47.7349702,"lon":18.006459,"elevationM":null},{"id":"node:3362363551","kind":"peak","name":"Csonkás-hegy","lat":47.6875251,"lon":18.4700029,"elevationM":431},{"id":"node:3362363558","kind":"peak","name":"Kis-Teke-hegy","lat":47.6935265,"lon":18.4437211,"elevationM":315},{"id":"node:3362405556","kind":"peak","name":"Fekete-hegy","lat":47.6750907,"lon":18.4645092,"elevationM":405},{"id":"node:3362405557","kind":"peak","name":"Lábas-hegy","lat":47.6875641,"lon":18.3904241,"elevationM":null},{"id":"node:3363561844","kind":"peak","name":"Bogár-hegy","lat":47.6186112,"lon":18.6582746,"elevationM":260},{"id":"node:3363561853","kind":"peak","name":"Csimai-dűlő","lat":47.6276672,"lon":18.6028408,"elevationM":230},{"id":"node:3363561859","kind":"peak","name":"Fakó-hegy","lat":47.5778385,"lon":18.5740832,"elevationM":269},{"id":"node:3363561861","kind":"peak","name":"Fej-hegy","lat":47.6191314,"lon":18.713775,"elevationM":280},{"id":"node:3363561865","kind":"peak","name":"Halomi-hegy","lat":47.6230856,"lon":18.6007044,"elevationM":225},{"id":"node:3363561873","kind":"peak","name":"Kablás-hegy","lat":47.624461,"lon":18.6341076,"elevationM":260},{"id":"node:3363561879","kind":"peak","name":"Kecske-kő","lat":47.5991266,"lon":18.6177102,"elevationM":255},{"id":"node:3363561882","kind":"peak","name":"Kis-Somlyó","lat":47.5767971,"lon":18.5367969,"elevationM":382},{"id":"node:3363563201","kind":"peak","name":"Nagy-Seres-hegy","lat":47.6134346,"lon":18.5569208,"elevationM":297},{"id":"node:3363563208","kind":"peak","name":"Pacalos","lat":47.5974236,"lon":18.5697031,"elevationM":275},{"id":"node:3363563213","kind":"peak","name":"Puszta-tető","lat":47.598247,"lon":18.6484133,"elevationM":225},{"id":"node:3363563215","kind":"peak","name":"Sas-hegy","lat":47.6383443,"lon":18.6739624,"elevationM":null},{"id":"node:3363563225","kind":"peak","name":"Szomori úti-dűlő","lat":47.6252413,"lon":18.6220935,"elevationM":205},{"id":"node:3363563230","kind":"peak","name":"Tellők-tető","lat":47.611995,"lon":18.6668809,"elevationM":255},{"id":"node:3363563233","kind":"peak","name":"Vörös-hegy","lat":47.6191757,"lon":18.6728107,"elevationM":235},{"id":"node:3363563234","kind":"peak","name":"Vörös-part","lat":47.5763064,"lon":18.543197,"elevationM":null},{"id":"node:3363563299","kind":"peak","name":"Ördög-hegy","lat":47.636268,"lon":18.701858,"elevationM":225},{"id":"node:3365558867","kind":"peak","name":"Babály-tető","lat":47.645314,"lon":18.6758364,"elevationM":null},{"id":"node:3365558883","kind":"peak","name":"Harasztos","lat":47.6394901,"lon":18.6282852,"elevationM":310},{"id":"node:3365558889","kind":"peak","name":"János-hegy","lat":47.6730533,"lon":18.6195181,"elevationM":null},{"id":"node:3365561396","kind":"peak","name":"Köves-domb","lat":47.6668814,"lon":18.5867504,"elevationM":null},{"id":"node:3365561398","kind":"peak","name":"Sárisápi szikla","lat":47.6576169,"lon":18.668262,"elevationM":275},{"id":"node:3365561399","kind":"peak","name":"Mulató-hegy","lat":47.6403107,"lon":18.5933056,"elevationM":245},{"id":"node:3365561406","kind":"peak","name":"Nyikai-hegy","lat":47.6277514,"lon":18.5852147,"elevationM":276},{"id":"node:3365561413","kind":"peak","name":"Sas-hegy","lat":47.6504583,"lon":18.6911316,"elevationM":209},{"id":"node:3365570665","kind":"peak","name":"Őr-hegy","lat":47.6240778,"lon":18.8816769,"elevationM":330},{"id":"node:3365592770","kind":"peak","name":"Látó-hegy","lat":47.7039764,"lon":18.363207,"elevationM":null},{"id":"node:3365592788","kind":"peak","name":"Új-hegy","lat":47.6932511,"lon":18.3529827,"elevationM":205},{"id":"node:3365606906","kind":"peak","name":"Meleges-hegy","lat":47.7238459,"lon":18.3794908,"elevationM":255},{"id":"node:3365606922","kind":"peak","name":"Új-hegy","lat":47.7124198,"lon":18.3787591,"elevationM":null},{"id":"node:3365641214","kind":"peak","name":"Asszony-tető","lat":47.7178592,"lon":18.4403794,"elevationM":255},{"id":"node:3365641218","kind":"peak","name":"Fekete-hegy","lat":47.7239249,"lon":18.4244519,"elevationM":250},{"id":"node:3365641220","kind":"peak","name":"Gombás-hegy","lat":47.707723,"lon":18.4224697,"elevationM":315},{"id":"node:3365641221","kind":"peak","name":"Haraszt-hegy","lat":47.7378978,"lon":18.4517905,"elevationM":null},{"id":"node:3365641222","kind":"peak","name":"Kis-erdő","lat":47.7263301,"lon":18.4382251,"elevationM":null},{"id":"node:3365641223","kind":"peak","name":"Korpás-hegy","lat":47.7400451,"lon":18.4068595,"elevationM":null},{"id":"node:3365641227","kind":"peak","name":"Sós-hegy","lat":47.7147863,"lon":18.4165826,"elevationM":286},{"id":"node:3365676028","kind":"peak","name":"Csonkás-hegy","lat":47.69749,"lon":18.4525302,"elevationM":293},{"id":"node:3365676030","kind":"peak","name":"Margit-tető","lat":47.710881,"lon":18.4908001,"elevationM":395},{"id":"node:3365857563","kind":"peak","name":"Búzás-hegy","lat":47.7420227,"lon":18.5226712,"elevationM":null},{"id":"node:3365857567","kind":"peak","name":"Kis-Bersek-hegy","lat":47.726288,"lon":18.5198637,"elevationM":null},{"id":"node:3365857568","kind":"peak","name":"Kis-Tűzköves","lat":47.7163601,"lon":18.5152023,"elevationM":null},{"id":"node:3365884310","kind":"peak","name":"Búzás-hegy","lat":47.7435063,"lon":18.5660074,"elevationM":200},{"id":"node:3365884313","kind":"peak","name":"Kutya-hegy","lat":47.7442661,"lon":18.5464845,"elevationM":null},{"id":"node:3365884317","kind":"peak","name":"Magyar-hegy","lat":47.7349507,"lon":18.553009,"elevationM":null},{"id":"node:3365893466","kind":"peak","name":"Cinege-hegy","lat":47.7280487,"lon":18.5628354,"elevationM":195},{"id":"node:3365893474","kind":"peak","name":"Szarkás-hegy","lat":47.7424633,"lon":18.5924531,"elevationM":null},{"id":"node:3365976711","kind":"peak","name":"Domonkos-hegy","lat":47.7000123,"lon":18.5732648,"elevationM":305},{"id":"node:3365976717","kind":"peak","name":"Hármas-gát","lat":47.7118603,"lon":18.553799,"elevationM":null},{"id":"node:3365976727","kind":"peak","name":"Repec-hegy","lat":47.7116662,"lon":18.5665257,"elevationM":null},{"id":"node:3365989252","kind":"peak","name":"Gyertyános","lat":47.7243353,"lon":18.5936577,"elevationM":265},{"id":"node:3365989267","kind":"peak","name":"Új-hegy","lat":47.7242414,"lon":18.6273845,"elevationM":175},{"id":"node:3366016140","kind":"peak","name":"Kis-domb","lat":47.7036726,"lon":18.5965483,"elevationM":150},{"id":"node:3366016175","kind":"peak","name":"Öreg-hegy","lat":47.6983537,"lon":18.5829171,"elevationM":null},{"id":"node:3366047444","kind":"peak","name":"Hosszú-domb","lat":47.671095,"lon":18.5312117,"elevationM":275},{"id":"node:3366047446","kind":"peak","name":"Lyukas-kő","lat":47.6678699,"lon":18.5456568,"elevationM":360},{"id":"node:3366047449","kind":"peak","name":"Péter-járás","lat":47.6880702,"lon":18.5460962,"elevationM":285},{"id":"node:3366047452","kind":"peak","name":"Som-berek","lat":47.6803259,"lon":18.5493437,"elevationM":405},{"id":"node:3366229360","kind":"peak","name":"Gedás-hegy","lat":47.6830254,"lon":18.5956167,"elevationM":null},{"id":"node:3366237452","kind":"peak","name":"Gomba-hegy","lat":47.2316773,"lon":18.2549841,"elevationM":265},{"id":"node:3366237453","kind":"peak","name":"Iszka-hegy","lat":47.2206811,"lon":18.2794096,"elevationM":null},{"id":"node:3366237460","kind":"peak","name":"Kő-hegy","lat":47.2462739,"lon":18.2860187,"elevationM":null},{"id":"node:3366237471","kind":"peak","name":"Piramita","lat":47.2353693,"lon":18.2834637,"elevationM":null},{"id":"node:3366237481","kind":"peak","name":"Tóhely-domb","lat":47.3154782,"lon":18.3072701,"elevationM":null},{"id":"node:3366237484","kind":"peak","name":"Vaskapu-hegy","lat":47.2729406,"lon":18.2488478,"elevationM":null},{"id":"node:3366237486","kind":"peak","name":"Vontató-hegy","lat":47.2719955,"lon":18.2528698,"elevationM":255},{"id":"node:3366249594","kind":"peak","name":"Borostyán-kő","lat":47.6568323,"lon":18.5457254,"elevationM":355},{"id":"node:3366249598","kind":"peak","name":"Jásti-hegy","lat":47.6311382,"lon":18.5508549,"elevationM":330},{"id":"node:3366249602","kind":"peak","name":"Kis-Szenék","lat":47.658413,"lon":18.5331626,"elevationM":null},{"id":"node:3366249607","kind":"peak","name":"Szenék","lat":47.6525735,"lon":18.5399612,"elevationM":395},{"id":"node:3366249609","kind":"peak","name":"Sárási-kő","lat":47.656766,"lon":18.5515008,"elevationM":315},{"id":"node:3366262223","kind":"peak","name":"Bodzás-hegy","lat":47.3320973,"lon":18.1960502,"elevationM":null},{"id":"node:3366262224","kind":"peak","name":"Borz-hegy","lat":47.3211672,"lon":18.2067555,"elevationM":null},{"id":"node:3366262227","kind":"peak","name":"Cser-hát","lat":47.3629073,"lon":18.2000641,"elevationM":null},{"id":"node:3366262236","kind":"peak","name":"Felső-hegy","lat":47.3881938,"lon":18.211986,"elevationM":null},{"id":"node:3366262272","kind":"peak","name":"Nemes-hegy","lat":47.3713314,"lon":18.2388165,"elevationM":null},{"id":"node:3366262292","kind":"peak","name":"Tábor-hegy","lat":47.3896117,"lon":18.1875453,"elevationM":null},{"id":"node:3366262902","kind":"peak","name":"Vajal-hegy","lat":47.3538289,"lon":18.2409236,"elevationM":null},{"id":"node:3366262907","kind":"peak","name":"Vén-hegy","lat":47.3817989,"lon":18.2156226,"elevationM":null},{"id":"node:3366287481","kind":"peak","name":"Domoszló","lat":47.7011964,"lon":18.5157313,"elevationM":455},{"id":"node:3366287484","kind":"peak","name":"Kis-Pisznice","lat":47.7003063,"lon":18.5075304,"elevationM":525},{"id":"node:3366287485","kind":"peak","name":"Törökös-bükk","lat":47.7041498,"lon":18.5085009,"elevationM":null},{"id":"node:3366329516","kind":"peak","name":"Jégverem-oldal","lat":47.6206493,"lon":18.5313782,"elevationM":null},{"id":"node:3366329517","kind":"peak","name":"Lovász-hegy","lat":47.6245866,"lon":18.4988913,"elevationM":null},{"id":"node:3366329521","kind":"peak","name":"Sátor-hegy","lat":47.6169122,"lon":18.5378931,"elevationM":null},{"id":"node:3366360112","kind":"peak","name":"Csurgó-hegy","lat":47.5919153,"lon":18.509514,"elevationM":null},{"id":"node:3366381992","kind":"peak","name":"Szénégető","lat":47.5722673,"lon":18.5267559,"elevationM":null},{"id":"node:3366382293","kind":"peak","name":"Tábornok fái hegy","lat":47.5611148,"lon":18.5236791,"elevationM":null},{"id":"node:3366422057","kind":"peak","name":"Rongyos-Halyagos","lat":47.6000054,"lon":18.4250116,"elevationM":442},{"id":"node:3366422058","kind":"peak","name":"Öreg-Hajagos","lat":47.6042364,"lon":18.426613,"elevationM":434},{"id":"node:3366556244","kind":"peak","name":"Arany-hegy","lat":47.7054147,"lon":18.7338027,"elevationM":null},{"id":"node:3366556246","kind":"peak","name":"Bikás teteje","lat":47.7237279,"lon":18.6397204,"elevationM":null},{"id":"node:3366556247","kind":"peak","name":"Bodói-domb","lat":47.695462,"lon":18.6296032,"elevationM":null},{"id":"node:3366556254","kind":"peak","name":"Dank-hegy","lat":47.7220164,"lon":18.6808084,"elevationM":null},{"id":"node:3366556255","kind":"peak","name":"Fehér-hegy","lat":47.7023047,"lon":18.723984,"elevationM":270},{"id":"node:3366556257","kind":"peak","name":"Gete-hegy","lat":47.7068308,"lon":18.6939836,"elevationM":380},{"id":"node:3366556261","kind":"peak","name":"Henrik-hegy","lat":47.7051714,"lon":18.714319,"elevationM":337},{"id":"node:3366556268","kind":"peak","name":"Kis-Gete","lat":47.7171475,"lon":18.6953889,"elevationM":283},{"id":"node:3366556269","kind":"peak","name":"Kis-Kőszikla","lat":47.7191483,"lon":18.7109179,"elevationM":212},{"id":"node:3366556271","kind":"peak","name":"Kálvária-hegy","lat":47.7171585,"lon":18.7245534,"elevationM":220},{"id":"node:3366556273","kind":"peak","name":"Körtvélyes-hegy","lat":47.6845811,"lon":18.6485206,"elevationM":237},{"id":"node:3366556276","kind":"peak","name":"Les-hegy","lat":47.7150688,"lon":18.6872486,"elevationM":null},{"id":"node:3366556277","kind":"peak","name":"Liget-hegy","lat":47.6935891,"lon":18.7349376,"elevationM":270},{"id":"node:3366556280","kind":"peak","name":"Meddőhányó","lat":47.710403,"lon":18.7255509,"elevationM":247},{"id":"node:3366556281","kind":"peak","name":"Mihály-hegy","lat":47.7008569,"lon":18.6720684,"elevationM":null},{"id":"node:3366556288","kind":"peak","name":"Nádas-domb","lat":47.6896213,"lon":18.6362586,"elevationM":null},{"id":"node:3366560594","kind":"peak","name":"Sas-hegy","lat":47.728289,"lon":18.6504819,"elevationM":null},{"id":"node:3366560596","kind":"peak","name":"Szállások","lat":47.7239315,"lon":18.673789,"elevationM":null},{"id":"node:3366560680","kind":"peak","name":"Öreg-hegy","lat":47.7276128,"lon":18.6240831,"elevationM":200},{"id":"node:3366560683","kind":"peak","name":"Öreg-kő","lat":47.7115466,"lon":18.674758,"elevationM":283},{"id":"node:3366582776","kind":"peak","name":"Kopasz-domb","lat":47.3505552,"lon":18.3017105,"elevationM":359},{"id":"node:3366582793","kind":"peak","name":"Ráró-kő","lat":47.371513,"lon":18.3095861,"elevationM":415},{"id":"node:3367012832","kind":"peak","name":"Hangitó","lat":47.5552552,"lon":18.4969951,"elevationM":298},{"id":"node:3367012833","kind":"peak","name":"Hársas","lat":47.5592424,"lon":18.5331398,"elevationM":375},{"id":"node:3367012834","kind":"peak","name":"Hársas-oldal","lat":47.5592245,"lon":18.5381151,"elevationM":370},{"id":"node:3367012855","kind":"peak","name":"Öreg-állás","lat":47.5556028,"lon":18.5354063,"elevationM":372},{"id":"node:3368925060","kind":"peak","name":"Bódis-hegy","lat":47.5394945,"lon":18.4634033,"elevationM":null},{"id":"node:3368925063","kind":"peak","name":"Hajagos","lat":47.5178292,"lon":18.5072088,"elevationM":null},{"id":"node:3368925067","kind":"peak","name":"Juhász-hegy","lat":47.5461951,"lon":18.4707907,"elevationM":null},{"id":"node:3368925069","kind":"peak","name":"Kálvária-hegy","lat":47.547124,"lon":18.4553468,"elevationM":null},{"id":"node:3368925070","kind":"peak","name":"Kő-hegy","lat":47.5340166,"lon":18.4632051,"elevationM":null},{"id":"node:3368925077","kind":"peak","name":"Szállás-hegy","lat":47.5427793,"lon":18.4787887,"elevationM":null},{"id":"node:3368925080","kind":"peak","name":"Vörös-hegy","lat":47.5644604,"lon":18.4615332,"elevationM":315},{"id":"node:3368954014","kind":"peak","name":"Hosszú-hegy","lat":47.5136553,"lon":18.4893935,"elevationM":null},{"id":"node:3368954016","kind":"peak","name":"Kereszt-hegy","lat":47.4881318,"lon":18.5191329,"elevationM":null},{"id":"node:3368954017","kind":"peak","name":"Kő-hegy","lat":47.5025505,"lon":18.4837314,"elevationM":326},{"id":"node:3368954018","kind":"peak","name":"Nagy-hegy","lat":47.501784,"lon":18.5180281,"elevationM":null},{"id":"node:3368954030","kind":"peak","name":"Őz-hegy","lat":47.4953697,"lon":18.5046509,"elevationM":null},{"id":"node:3369069404","kind":"peak","name":"Alsó-Csákány","lat":47.5159676,"lon":18.4732453,"elevationM":null},{"id":"node:3369069405","kind":"peak","name":"Körtvélyes-tető","lat":47.5121745,"lon":18.4313941,"elevationM":null},{"id":"node:3369110592","kind":"peak","name":"Hirczy-tető","lat":47.4628385,"lon":18.4551624,"elevationM":null},{"id":"node:3369110996","kind":"peak","name":"Köves-tető","lat":47.4703263,"lon":18.4462787,"elevationM":null},{"id":"node:3369110997","kind":"peak","name":"Magas-hegy","lat":47.4768081,"lon":18.4448592,"elevationM":430},{"id":"node:3369110999","kind":"peak","name":"Nagy-Széna-hegy","lat":47.478962,"lon":18.4686535,"elevationM":427},{"id":"node:3369111001","kind":"peak","name":"Tamás-hegy","lat":47.4733063,"lon":18.4524103,"elevationM":425},{"id":"node:3369150401","kind":"peak","name":"Eper-hegy","lat":47.5109926,"lon":18.3934569,"elevationM":null},{"id":"node:3369150408","kind":"peak","name":"Kő-hegy","lat":47.5187238,"lon":18.4007333,"elevationM":null},{"id":"node:3369150418","kind":"peak","name":"Zsidó-hegy","lat":47.5132755,"lon":18.4117443,"elevationM":null},{"id":"node:3369169462","kind":"peak","name":"Bödön-bükk","lat":47.5021949,"lon":18.4035116,"elevationM":null},{"id":"node:3369169466","kind":"peak","name":"Kálvária-hegy","lat":47.5077582,"lon":18.3799617,"elevationM":256},{"id":"node:3369169467","kind":"peak","name":"Köves-hegy","lat":47.5353662,"lon":18.4189317,"elevationM":null},{"id":"node:3369169469","kind":"peak","name":"Nagy-Somlyó","lat":47.5174443,"lon":18.3717486,"elevationM":315},{"id":"node:3369169479","kind":"peak","name":"Új-hegy","lat":47.5043404,"lon":18.3837287,"elevationM":null},{"id":"node:3369200181","kind":"peak","name":"Ebijesztő-tető","lat":47.4698054,"lon":18.4340698,"elevationM":null},{"id":"node:3369200182","kind":"peak","name":"Kis-Somló","lat":47.4518448,"lon":18.4585968,"elevationM":365},{"id":"node:3369200187","kind":"peak","name":"Széna-hegy","lat":47.4724851,"lon":18.4254497,"elevationM":401},{"id":"node:3370695067","kind":"peak","name":"Horvát-hegy","lat":47.476557,"lon":18.3351407,"elevationM":212},{"id":"node:3370695080","kind":"peak","name":"Majki-hegy","lat":47.5071515,"lon":18.3456826,"elevationM":null},{"id":"node:3370695081","kind":"peak","name":"Mészáros-hegy","lat":47.4690003,"lon":18.3908227,"elevationM":375},{"id":"node:3370695083","kind":"peak","name":"Róka-hegy","lat":47.5176998,"lon":18.3410164,"elevationM":null},{"id":"node:3370695085","kind":"peak","name":"Som-hegy","lat":47.4796302,"lon":18.3892124,"elevationM":302},{"id":"node:3370791302","kind":"peak","name":"Nagy-Kutya-orom","lat":47.4626618,"lon":18.4030659,"elevationM":401},{"id":"node:3370791304","kind":"peak","name":"Szőlő-hegy","lat":47.4608056,"lon":18.4286749,"elevationM":405},{"id":"node:3370791312","kind":"peak","name":"Űző-hegy","lat":47.4637366,"lon":18.3905328,"elevationM":403},{"id":"node:3370857020","kind":"peak","name":"Bagó-hegy","lat":47.4128309,"lon":18.4465704,"elevationM":null},{"id":"node:3370857028","kind":"peak","name":"Fehér tuskó","lat":47.4424472,"lon":18.455222,"elevationM":360},{"id":"node:3370857032","kind":"peak","name":"Hosszú-hegy","lat":47.4076525,"lon":18.4291081,"elevationM":335},{"id":"node:3370857036","kind":"peak","name":"Kerek-hegy","lat":47.3991052,"lon":18.439075,"elevationM":332},{"id":"node:3370857038","kind":"peak","name":"Kis-Tábor-hegy","lat":47.437608,"lon":18.4489339,"elevationM":null},{"id":"node:3370857039","kind":"peak","name":"Kopasz-hegy","lat":47.4109264,"lon":18.4371842,"elevationM":null},{"id":"node:3370857041","kind":"peak","name":"Kotló-hegy","lat":47.4236716,"lon":18.4355136,"elevationM":385},{"id":"node:3370857050","kind":"peak","name":"Nagy-Somló","lat":47.4506715,"lon":18.4506686,"elevationM":405},{"id":"node:3370857060","kind":"peak","name":"Róka-hegy","lat":47.4000863,"lon":18.4192669,"elevationM":358},{"id":"node:3370857063","kind":"peak","name":"Tábor-hegy","lat":47.4443581,"lon":18.4432372,"elevationM":450},{"id":"node:3370857066","kind":"peak","name":"Vásár-hegy","lat":47.4299922,"lon":18.418983,"elevationM":395},{"id":"node:3370872094","kind":"peak","name":"Hosszú-hegy","lat":47.4330026,"lon":18.3836448,"elevationM":324},{"id":"node:3370872101","kind":"peak","name":"Som-hegy","lat":47.4299737,"lon":18.3491595,"elevationM":385},{"id":"node:3370872103","kind":"peak","name":"Széles-hegy","lat":47.4310397,"lon":18.3740684,"elevationM":353},{"id":"node:3370872104","kind":"peak","name":"Sózó-hegy","lat":47.4316687,"lon":18.3608018,"elevationM":null},{"id":"node:3370872106","kind":"peak","name":"Égett-hegy","lat":47.4497319,"lon":18.3747412,"elevationM":325},{"id":"node:3370872107","kind":"peak","name":"Öreg-bükk","lat":47.4351848,"lon":18.3650351,"elevationM":415},{"id":"node:3372429164","kind":"peak","name":"Badacsony-hegy","lat":47.3670193,"lon":18.4236213,"elevationM":null},{"id":"node:3372429167","kind":"peak","name":"Disznó-hegy","lat":47.3563052,"lon":18.3949048,"elevationM":null},{"id":"node:3372429181","kind":"peak","name":"Nagy-hegy","lat":47.3752465,"lon":18.4295821,"elevationM":225},{"id":"node:3372429188","kind":"peak","name":"Strázsa-hegy","lat":47.3574318,"lon":18.3374029,"elevationM":null},{"id":"node:3372429191","kind":"peak","name":"Szóló-kő","lat":47.3829337,"lon":18.4364765,"elevationM":245},{"id":"node:3372430967","kind":"peak","name":"Öreg-hegy","lat":47.3469169,"lon":18.3546909,"elevationM":null},{"id":"node:3372430968","kind":"peak","name":"Öreg-hegy","lat":47.3725995,"lon":18.4235056,"elevationM":255},{"id":"node:3372486232","kind":"peak","name":"Kereszt-bükk","lat":47.425848,"lon":18.3150122,"elevationM":295},{"id":"node:3372486239","kind":"peak","name":"Kis-kőszikla","lat":47.4302774,"lon":18.3186327,"elevationM":null},{"id":"node:3372486241","kind":"peak","name":"Koporsó-hegy","lat":47.4203974,"lon":18.3077459,"elevationM":null},{"id":"node:3372486243","kind":"peak","name":"Kő-hegy","lat":47.4301145,"lon":18.3294974,"elevationM":314},{"id":"node:3372504031","kind":"peak","name":"Kopasz-hegy","lat":47.4569499,"lon":18.2836788,"elevationM":null},{"id":"node:3372555716","kind":"peak","name":"Tüskés-hegy","lat":47.4146996,"lon":18.3064401,"elevationM":null},{"id":"node:3372555717","kind":"peak","name":"Valér-csúcs","lat":47.4118314,"lon":18.2965335,"elevationM":338},{"id":"node:3372557659","kind":"peak","name":"Kis-bükk","lat":47.3664356,"lon":18.2873194,"elevationM":null},{"id":"node:3373732338","kind":"peak","name":"Szarvas-hegy","lat":47.4257686,"lon":18.3725395,"elevationM":343},{"id":"node:3373765242","kind":"peak","name":"Hajdúvár","lat":47.3941911,"lon":18.3215391,"elevationM":445},{"id":"node:3373808816","kind":"peak","name":"Sötét-vágás","lat":47.3910705,"lon":18.3320149,"elevationM":null},{"id":"node:3373826497","kind":"peak","name":"Csonka-bükk","lat":47.3867102,"lon":18.3088339,"elevationM":null},{"id":"node:3373898015","kind":"peak","name":"Kakas-domb","lat":47.3836907,"lon":18.2465417,"elevationM":null},{"id":"node:3377105079","kind":"peak","name":"Kis-Kopasz-hegy","lat":47.644451,"lon":18.8323509,"elevationM":null},{"id":"node:3377108393","kind":"peak","name":"Nagy-Somlyó","lat":47.6569271,"lon":18.8076906,"elevationM":366},{"id":"node:3383628314","kind":"peak","name":"Juhász-hegy","lat":47.6768339,"lon":18.7435937,"elevationM":null},{"id":"node:3383628316","kind":"peak","name":"Kerek-hegy","lat":47.6728851,"lon":18.7570104,"elevationM":215},{"id":"node:3383628326","kind":"peak","name":"Sátor-kő","lat":47.7201451,"lon":18.7522495,"elevationM":155},{"id":"node:3383628328","kind":"peak","name":"Tábla-hegy","lat":47.7373708,"lon":18.7639924,"elevationM":304},{"id":"node:3385268841","kind":"peak","name":"Babos-hegy","lat":47.73996,"lon":18.7910154,"elevationM":290},{"id":"node:3385268842","kind":"peak","name":"Cseresznyés-hát","lat":47.7193039,"lon":18.7896274,"elevationM":255},{"id":"node:3385268843","kind":"peak","name":"Kis-hegy","lat":47.7305513,"lon":18.8046231,"elevationM":null},{"id":"node:3385268845","kind":"peak","name":"Lencse-hegy","lat":47.7395708,"lon":18.7842056,"elevationM":null},{"id":"node:3388317949","kind":"peak","name":"Tolmács-hegy","lat":47.9111007,"lon":18.8686878,"elevationM":528},{"id":"node:3399781761","kind":"peak","name":"Pozsonyi-hegy","lat":47.5215539,"lon":18.9539779,"elevationM":427},{"id":"node:3409553013","kind":"peak","name":"Magosi-hegy","lat":47.7076501,"lon":18.8103295,"elevationM":285},{"id":"node:3409553020","kind":"peak","name":"Plesina","lat":47.7047493,"lon":18.8016988,"elevationM":null},{"id":"node:3409583230","kind":"peak","name":"Sas-hegy","lat":47.6683303,"lon":18.7675938,"elevationM":205},{"id":"node:3409583231","kind":"peak","name":"Tetős-hegy","lat":47.676492,"lon":18.8260464,"elevationM":238},{"id":"node:3412886889","kind":"peak","name":"Nyalka-bérc","lat":47.7512844,"lon":18.9280234,"elevationM":311},{"id":"node:3413523902","kind":"peak","name":"Kincses-hegy","lat":47.7757839,"lon":18.7710199,"elevationM":null},{"id":"node:3413523906","kind":"peak","name":"Szarvas-hegy","lat":47.766531,"lon":18.7873082,"elevationM":null},{"id":"node:3414880808","kind":"peak","name":"Kálvária-hegy","lat":47.7869368,"lon":18.7510692,"elevationM":null},{"id":"node:3414880810","kind":"peak","name":"Nagy-Szémon","lat":47.7860545,"lon":18.7641882,"elevationM":null},{"id":"node:3414880812","kind":"peak","name":"Szamár-hegy","lat":47.8089771,"lon":18.797971,"elevationM":307},{"id":"node:3414880813","kind":"peak","name":"Szent Tamás-hegy","lat":47.7967948,"lon":18.7409573,"elevationM":145},{"id":"node:3414880814","kind":"peak","name":"Sípoló-hegy","lat":47.792519,"lon":18.7681527,"elevationM":317},{"id":"node:3415080340","kind":"peak","name":"Bánóczi-hegy","lat":47.7836826,"lon":18.8374493,"elevationM":null},{"id":"node:3415080346","kind":"peak","name":"Hosszú-hegy","lat":47.806336,"lon":18.8203845,"elevationM":315},{"id":"node:3416597451","kind":"peak","name":"Nagy-Hábod","lat":47.7751057,"lon":18.8751917,"elevationM":289},{"id":"node:3416597454","kind":"peak","name":"Pallag-bükk","lat":47.7661546,"lon":18.8500801,"elevationM":366},{"id":"node:3416597455","kind":"peak","name":"Piroska-hegy","lat":47.7635712,"lon":18.8866157,"elevationM":null},{"id":"node:3416597484","kind":"peak","name":"Ó-hegy","lat":47.7779884,"lon":18.8426076,"elevationM":366},{"id":"node:3416597485","kind":"peak","name":"Ördög küllője","lat":47.7699557,"lon":18.8637862,"elevationM":314},{"id":"node:3416608883","kind":"peak","name":"Disznós-hegy","lat":47.7613808,"lon":18.84927,"elevationM":356},{"id":"node:3416608884","kind":"peak","name":"Hosszú-hegy","lat":47.7523226,"lon":18.8692886,"elevationM":null},{"id":"node:3416608885","kind":"peak","name":"Kis-Disznó-hegy","lat":47.7586391,"lon":18.8472349,"elevationM":null},{"id":"node:3416608888","kind":"peak","name":"Szakó-hegy","lat":47.7438839,"lon":18.8732978,"elevationM":570},{"id":"node:3416608889","kind":"peak","name":"Vörös-hegy","lat":47.7575941,"lon":18.8870369,"elevationM":395},{"id":"node:3416629927","kind":"peak","name":"Hamvas-kő","lat":47.756119,"lon":18.8299901,"elevationM":null},{"id":"node:3418231644","kind":"peak","name":"Kakas-hegy","lat":47.7073863,"lon":18.8933018,"elevationM":590},{"id":"node:3418231649","kind":"peak","name":"Magas-hegy","lat":47.6832677,"lon":18.8899079,"elevationM":410},{"id":"node:3418231669","kind":"peak","name":"Öreg-vágás","lat":47.7123057,"lon":18.9179639,"elevationM":654},{"id":"node:3418300239","kind":"peak","name":"Cukorsüveg","lat":47.7421526,"lon":18.945982,"elevationM":383},{"id":"node:3418300240","kind":"peak","name":"Disznós-hegy","lat":47.752793,"lon":18.9391997,"elevationM":null},{"id":"node:3418300249","kind":"peak","name":"Szatyor-hegy","lat":47.7487299,"lon":18.94783,"elevationM":400},{"id":"node:3418300265","kind":"peak","name":"Ágas-hegy","lat":47.74636,"lon":18.9519977,"elevationM":480},{"id":"node:3418300266","kind":"peak","name":"Öreg-Pap-hegy","lat":47.7436024,"lon":18.9750819,"elevationM":567},{"id":"node:3420450387","kind":"peak","name":"Új-hegy","lat":47.7745237,"lon":18.9811969,"elevationM":null},{"id":"node:3423615938","kind":"peak","name":"Fésű-hegy","lat":47.6718435,"lon":18.8542915,"elevationM":375},{"id":"node:3423615939","kind":"peak","name":"Nagy-Kopasz-hegy","lat":47.648679,"lon":18.8366613,"elevationM":447},{"id":"node:3423990931","kind":"peak","name":"Kopasz-hegy","lat":47.6993228,"lon":18.9191424,"elevationM":null},{"id":"node:3423990934","kind":"peak","name":"Peres","lat":47.7027328,"lon":18.9053923,"elevationM":null},{"id":"node:3424000436","kind":"peak","name":"Cseresznyés","lat":47.6451959,"lon":18.8692384,"elevationM":null},{"id":"node:3424000437","kind":"peak","name":"Fehér-hegy","lat":47.63889,"lon":18.8652459,"elevationM":385},{"id":"node:3424000438","kind":"peak","name":"Homok-hegy","lat":47.6425206,"lon":18.8559605,"elevationM":null},{"id":"node:3424000440","kind":"peak","name":"Széna-hegy","lat":47.6314057,"lon":18.8600226,"elevationM":null},{"id":"node:3424030342","kind":"peak","name":"Som-hegy","lat":47.6788431,"lon":18.9057295,"elevationM":412},{"id":"node:3424030343","kind":"peak","name":"Ziribár-hegy","lat":47.6487337,"lon":18.9297293,"elevationM":410},{"id":"node:3425535259","kind":"peak","name":"Fehér-hegy","lat":47.612057,"lon":18.963107,"elevationM":288},{"id":"node:3425535261","kind":"peak","name":"Kerekes-hegy","lat":47.6254182,"lon":18.9641825,"elevationM":316},{"id":"node:3425535270","kind":"peak","name":"Vendel-hegy","lat":47.6079086,"lon":18.9801743,"elevationM":278},{"id":"node:3426527136","kind":"peak","name":"Nacsapéreg","lat":47.847733,"lon":18.988066,"elevationM":315},{"id":"node:3427370890","kind":"peak","name":"Morgó","lat":47.6970731,"lon":18.9277076,"elevationM":null},{"id":"node:3427390787","kind":"peak","name":"Hársas-hegy","lat":47.6997454,"lon":18.9347539,"elevationM":null},{"id":"node:3427390789","kind":"peak","name":"Som-hegy","lat":47.7014157,"lon":18.9763588,"elevationM":469},{"id":"node:3427416500","kind":"peak","name":"Tornyos-hegy","lat":47.6913108,"lon":18.9440059,"elevationM":510},{"id":"node:3427525467","kind":"peak","name":"Bánya-hegy","lat":47.7386624,"lon":18.9639352,"elevationM":405},{"id":"node:3427525470","kind":"peak","name":"Kis-Pap-hegy","lat":47.7407658,"lon":18.9912621,"elevationM":null},{"id":"node:3427525471","kind":"peak","name":"Kis-Som-hegy","lat":47.7388518,"lon":18.9496961,"elevationM":364},{"id":"node:3427525476","kind":"peak","name":"Nagy-som-hegy","lat":47.7313626,"lon":18.9485285,"elevationM":473},{"id":"node:3427525483","kind":"peak","name":"Vaskapu-hegy","lat":47.747191,"lon":18.9845302,"elevationM":null},{"id":"node:3427594560","kind":"peak","name":"Szamár-hegy","lat":47.6579731,"lon":18.9786274,"elevationM":195},{"id":"node:3437652510","kind":"peak","name":"Kis-Keserűs","lat":47.7475359,"lon":18.9152652,"elevationM":490},{"id":"node:3439051095","kind":"peak","name":"Aprólépések","lat":47.9381538,"lon":18.9063587,"elevationM":665},{"id":"node:3439051107","kind":"peak","name":"Boglya-kő","lat":47.858361,"lon":18.955168,"elevationM":298},{"id":"node:3439051114","kind":"peak","name":"Bugyihó","lat":47.9877634,"lon":18.9890424,"elevationM":634},{"id":"node:3439051121","kind":"peak","name":"Cicőke","lat":47.99675,"lon":18.9636,"elevationM":525},{"id":"node:3439051132","kind":"peak","name":"Darabos-hegy","lat":47.903233,"lon":18.939517,"elevationM":568},{"id":"node:3439051134","kind":"peak","name":"Dobozi-orom","lat":47.775085,"lon":18.917987,"elevationM":315},{"id":"node:3439051156","kind":"peak","name":"Felső-Cikó-hegy","lat":47.865879,"lon":18.820103,"elevationM":360},{"id":"node:3439051170","kind":"peak","name":"Gubacsi-hálás","lat":47.8106545,"lon":18.9503701,"elevationM":360},{"id":"node:3439051174","kind":"peak","name":"Hideg-hegy","lat":47.9460384,"lon":18.9150984,"elevationM":641},{"id":"node:3439051177","kind":"peak","name":"Hosszú-bérc","lat":47.859578,"lon":18.963218,"elevationM":345},{"id":"node:3439051206","kind":"peak","name":"Jancsi-hegy","lat":47.97961,"lon":18.88769,"elevationM":586},{"id":"node:3439051227","kind":"peak","name":"Kis-Hegyes","lat":47.9190866,"lon":18.8079046,"elevationM":303},{"id":"node:3439051241","kind":"peak","name":"Korom-bérc","lat":47.924302,"lon":18.914102,"elevationM":805},{"id":"node:3439051325","kind":"peak","name":"Só-hegy","lat":47.825024,"lon":18.969021,"elevationM":253},{"id":"node:3439051368","kind":"peak","name":"Vár-bérc","lat":47.95993,"lon":18.8788,"elevationM":715},{"id":"node:3439051380","kind":"peak","name":"Zálog-bérc","lat":47.9242002,"lon":18.8896378,"elevationM":530},{"id":"node:3439051421","kind":"peak","name":"Nagy-Morgó","lat":47.839279,"lon":18.985062,"elevationM":365},{"id":"node:3439051473","kind":"peak","name":"Rigó-hegy","lat":47.774915,"lon":18.939312,"elevationM":294},{"id":"node:3439051486","kind":"peak","name":"Szent Mihály-hegy","lat":47.77611,"lon":18.92781,"elevationM":484},{"id":"node:3439052069","kind":"peak","name":"Vadálló","lat":47.960462,"lon":18.920229,"elevationM":613},{"id":"node:3439052223","kind":"peak","name":"Égés-tető","lat":47.937425,"lon":18.93584,"elevationM":833},{"id":"node:3439052229","kind":"peak","name":"Ördög-hegy","lat":47.771095,"lon":18.92946,"elevationM":300},{"id":"node:3441690543","kind":"peak","name":"Dobos-hegy","lat":47.75933,"lon":18.951881,"elevationM":175},{"id":"node:3441690552","kind":"peak","name":"Garancs","lat":47.637332,"lon":18.933375,"elevationM":288},{"id":"node:3441705133","kind":"peak","name":"Sikáros","lat":47.705708,"lon":18.949296,"elevationM":362},{"id":"node:3454414979","kind":"peak","name":"Szent János-hegy","lat":47.6675,"lon":18.610833,"elevationM":225},{"id":"node:3454414986","kind":"peak","name":"Szirtes-tető","lat":47.6601,"lon":18.841933,"elevationM":439},{"id":"node:3454422340","kind":"peak","name":"Dobogó","lat":47.78756,"lon":18.81368,"elevationM":387},{"id":"node:3454422359","kind":"peak","name":"Felső-Égett-hegy","lat":47.672283,"lon":18.737317,"elevationM":232},{"id":"node:3454423009","kind":"peak","name":"Kis-Eménkes","lat":47.7075,"lon":18.515,"elevationM":501},{"id":"node:3454423031","kind":"peak","name":"Látó-hegy","lat":47.7177431,"lon":18.5906898,"elevationM":225},{"id":"node:3454423033","kind":"peak","name":"Magas-hegy","lat":47.725101,"lon":18.903811,"elevationM":566},{"id":"node:3454423034","kind":"peak","name":"Magos-hegy","lat":47.689167,"lon":18.705,"elevationM":304},{"id":"node:3454423073","kind":"peak","name":"Pollus-hegy","lat":47.692817,"lon":18.72345,"elevationM":275},{"id":"node:3454423074","kind":"peak","name":"Poszogó-hegy","lat":47.756583,"lon":18.91855,"elevationM":263},{"id":"node:3454423083","kind":"peak","name":"Rórekker","lat":47.692483,"lon":18.747833,"elevationM":174},{"id":"node:3454423894","kind":"peak","name":"Száraz-hegy","lat":47.664917,"lon":18.750833,"elevationM":265},{"id":"node:3454423896","kind":"peak","name":"Sáros-Bükk","lat":47.73004,"lon":18.8913389,"elevationM":530},{"id":"node:3454423911","kind":"peak","name":"Tűz-hegy","lat":47.669717,"lon":18.749967,"elevationM":265},{"id":"node:3454423921","kind":"peak","name":"Vasarc","lat":47.7996967,"lon":18.8228132,"elevationM":340},{"id":"node:3454424629","kind":"peak","name":"Szépkilátás","lat":47.6861207,"lon":18.524095,"elevationM":351},{"id":"node:3454424669","kind":"peak","name":"Kecske-kő","lat":47.701667,"lon":18.529167,"elevationM":418},{"id":"node:3454425544","kind":"peak","name":"Nyagda-tető","lat":47.725833,"lon":18.486667,"elevationM":323},{"id":"node:3454425983","kind":"peak","name":"Öreg-Nyulas","lat":47.6075,"lon":18.610833,"elevationM":255},{"id":"node:3454425984","kind":"peak","name":"Öreg-hegy","lat":47.624917,"lon":18.715639,"elevationM":195},{"id":"node:3454542403","kind":"peak","name":"Kis-Csík-hegy","lat":47.463767,"lon":18.914833,"elevationM":252},{"id":"node:3454542596","kind":"peak","name":"Zajnát-tető","lat":47.6029343,"lon":18.8094366,"elevationM":384},{"id":"node:3454559801","kind":"peak","name":"Nagy-Bükk","lat":47.393333,"lon":18.290833,"elevationM":475},{"id":"node:3456335652","kind":"peak","name":"Varsa-tető","lat":47.951857,"lon":18.957262,"elevationM":873},{"id":"node:3456392064","kind":"peak","name":"Hollófészek","lat":47.959482,"lon":18.993863,"elevationM":661},{"id":"node:3456392070","kind":"peak","name":"Három-hárs","lat":47.939937,"lon":18.962166,"elevationM":781},{"id":"node:3456392127","kind":"peak","name":"Málna-hegy","lat":47.956355,"lon":18.978772,"elevationM":769},{"id":"node:3456392155","kind":"peak","name":"Pogányvár","lat":47.9567127,"lon":18.96253,"elevationM":823},{"id":"node:3456392567","kind":"peak","name":"Dobogó-bérc","lat":47.96865,"lon":18.97785,"elevationM":640},{"id":"node:3459826704","kind":"peak","name":"Kakukk-domb","lat":47.148091,"lon":18.286063,"elevationM":null},{"id":"node:3459827093","kind":"peak","name":"Varga-hegy","lat":47.263037,"lon":18.506477,"elevationM":143},{"id":"node:3461930428","kind":"peak","name":"Bolha-hegy","lat":47.6317,"lon":18.782633,"elevationM":263},{"id":"node:3461930450","kind":"peak","name":"Felső-Somlyó","lat":47.660983,"lon":18.78975,"elevationM":278},{"id":"node:3461930472","kind":"peak","name":"Kis-Kerék-hegy","lat":47.651483,"lon":18.779367,"elevationM":195},{"id":"node:3461930479","kind":"peak","name":"Kutya-hegy","lat":47.61415,"lon":18.79375,"elevationM":315},{"id":"node:3461930506","kind":"peak","name":"Nagy-Kerék-hegy","lat":47.64465,"lon":18.778133,"elevationM":225},{"id":"node:3461930569","kind":"peak","name":"Vörös-hegy","lat":47.619,"lon":18.85605,"elevationM":314},{"id":"node:3468026201","kind":"peak","name":"Herkályos-hegy","lat":47.586667,"lon":18.470833,"elevationM":305},{"id":"node:3468026363","kind":"peak","name":"Kakukk-hegy","lat":47.5883026,"lon":18.6744413,"elevationM":319},{"id":"node:3470010730","kind":"peak","name":"Mogyorós-hegy","lat":47.101327,"lon":18.027282,"elevationM":251},{"id":"node:3470078673","kind":"peak","name":"Köpite-hegy","lat":47.712281,"lon":18.336287,"elevationM":292},{"id":"node:3471746485","kind":"peak","name":"Közép-berek","lat":47.251667,"lon":18.12,"elevationM":445},{"id":"node:3471757508","kind":"peak","name":"Téses-tető","lat":47.226667,"lon":18.054167,"elevationM":475},{"id":"node:3471757509","kind":"peak","name":"Tési-Rakató","lat":47.242917,"lon":18.074167,"elevationM":475},{"id":"node:3471757510","kind":"peak","name":"Vágó-hegy","lat":47.254167,"lon":18.09375,"elevationM":435},{"id":"node:3474931925","kind":"peak","name":"Som-hegy","lat":47.295427,"lon":18.167563,"elevationM":346},{"id":"node:3474931941","kind":"peak","name":"Sár-berek","lat":47.259167,"lon":18.130833,"elevationM":439},{"id":"node:3474937888","kind":"peak","name":"Antal-hegy","lat":47.390833,"lon":18.238333,"elevationM":385},{"id":"node:3474939116","kind":"peak","name":"Hárs-hegy","lat":47.278333,"lon":18.097083,"elevationM":445},{"id":"node:3474939125","kind":"peak","name":"Kecske-hegy","lat":47.372974,"lon":18.223975,"elevationM":null},{"id":"node:3474939131","kind":"peak","name":"Kopasz-hegy","lat":47.350971,"lon":18.306496,"elevationM":333},{"id":"node:3474939154","kind":"peak","name":"Márkus-hegy","lat":47.411667,"lon":18.236667,"elevationM":242},{"id":"node:3474948899","kind":"peak","name":"Haraszt-hegy","lat":47.401636,"lon":18.429244,"elevationM":346},{"id":"node:3474948922","kind":"peak","name":"Malac-hegy","lat":47.4086,"lon":18.4571,"elevationM":170},{"id":"node:3474948925","kind":"peak","name":"Nagy-Bükk","lat":47.4375,"lon":18.431667,"elevationM":445},{"id":"node:3474949659","kind":"peak","name":"Ökör-állás","lat":47.410833,"lon":18.433333,"elevationM":331},{"id":"node:3485134529","kind":"peak","name":"Gádé-hegy","lat":47.2456,"lon":18.581983,"elevationM":243},{"id":"node:3487700670","kind":"peak","name":"Dohogó-hegy","lat":47.494333,"lon":18.219361,"elevationM":258},{"id":"node:3487700679","kind":"peak","name":"Kanász-hegy","lat":47.467322,"lon":18.281701,"elevationM":244},{"id":"node:3487700680","kind":"peak","name":"Kanász-hegy","lat":47.51108,"lon":18.21662,"elevationM":235},{"id":"node:3487700801","kind":"peak","name":"Sámolyi-Bükk","lat":47.426667,"lon":18.3525,"elevationM":425},{"id":"node:3495756424","kind":"peak","name":"Kálvária-hegy","lat":47.6244829,"lon":18.8934351,"elevationM":240},{"id":"node:3665009800","kind":"peak","name":"Csurgó-hegy","lat":47.5936578,"lon":18.5101163,"elevationM":295},{"id":"node:3665009801","kind":"peak","name":"Hallgató","lat":47.571627,"lon":18.4801946,"elevationM":235},{"id":"node:3665009802","kind":"peak","name":"Kő Galla","lat":47.5891095,"lon":18.4657296,"elevationM":207},{"id":"node:3665151475","kind":"peak","name":"János-hegy","lat":47.6374831,"lon":18.4431156,"elevationM":null},{"id":"node:3665151477","kind":"peak","name":"Reim-hegy","lat":47.6448246,"lon":18.394381,"elevationM":389},{"id":"node:3681007850","kind":"peak","name":"Bocska-hegy","lat":47.6776957,"lon":18.3680963,"elevationM":215},{"id":"node:3681007860","kind":"peak","name":"Tűzkő-hegy","lat":47.6832156,"lon":18.3856866,"elevationM":255},{"id":"node:3681260287","kind":"peak","name":"Szénégető","lat":47.7163991,"lon":18.5403454,"elevationM":256},{"id":"node:3681317084","kind":"peak","name":"Látó-hegy","lat":47.7195387,"lon":18.6045133,"elevationM":264},{"id":"node:3682863704","kind":"peak","name":"Alsó-Körtvélyes","lat":47.8099197,"lon":18.9349493,"elevationM":270},{"id":"node:3682863707","kind":"peak","name":"Fehér-hegy","lat":47.8010968,"lon":18.9449361,"elevationM":290},{"id":"node:3682863709","kind":"peak","name":"Nagy-Kerek-hegy","lat":47.8009259,"lon":18.9215681,"elevationM":250},{"id":"node:3682863712","kind":"peak","name":"Malom-hegy","lat":47.8160739,"lon":18.9059689,"elevationM":229},{"id":"node:3682897865","kind":"peak","name":"Közép-hegy","lat":47.7995167,"lon":18.8376856,"elevationM":297},{"id":"node:3682897873","kind":"peak","name":"Őrhegy","lat":47.7963313,"lon":18.825071,"elevationM":314},{"id":"node:3704698445","kind":"peak","name":"Somlyó-hegy","lat":47.0291157,"lon":18.2295576,"elevationM":null},{"id":"node:3704698446","kind":"peak","name":"Szarka-hegy","lat":47.0434992,"lon":18.2129163,"elevationM":null},{"id":"node:3704734002","kind":"peak","name":"Kő-hegy","lat":47.0668423,"lon":18.2515948,"elevationM":null},{"id":"node:3704734009","kind":"peak","name":"Somlyó","lat":47.0896771,"lon":18.3170331,"elevationM":205},{"id":"node:3704734011","kind":"peak","name":"Szár-hegy","lat":47.0979727,"lon":18.328037,"elevationM":225},{"id":"node:3763035986","kind":"peak","name":"Csurgó-hegy","lat":47.733068,"lon":18.7733765,"elevationM":null},{"id":"node:3763035992","kind":"peak","name":"Suller-hegy","lat":47.7336775,"lon":18.8488734,"elevationM":null},{"id":"node:3781212979","kind":"peak","name":"Tamásvár-bérc","lat":47.9767162,"lon":18.9319946,"elevationM":null},{"id":"node:3782033921","kind":"peak","name":"Hegyes-hegy-orom","lat":47.926811,"lon":18.863968,"elevationM":571},{"id":"node:3786055901","kind":"peak","name":"Szidónia-hegy","lat":47.4054869,"lon":18.9314626,"elevationM":172},{"id":"node:3800524048","kind":"peak","name":"Kiengesztelődés hegye","lat":47.867737,"lon":18.8958926,"elevationM":352},{"id":"node:3800524693","kind":"peak","name":"Gál-hegy","lat":47.8404144,"lon":18.9763961,"elevationM":377},{"id":"node:3884633221","kind":"peak","name":"Veľký kopec","lat":47.9963344,"lon":18.2696349,"elevationM":null},{"id":"node:3919349724","kind":"peak","name":"Nagy-hegy","lat":47.719167,"lon":18.334167,"elevationM":280},{"id":"node:3919349750","kind":"peak","name":"Akasztó-hegy","lat":47.726667,"lon":18.345833,"elevationM":220},{"id":"node:3984346339","kind":"peak","name":"Magaslat","lat":47.9105243,"lon":18.8986877,"elevationM":526},{"id":"node:3984346340","kind":"peak","name":"Magaslat","lat":47.9171124,"lon":18.8549939,"elevationM":490},{"id":"node:3984346341","kind":"peak","name":"Nagy-János-tető","lat":47.9213978,"lon":18.9011219,"elevationM":572},{"id":"node:3984346343","kind":"peak","name":"Száraz-fa-bérc","lat":47.9226653,"lon":18.879034,"elevationM":533},{"id":"node:3984346344","kind":"peak","name":"Széna-hegy","lat":47.916543,"lon":18.8924171,"elevationM":498},{"id":"node:3999120799","kind":"peak","name":"Delelő-domb","lat":47.6497758,"lon":18.9877118,"elevationM":196},{"id":"node:4011598841","kind":"peak","name":"Bašov kopec","lat":47.7774826,"lon":18.3237238,"elevationM":140},{"id":"node:4011598843","kind":"peak","name":"Burdov","lat":47.8363175,"lon":18.7848997,"elevationM":388},{"id":"node:4011598845","kind":"peak","name":"Drieňová hora","lat":47.8523754,"lon":18.4870937,"elevationM":203},{"id":"node:4011598846","kind":"peak","name":"Drozdí vrch","lat":47.9198277,"lon":18.7264385,"elevationM":217},{"id":"node:4011598850","kind":"peak","name":"Kamence","lat":47.8738811,"lon":18.7044061,"elevationM":276},{"id":"node:4051259073","kind":"peak","name":"Hármashatár","lat":47.7259315,"lon":18.945992,"elevationM":553},{"id":"node:4051259075","kind":"peak","name":"Nyesett-bérc","lat":47.7261683,"lon":18.9519097,"elevationM":506},{"id":"node:4051259078","kind":"peak","name":"Tövises-hegy","lat":47.7260502,"lon":18.9634704,"elevationM":510},{"id":"node:4160870167","kind":"peak","name":"Péti-hegy","lat":47.1561279,"lon":18.100481,"elevationM":205},{"id":"node:4240734241","kind":"peak","name":"Új-hegy","lat":47.2501465,"lon":18.6082231,"elevationM":241},{"id":"node:4362385821","kind":"peak","name":"Szőke-hegy","lat":47.4221784,"lon":18.2031074,"elevationM":282},{"id":"node:4433232153","kind":"peak","name":"Csucsos-hegy","lat":47.7074857,"lon":18.3256166,"elevationM":280},{"id":"node:4433232154","kind":"peak","name":"Korma-hegy","lat":47.7180677,"lon":18.3606449,"elevationM":300},{"id":"node:4433232155","kind":"peak","name":"Magaskő-hegy","lat":47.7105102,"lon":18.3509077,"elevationM":307},{"id":"node:4433232156","kind":"peak","name":"Vörös-kő","lat":47.7240662,"lon":18.3336215,"elevationM":260},{"id":"node:4458956989","kind":"peak","name":"Plešivec","lat":47.832462,"lon":18.781907,"elevationM":396},{"id":"node:4460833828","kind":"peak","name":"Csíkmák-hegy","lat":47.226207,"lon":18.5478028,"elevationM":null},{"id":"node:4491554864","kind":"peak","name":"Holica","lat":47.8588872,"lon":18.2690317,"elevationM":182},{"id":"node:4585188160","kind":"peak","name":"Kapu-hegy","lat":47.8098009,"lon":18.9541339,"elevationM":null},{"id":"node:4728731702","kind":"peak","name":"Nadapi ősmasszívum","lat":47.2557212,"lon":18.6191965,"elevationM":185},{"id":"node:4728864518","kind":"peak","name":"Kálvária domb","lat":47.639589,"lon":18.315555,"elevationM":166},{"id":"node:4759441233","kind":"peak","name":"Sárkánydomb","lat":47.2256053,"lon":18.5213744,"elevationM":212},{"id":"node:4837722387","kind":"peak","name":"Boki","lat":47.7033357,"lon":18.7952398,"elevationM":null},{"id":"node:4893685518","kind":"peak","name":"Saj-kút bérc","lat":47.9288271,"lon":18.9743274,"elevationM":630},{"id":"node:4941337573","kind":"peak","name":"Rózsa-hegy","lat":47.93709,"lon":18.8993168,"elevationM":670},{"id":"node:4946531429","kind":"peak","name":"Kóspallagi kálvária","lat":47.8852134,"lon":18.9273909,"elevationM":352},{"id":"node:4959619597","kind":"peak","name":"Sváb-hegy","lat":47.5005184,"lon":18.9733166,"elevationM":480},{"id":"node:5041671511","kind":"peak","name":"Gereblyés-hegy","lat":47.7168649,"lon":18.974719,"elevationM":424},{"id":"node:5041671512","kind":"peak","name":"Szeles-hegy","lat":47.714656,"lon":18.9725089,"elevationM":413},{"id":"node:5041671514","kind":"peak","name":"Solymos","lat":47.695812,"lon":18.9780664,"elevationM":501},{"id":"node:5143730238","kind":"peak","name":"Polák-hegy","lat":47.2423931,"lon":18.5648668,"elevationM":200},{"id":"node:5285431629","kind":"peak","name":"Várhegy","lat":47.7937966,"lon":18.9808239,"elevationM":328},{"id":"node:5285431630","kind":"peak","name":"Sibrik-domb","lat":47.7983424,"lon":18.9802677,"elevationM":176},{"id":"node:5323774193","kind":"peak","name":"Remete-hegy","lat":47.7788007,"lon":18.9436403,"elevationM":null},{"id":"node:5387460647","kind":"peak","name":"Kis-Hábod-hegy","lat":47.7819042,"lon":18.8785805,"elevationM":152},{"id":"node:5657425478","kind":"peak","name":"Postriežka","lat":47.8389344,"lon":18.2913014,"elevationM":null},{"id":"node:5657427781","kind":"peak","name":"Ploská hora","lat":47.8594903,"lon":18.7545851,"elevationM":null},{"id":"node:5657427953","kind":"peak","name":"Chrbát","lat":47.8561593,"lon":18.3591679,"elevationM":271},{"id":"node:5657427965","kind":"peak","name":"Kostolec","lat":47.98194,"lon":18.215448,"elevationM":119},{"id":"node:5657428181","kind":"peak","name":"Kalvária","lat":47.9983291,"lon":18.1079262,"elevationM":115},{"id":"node:5657428198","kind":"peak","name":"Strážny kopec","lat":47.9118962,"lon":18.6049028,"elevationM":null},{"id":"node:5657428419","kind":"peak","name":"Starý vrch","lat":47.8013088,"lon":18.4279308,"elevationM":null},{"id":"node:5657428549","kind":"peak","name":"Cinkot","lat":47.7660846,"lon":18.3018034,"elevationM":null},{"id":"node:5657428565","kind":"peak","name":"Stará hora","lat":47.8671653,"lon":18.2913958,"elevationM":null},{"id":"node:5657428627","kind":"peak","name":"Strážna hora","lat":47.915985,"lon":18.7247749,"elevationM":null},{"id":"node:5657428720","kind":"peak","name":"Veľký vrch","lat":47.8243056,"lon":18.6267886,"elevationM":null},{"id":"node:5657428721","kind":"peak","name":"Hrabina","lat":47.9538414,"lon":18.4337012,"elevationM":null},{"id":"node:5657428722","kind":"peak","name":"Pustá hora","lat":47.9856503,"lon":18.7182922,"elevationM":null},{"id":"node:5657430157","kind":"peak","name":"Jablonec","lat":47.9276529,"lon":18.4781229,"elevationM":null},{"id":"node:5657430179","kind":"peak","name":"Turecký násyp","lat":47.9783962,"lon":18.3125851,"elevationM":null},{"id":"node:5657431044","kind":"peak","name":"Horný vrch","lat":47.9935616,"lon":18.7150772,"elevationM":2345},{"id":"node:5657431872","kind":"peak","name":"Kráľova hora","lat":47.8386082,"lon":18.7619036,"elevationM":375},{"id":"node:5657435310","kind":"peak","name":"Kaní vrch","lat":47.895067,"lon":18.4836441,"elevationM":null},{"id":"node:5657435317","kind":"peak","name":"Šibeničná hora","lat":47.8370831,"lon":18.4111557,"elevationM":null},{"id":"node:5657435324","kind":"peak","name":"Dubník","lat":47.8228941,"lon":18.5959552,"elevationM":null},{"id":"node:5657435336","kind":"peak","name":"Rozkošné","lat":47.9493864,"lon":18.3503046,"elevationM":null},{"id":"node:5657435338","kind":"peak","name":"Čierna hora","lat":47.8357726,"lon":18.7304001,"elevationM":215},{"id":"node:5657435342","kind":"peak","name":"Stará hora","lat":47.9722485,"lon":18.481601,"elevationM":null},{"id":"node:5657435363","kind":"peak","name":"Starý vrch","lat":47.9334404,"lon":18.4307389,"elevationM":null},{"id":"node:5657435395","kind":"peak","name":"Bôbovec","lat":47.9377772,"lon":18.7124206,"elevationM":null},{"id":"node:5657435577","kind":"peak","name":"Ženská hora","lat":47.9855297,"lon":18.477993,"elevationM":null},{"id":"node:5714947095","kind":"peak","name":"Sor-hegy","lat":47.2550349,"lon":18.5819511,"elevationM":282},{"id":"node:5715067052","kind":"peak","name":"Géczi-hegy","lat":47.249782,"lon":18.6008754,"elevationM":235},{"id":"node:5715730084","kind":"peak","name":"Csúcsos-hegy","lat":47.2429503,"lon":18.5714221,"elevationM":221},{"id":"node:5715957009","kind":"peak","name":"Körös-hegy","lat":47.165136,"lon":18.0399692,"elevationM":230},{"id":"node:5740578821","kind":"peak","name":"Várhegy","lat":47.6822935,"lon":18.7487766,"elevationM":null},{"id":"node:5744123386","kind":"peak","name":"Szomodor-hegy","lat":47.6262434,"lon":18.7221891,"elevationM":230},{"id":"node:5805322637","kind":"peak","name":"Vad-tető","lat":47.9708183,"lon":18.8904226,"elevationM":554},{"id":"node:5916176219","kind":"peak","name":"Grébics-hegy","lat":47.6587851,"lon":18.2580221,"elevationM":195},{"id":"node:5955306642","kind":"peak","name":"Sárkányosdomb","lat":47.8094667,"lon":18.9113748,"elevationM":220},{"id":"node:6126136417","kind":"peak","name":"Kálvária-domb","lat":47.4428938,"lon":18.7477224,"elevationM":null},{"id":"node:6239187123","kind":"peak","name":"Jász-hegy üstöke","lat":47.7343014,"lon":18.8826013,"elevationM":550},{"id":"node:6257600874","kind":"peak","name":"Klanác","lat":47.6755598,"lon":18.9672518,"elevationM":415},{"id":"node:6261944325","kind":"peak","name":"Kalin-hegy","lat":47.739587,"lon":18.3942006,"elevationM":150},{"id":"node:6343776684","kind":"peak","name":"Maróti-kő","lat":47.688973,"lon":18.5235468,"elevationM":383},{"id":"node:6373058022","kind":"peak","name":"Nagy-Teke-hegy","lat":47.7022908,"lon":18.4374625,"elevationM":356},{"id":"node:6373543844","kind":"peak","name":"Közép-Galla","lat":47.8759293,"lon":18.8246877,"elevationM":475},{"id":"node:6418802175","kind":"peak","name":"Bors-hegy","lat":47.6896557,"lon":18.4210461,"elevationM":389},{"id":"node:6420383782","kind":"peak","name":"Kerek-Dobó","lat":47.6866266,"lon":18.4128485,"elevationM":441},{"id":"node:6536837152","kind":"peak","name":"PG gyakorló terep","lat":47.6226784,"lon":18.6945972,"elevationM":240},{"id":"node:6567511825","kind":"peak","name":"Asszony-hegy","lat":47.7149933,"lon":18.42939,"elevationM":374},{"id":"node:6603318415","kind":"peak","name":"Nagy-rét tető","lat":47.2387366,"lon":18.0509877,"elevationM":517},{"id":"node:6605172157","kind":"peak","name":"Köves-domb","lat":47.2729325,"lon":18.0795371,"elevationM":479},{"id":"node:6629900859","kind":"peak","name":"Köves-bérc","lat":47.5976944,"lon":18.9903795,"elevationM":275},{"id":"node:6638921537","kind":"peak","name":"Antal-domb","lat":47.3121204,"lon":18.5417891,"elevationM":null},{"id":"node:6638921538","kind":"peak","name":"Rózsa-domb","lat":47.3123423,"lon":18.5426527,"elevationM":null},{"id":"node:6720774692","kind":"peak","name":"Mogyorósbérc alappont","lat":47.9781274,"lon":18.9422331,"elevationM":624},{"id":"node:6720849146","kind":"peak","name":"Zöldbükk","lat":47.9959492,"lon":18.9312779,"elevationM":470},{"id":"node:6721377324","kind":"peak","name":"Cseres-bérc","lat":47.9074644,"lon":18.8830197,"elevationM":450},{"id":"node:6721377326","kind":"peak","name":"Bizmet","lat":47.9164841,"lon":18.8382321,"elevationM":465},{"id":"node:6721480768","kind":"peak","name":"Kuruc-bérc","lat":47.9557173,"lon":18.9031041,"elevationM":540},{"id":"node:6721480769","kind":"peak","name":"Halyagos","lat":47.9600731,"lon":18.910228,"elevationM":null},{"id":"node:6721912622","kind":"peak","name":"Rustok-hegy","lat":47.9344754,"lon":18.8621092,"elevationM":482},{"id":"node:6721914204","kind":"peak","name":"Vaskapu","lat":47.8714567,"lon":18.9111506,"elevationM":355},{"id":"node:6721926087","kind":"peak","name":"Sas-hegy","lat":47.8858196,"lon":18.8180029,"elevationM":405},{"id":"node:6738453564","kind":"peak","name":"Szürke-hegy","lat":47.7718898,"lon":18.9353657,"elevationM":240},{"id":"node:6738453571","kind":"peak","name":"Sváb-hegy","lat":47.783649,"lon":18.9422053,"elevationM":347},{"id":"node:6738621558","kind":"peak","name":"Kis-Kerek-hegy","lat":47.8041043,"lon":18.9307523,"elevationM":240},{"id":"node:6738621563","kind":"peak","name":"Lóczi pihenő","lat":47.793074,"lon":18.9257204,"elevationM":360},{"id":"node:6777234989","kind":"peak","name":"Nagy-Inóc","lat":47.9219495,"lon":18.9147261,"elevationM":826},{"id":"node:6778866931","kind":"peak","name":"Keselyűs-orom","lat":47.8985188,"lon":18.8939363,"elevationM":545},{"id":"node:6814354719","kind":"peak","name":"Lopona-fő","lat":47.9950116,"lon":18.9705984,"elevationM":null},{"id":"node:6935990565","kind":"peak","name":"János-hegy","lat":47.2996655,"lon":18.5774651,"elevationM":232},{"id":"node:6951002364","kind":"peak","name":"Kerek-hegy","lat":47.843853,"lon":18.8574099,"elevationM":241},{"id":"node:7074215806","kind":"peak","name":"Nagy-Hrabina","lat":47.6284921,"lon":18.8048011,"elevationM":275},{"id":"node:7074215807","kind":"peak","name":"Garancs","lat":47.6168243,"lon":18.810997,"elevationM":325},{"id":"node:7103283050","kind":"peak","name":"Magaslat","lat":47.5020024,"lon":18.9460256,"elevationM":375},{"id":"node:7620922241","kind":"peak","name":"Bükk-hegy","lat":47.2816217,"lon":18.1176133,"elevationM":407},{"id":"node:7652376906","kind":"peak","name":"Nagy-tiszta","lat":47.4458451,"lon":18.3627731,"elevationM":415},{"id":"node:7667256452","kind":"peak","name":"István-bérc","lat":47.928996,"lon":18.898775,"elevationM":607},{"id":"node:7673190494","kind":"peak","name":"Homok-bérc","lat":47.9110998,"lon":18.8931477,"elevationM":485},{"id":"node:7673190518","kind":"peak","name":"Közép-hegy","lat":47.8725974,"lon":18.8901329,"elevationM":425},{"id":"node:7684387869","kind":"peak","name":"Zsidókalap","lat":47.720938,"lon":18.4429224,"elevationM":226},{"id":"node:7702770355","kind":"peak","name":"Három-mező-tető","lat":47.715284,"lon":18.8831591,"elevationM":690},{"id":"node:7822457497","kind":"peak","name":"Szőlő-hegy","lat":47.8731659,"lon":18.8756865,"elevationM":356},{"id":"node:7822500189","kind":"peak","name":"Köves-hegy","lat":47.8402669,"lon":18.9147341,"elevationM":256},{"id":"node:7822544013","kind":"peak","name":"Köves-hegy","lat":47.8261074,"lon":18.9068484,"elevationM":195},{"id":"node:7822690105","kind":"peak","name":"Varjúvár","lat":47.8185652,"lon":18.9248836,"elevationM":210},{"id":"node:7823406960","kind":"peak","name":"Lengyel-rétek","lat":47.8840317,"lon":18.8855195,"elevationM":455},{"id":"node:7866495914","kind":"peak","name":"Szalánka","lat":47.4363029,"lon":18.6291486,"elevationM":235},{"id":"node:7866495926","kind":"peak","name":"Réz-hegy","lat":47.4346156,"lon":18.6128515,"elevationM":215},{"id":"node:7866495927","kind":"peak","name":"Réz-hegy","lat":47.4284901,"lon":18.6187363,"elevationM":210},{"id":"node:7955907412","kind":"peak","name":"Csőszhegy","lat":47.7208631,"lon":18.1459995,"elevationM":125},{"id":"node:8015470466","kind":"peak","name":"Kis-Szállás-hegy","lat":47.4874928,"lon":18.4727984,"elevationM":null},{"id":"node:8015475844","kind":"peak","name":"Sózó-hegy","lat":47.5011664,"lon":18.4722717,"elevationM":456},{"id":"node:8015491813","kind":"peak","name":"Kerek-hegy","lat":47.4750447,"lon":18.4816663,"elevationM":289},