{"tileKey":"la_p20_lo_p33","version":"v1-1775891056926","entries":[{"id":"node:7731288849","kind":"peak","name":"Jabal Musaai","lat":20.183333,"lon":33.75,"elevationM":null},{"id":"node:7731288855","kind":"peak","name":"Jabal Ma‘āqil","lat":20.083333,"lon":33.616667,"elevationM":null},{"id":"node:7731290162","kind":"peak","name":"Jabal Selimtator","lat":20.016667,"lon":33,"elevationM":null},{"id":"node:7731290168","kind":"peak","name":"Jabal Khelelat","lat":20.016667,"lon":33.133333,"elevationM":null},{"id":"node:7731292406","kind":"peak","name":"Jabal Omud","lat":20.1,"lon":33.95,"elevationM":null},{"id":"node:7731292411","kind":"peak","name":"Jabal Hawa Ganayet","lat":20.234167,"lon":33.914722,"elevationM":null},{"id":"node:7731292428","kind":"peak","name":"Jabal Hekwal Libab","lat":20.200556,"lon":33.613333,"elevationM":null},{"id":"node:7731293964","kind":"peak","name":"Jabal Bailateb","lat":20.933333,"lon":33.433333,"elevationM":null},{"id":"node:7731311964","kind":"peak","name":"Jabal Lakak Imām","lat":20.795556,"lon":33.465278,"elevationM":null},{"id":"node:7731312128","kind":"peak","name":"Haşb al Ḩişān","lat":20.578611,"lon":33.255,"elevationM":null},{"id":"node:7731312129","kind":"peak","name":"Jabal Abū Siha","lat":20.621667,"lon":33.062222,"elevationM":null}]}