{"tileKey":"la_p40_lo_p41","version":"v1-1775891056926","entries":[{"id":"node:320969687","kind":"peak","name":"Kaçkar Dağı","lat":40.8354708,"lon":41.1613152,"elevationM":3931},{"id":"node:332172064","kind":"peak","name":"Güngörmez Dağı","lat":40.822902,"lon":41.376365,"elevationM":3523},{"id":"node:332176178","kind":"peak","name":"Karadağ","lat":40.7674106,"lon":41.6142877,"elevationM":2399},{"id":"node:347327814","kind":"peak","name":"Mescit Tepe","lat":40.0996855,"lon":41.5091228,"elevationM":3239},{"id":"node:347349202","kind":"peak","name":"Köknarkesiği Tepesi","lat":40.8207526,"lon":41.7053982,"elevationM":1826},{"id":"node:847525181","kind":"peak","name":"Mescit Dağı","lat":40.3703975,"lon":41.187364,"elevationM":3239},{"id":"node:1410857893","kind":"peak","name":"Altıparmak Dağı","lat":40.9612136,"lon":41.2387795,"elevationM":3492},{"id":"node:1415758608","kind":"peak","name":"Pokut Dağı","lat":40.9633768,"lon":41.0288257,"elevationM":2100},{"id":"node:1493179283","kind":"peak","name":"Kavak Dağı","lat":40.112136,"lon":41.0822841,"elevationM":2844},{"id":"node:1493179347","kind":"peak","name":"Solak Dağı","lat":40.1731434,"lon":41.1269812,"elevationM":2843},{"id":"node:1493179400","kind":"peak","name":"Ziyaret Dağı","lat":40.1852802,"lon":41.0044947,"elevationM":2637},{"id":"node:1493179911","kind":"peak","name":"Çoban Dağı","lat":40.180252,"lon":41.0223405,"elevationM":2639},{"id":"node:1833797469","kind":"peak","name":"Çamlıyurt Tepesi","lat":40.1519448,"lon":41.5509423,"elevationM":3145},{"id":"node:1834205932","kind":"peak","name":"Açık Tepe","lat":40.15905,"lon":41.707115,"elevationM":2555},{"id":"node:1834206781","kind":"peak","name":"Çamurluyurt Tepesi","lat":40.1889714,"lon":41.5939759,"elevationM":2921},{"id":"node:1851529331","kind":"peak","name":"Alibabagüneyi Sırtı","lat":40.023212,"lon":41.476273,"elevationM":2262},{"id":"node:1851529355","kind":"peak","name":"Arslanmendur Tepesi","lat":40.8708149,"lon":41.8464498,"elevationM":2872},{"id":"node:1851529430","kind":"peak","name":"Dadaş Tepesi","lat":40.5140645,"lon":41.3059902,"elevationM":2978},{"id":"node:1851529454","kind":"peak","name":"Dumlu Tepe","lat":40.1922565,"lon":41.2467567,"elevationM":3159},{"id":"node:1851529457","kind":"peak","name":"Evindağı Tepesi","lat":40.6210537,"lon":41.6798735,"elevationM":2366},{"id":"node:1851529462","kind":"peak","name":"Evliya Tepesi","lat":40.9521332,"lon":41.8950629,"elevationM":2566},{"id":"node:1851529491","kind":"peak","name":"Gökdağı","lat":40.4047286,"lon":41.7985402,"elevationM":2906},{"id":"node:1851529533","kind":"peak","name":"Kadife Sırtı","lat":40.15155,"lon":41.179878,"elevationM":2780},{"id":"node:1851529540","kind":"peak","name":"Karadağ Tepesi","lat":40.5038369,"lon":41.7026496,"elevationM":2757},{"id":"node:1851529541","kind":"peak","name":"Karadağ","lat":40.6066689,"lon":41.4424397,"elevationM":3072},{"id":"node:1851529567","kind":"peak","name":"Karataş Tepesi","lat":40.4209847,"lon":41.8743763,"elevationM":2322},{"id":"node:1851529579","kind":"peak","name":"Kahriyel Tepesi","lat":40.8290601,"lon":41.7903496,"elevationM":2818},{"id":"node:1851529592","kind":"peak","name":"Killi Tepe","lat":40.5680574,"lon":41.5120212,"elevationM":2519},{"id":"node:1851529612","kind":"peak","name":"Kireçli Tepe","lat":40.9122765,"lon":41.9488894,"elevationM":2671},{"id":"node:1851529636","kind":"peak","name":"Kurusırt Tepesi","lat":40.287384,"lon":41.069874,"elevationM":2442},{"id":"node:1851529654","kind":"peak","name":"Kuşdağı Tepesi","lat":40.1947824,"lon":41.1325264,"elevationM":2866},{"id":"node:1851529679","kind":"peak","name":"Kılıçkaya Tepesi","lat":40.6995664,"lon":41.4559301,"elevationM":1753},{"id":"node:1851529698","kind":"peak","name":"Malak Tepesi","lat":40.9844957,"lon":41.9719249,"elevationM":2815},{"id":"node:1851529708","kind":"peak","name":"Metris Tepesi","lat":40.2455637,"lon":41.1512962,"elevationM":2554},{"id":"node:1851529728","kind":"peak","name":"Otluk Tepesi","lat":40.5174882,"lon":41.3911842,"elevationM":2778},{"id":"node:1851529733","kind":"peak","name":"Sarpkaya Tepesi","lat":40.7665608,"lon":41.5534823,"elevationM":2008},{"id":"node:1851529739","kind":"peak","name":"Sağısol Tepesi","lat":40.8589135,"lon":41.7409044,"elevationM":1981},{"id":"node:1851529768","kind":"peak","name":"Tav Tepe","lat":40.5326354,"lon":41.5865286,"elevationM":2217},{"id":"node:1851529779","kind":"peak","name":"Terzigilin Tepe","lat":40.8171162,"lon":41.6953875,"elevationM":1845},{"id":"node:1851529789","kind":"peak","name":"Ufuk Tepesi","lat":40.2502388,"lon":41.0375857,"elevationM":2386},{"id":"node:1851529904","kind":"peak","name":"Ziyaret Tepesi","lat":40.9701962,"lon":41.7970926,"elevationM":2073},{"id":"node:1851538476","kind":"peak","name":"Çatal Dağı","lat":40.4582008,"lon":41.85629,"elevationM":2702},{"id":"node:1851538479","kind":"peak","name":"Çağdet Tepesi","lat":40.6273091,"lon":41.575726,"elevationM":2522},{"id":"node:1880751421","kind":"peak","name":"Beştaş Tepesi","lat":40.9168074,"lon":41.1092087,"elevationM":2948},{"id":"node:1942768242","kind":"peak","name":"Taşkıran Tepesi","lat":40.4582393,"lon":41.9725006,"elevationM":1826},{"id":"node:1944282390","kind":"peak","name":"Kürbaşı Tepesi","lat":40.8261789,"lon":41.8815719,"elevationM":2619},{"id":"node:1970540779","kind":"peak","name":"Dilek Dağı","lat":40.7541231,"lon":41.0392039,"elevationM":3550},{"id":"node:1970540781","kind":"peak","name":"Günbaşı Tepesi","lat":40.7426553,"lon":41.1417117,"elevationM":3030},{"id":"node:2214493346","kind":"peak","name":"Satitre Tepesi","lat":40.9276753,"lon":41.5437209,"elevationM":2014},{"id":"node:2214528200","kind":"peak","name":"Legvan Dağı","lat":40.8560514,"lon":41.6302871,"elevationM":2239},{"id":"node:2214528202","kind":"peak","name":"Ziyaret Dağı","lat":40.949623,"lon":41.657944,"elevationM":2752},{"id":"node:2214604711","kind":"peak","name":"Bakat Tepesi","lat":40.8695649,"lon":41.3896821,"elevationM":3108},{"id":"node:2214604714","kind":"peak","name":"Davut Dağları","lat":40.780205,"lon":41.2407848,"elevationM":3080},{"id":"node:2214604716","kind":"peak","name":"Doğu Karadeniz Dağları","lat":40.8410119,"lon":41.1850017,"elevationM":3385},{"id":"node:2214604721","kind":"peak","name":"Kırmızıkaya Tepesi","lat":40.8764264,"lon":41.0338825,"elevationM":3178},{"id":"node:2214652203","kind":"peak","name":"Kanlı Tepe","lat":40.9819307,"lon":41.2706017,"elevationM":3372},{"id":"node:2214652257","kind":"peak","name":"Didvake","lat":40.9865522,"lon":41.2854231,"elevationM":3354},{"id":"node:2301555037","kind":"peak","name":"Doruk Tepe","lat":40.6150906,"lon":41.0490415,"elevationM":2485},{"id":"node:2302124492","kind":"peak","name":"Kılıç Tepeleri","lat":40.305721,"lon":41.867397,"elevationM":1683},{"id":"node:2302687236","kind":"peak","name":"Bulanık Tepe","lat":40.4955953,"lon":41.1950644,"elevationM":2978},{"id":"node:2302687240","kind":"peak","name":"Devedağı Tepesi","lat":40.5653914,"lon":41.3342855,"elevationM":3183},{"id":"node:2302687243","kind":"peak","name":"Divane Tepesi","lat":40.6250721,"lon":41.1243961,"elevationM":2281},{"id":"node:2302687254","kind":"peak","name":"Kale Tepesi","lat":40.4384802,"lon":41.1431712,"elevationM":3086},{"id":"node:2302687265","kind":"peak","name":"Kırmızı Tepe","lat":40.6208655,"lon":41.2385552,"elevationM":1969},{"id":"node:2302687266","kind":"peak","name":"Lale Tepesi","lat":40.5610023,"lon":41.2122834,"elevationM":2068},{"id":"node:2302687276","kind":"peak","name":"Taşlı Tepe","lat":40.6981273,"lon":41.1592718,"elevationM":2813},{"id":"node:2302687290","kind":"peak","name":"Yumrukaya Tepesi","lat":40.4747594,"lon":41.0590896,"elevationM":2024},{"id":"node:2302687291","kind":"peak","name":"Yıldırım Tepesi","lat":40.6104109,"lon":41.328575,"elevationM":2589},{"id":"node:2302687292","kind":"peak","name":"Yıldırımkaya Tepesi","lat":40.7183901,"lon":41.0719594,"elevationM":3131},{"id":"node:2478904457","kind":"peak","name":"Eşkel Tepesi","lat":40.7140168,"lon":41.5070442,"elevationM":2049},{"id":"node:2478904458","kind":"peak","name":"Kemerli Tepe","lat":40.6922498,"lon":41.6094633,"elevationM":2743},{"id":"node:2559451380","kind":"peak","name":"Azap Dağı","lat":40.1251735,"lon":41.9852253,"elevationM":2473},{"id":"node:2559451399","kind":"peak","name":"Gök Tepe","lat":40.1915516,"lon":41.8564773,"elevationM":2613},{"id":"node:2559451410","kind":"peak","name":"Kavaklı Tepe","lat":40.2171388,"lon":41.9357496,"elevationM":2521},{"id":"node:2559451415","kind":"peak","name":"Kurunlar Tepesi","lat":40.0686366,"lon":41.9120674,"elevationM":2301},{"id":"node:2559451416","kind":"peak","name":"Kuzuçambaba Tepesi","lat":40.1933334,"lon":41.9500218,"elevationM":2674},{"id":"node:2559451431","kind":"peak","name":"Telli Tepe","lat":40.1969741,"lon":41.8096969,"elevationM":2571},{"id":"node:2617856116","kind":"peak","name":"Akkütük Tepesi","lat":40.4789278,"lon":41.5758713,"elevationM":2445},{"id":"node:2617856124","kind":"peak","name":"Aktaş Tepesi","lat":40.3406092,"lon":41.5351747,"elevationM":2010},{"id":"node:2617856159","kind":"peak","name":"Bodurbaşı Tepesi","lat":40.120697,"lon":41.2834751,"elevationM":2944},{"id":"node:2617856160","kind":"peak","name":"Boz Tepe","lat":40.3554589,"lon":41.4960934,"elevationM":1981},{"id":"node:2617856161","kind":"peak","name":"Buzağı Tepesi","lat":40.4202667,"lon":41.6487117,"elevationM":2693},{"id":"node:2617856164","kind":"peak","name":"Büyükgüney Tepesi","lat":40.2304149,"lon":41.4227964,"elevationM":2966},{"id":"node:2617856167","kind":"peak","name":"Büyüksivri Tepe","lat":40.365364,"lon":41.6918926,"elevationM":2510},{"id":"node:2617856184","kind":"peak","name":"Devre Dağı","lat":40.257664,"lon":41.673222,"elevationM":2916},{"id":"node:2617856197","kind":"peak","name":"Eğerli Tepe","lat":40.2379419,"lon":41.2576228,"elevationM":3080},{"id":"node:2617856208","kind":"peak","name":"Gülbağı Tepesi","lat":40.3554603,"lon":41.4325977,"elevationM":2302},{"id":"node:2617856217","kind":"peak","name":"Harman Tepesi","lat":40.3296216,"lon":41.5907349,"elevationM":2007},{"id":"node:2617856238","kind":"peak","name":"Kargapazarı Dağları","lat":40.1804599,"lon":41.5685216,"elevationM":3090},{"id":"node:2617856261","kind":"peak","name":"Koşat Tepesi","lat":40.4131725,"lon":41.4564056,"elevationM":2003},{"id":"node:2617856265","kind":"peak","name":"Kılıç Tepesi","lat":40.4509836,"lon":41.5788123,"elevationM":2648},{"id":"node:2617856268","kind":"peak","name":"Kınalı Tepe","lat":40.4365259,"lon":41.335716,"elevationM":2509},{"id":"node:2617856275","kind":"peak","name":"Kırpınar Tepesi","lat":40.174885,"lon":41.35738,"elevationM":2839},{"id":"node:2617856291","kind":"peak","name":"Naldöken Tepesi","lat":40.2954936,"lon":41.2595367,"elevationM":3150},{"id":"node:2617856307","kind":"peak","name":"Sineklikaya Tepesi","lat":40.3350016,"lon":41.2347551,"elevationM":3130},{"id":"node:2617856312","kind":"peak","name":"Suma Tepesi","lat":40.0789331,"lon":41.4094107,"elevationM":2256},{"id":"node:2617856339","kind":"peak","name":"Sütçayırı Tepesi","lat":40.3750414,"lon":41.309524,"elevationM":2625},{"id":"node:2617856349","kind":"peak","name":"Tavşan Tepesi","lat":40.3742323,"lon":41.5343006,"elevationM":2206},{"id":"node:2617856375","kind":"peak","name":"Kuş Dağı","lat":40.3980837,"lon":41.0803812,"elevationM":3172},{"id":"node:2617856380","kind":"peak","name":"Vişneli Tepe","lat":40.386667,"lon":41.4125986,"elevationM":2291},{"id":"node:2617856396","kind":"peak","name":"Yassı Tepe","lat":40.4206706,"lon":41.5478532,"elevationM":2500},{"id":"node:2617856403","kind":"peak","name":"Yazyurdu Tepesi","lat":40.4522929,"lon":41.3638968,"elevationM":2537},{"id":"node:2617856424","kind":"peak","name":"Ziyaret Tepesi","lat":40.1336318,"lon":41.3935994,"elevationM":2345},{"id":"node:2617861842","kind":"peak","name":"Çivilikaya Tepesi","lat":40.3269807,"lon":41.167099,"elevationM":3115},{"id":"node:2617861843","kind":"peak","name":"Ören Tepesi","lat":40.4092827,"lon":41.2690626,"elevationM":2783},{"id":"node:2617861845","kind":"peak","name":"Şehitler Tepesi","lat":40.4582248,"lon":41.4615949,"elevationM":2369},{"id":"node:2618371728","kind":"peak","name":"Çiçek Dağı","lat":40.2594917,"lon":41.5743708,"elevationM":2278},{"id":"node:2632549014","kind":"peak","name":"Akdağ Tepesi","lat":40.571159,"lon":41.7692288,"elevationM":3047},{"id":"node:2632549044","kind":"peak","name":"Güllü Tepe","lat":40.552459,"lon":41.7120444,"elevationM":2924},{"id":"node:2632549048","kind":"peak","name":"Kabak Tepesi","lat":40.5054767,"lon":41.7765933,"elevationM":2477},{"id":"node:2632549055","kind":"peak","name":"Kütüklü Tepe","lat":40.6226042,"lon":41.881358,"elevationM":2344},{"id":"node:2632549070","kind":"peak","name":"Uzun Tepe","lat":40.5593491,"lon":41.8022336,"elevationM":2661},{"id":"node:2632549072","kind":"peak","name":"Uçuran Tepe","lat":40.6473219,"lon":41.971216,"elevationM":2341},{"id":"node:2632558026","kind":"peak","name":"Çal Tepe","lat":40.5810395,"lon":41.8860412,"elevationM":2517},{"id":"node:2787293279","kind":"peak","name":"Haşut Dağı","lat":40.3131483,"lon":41.9389314,"elevationM":1960},{"id":"node:2787293291","kind":"peak","name":"Tombuldağı","lat":40.3598775,"lon":41.9821451,"elevationM":2268},{"id":"node:2918707103","kind":"peak","name":"Soğanlı Dağı","lat":40.8065479,"lon":41.1663839,"elevationM":3504},{"id":"node:3126027409","kind":"peak","name":"Bozdağ","lat":40.5774222,"lon":41.545486,"elevationM":2260},{"id":"node:3126027412","kind":"peak","name":"Murat Dağı","lat":40.5129374,"lon":41.6046531,"elevationM":2392},{"id":"node:3126027413","kind":"peak","name":"Nalçabaşı Dağı","lat":40.5558149,"lon":41.5642818,"elevationM":1766},{"id":"node:3197353725","kind":"peak","name":"Asamel Tepesi","lat":40.8709071,"lon":41.8619531,"elevationM":2885},{"id":"node:3720960309","kind":"peak","name":"Kanlı Dağı","lat":40.1848616,"lon":41.0417693,"elevationM":2658},{"id":"node:4699680425","kind":"peak","name":"Maĥludi Tump (Maĥluditumpun Serti)","lat":40.9562638,"lon":41.0928454,"elevationM":1179},{"id":"node:5018066623","kind":"peak","name":"Avusor gölü","lat":40.9365359,"lon":41.2002958,"elevationM":null},{"id":"node:7310788057","kind":"peak","name":"Kemerli","lat":40.9266943,"lon":41.2156422,"elevationM":3562},{"id":"node:7310788058","kind":"peak","name":"Mizrakli","lat":40.9322024,"lon":41.2166167,"elevationM":3428},{"id":"node:7310788059","kind":"peak","name":"Lale","lat":40.9350681,"lon":41.222261,"elevationM":3368},{"id":"node:7310788060","kind":"peak","name":"Laz","lat":40.9357329,"lon":41.2286639,"elevationM":3353},{"id":"node:7310788061","kind":"peak","name":"Hızarkapı","lat":40.949674,"lon":41.2272613,"elevationM":3330},{"id":"node:7310788062","kind":"peak","name":"Lordeç","lat":40.9550382,"lon":41.2325184,"elevationM":3306},{"id":"node:7310788063","kind":"peak","name":"Tar","lat":40.9588139,"lon":41.2355439,"elevationM":3418},{"id":"node:7310788064","kind":"peak","name":"Açovit","lat":40.9411104,"lon":41.2073256,"elevationM":3109},{"id":"node:7310788065","kind":"peak","name":"Sele","lat":40.9307578,"lon":41.2011283,"elevationM":3119},{"id":"node:7310788066","kind":"peak","name":"Kardovit","lat":40.8321981,"lon":41.1505538,"elevationM":3800},{"id":"node:7310788067","kind":"peak","name":"Krenek","lat":40.8302235,"lon":41.1469275,"elevationM":3871},{"id":"node:7310788068","kind":"peak","name":"Sönmez","lat":40.823863,"lon":41.1479592,"elevationM":3860},{"id":"node:7310788069","kind":"peak","name":"Mezovit","lat":40.8434363,"lon":41.1643459,"elevationM":3711},{"id":"node:7310788070","kind":"peak","name":"Geztepe","lat":40.8441824,"lon":41.1693226,"elevationM":3760},{"id":"node:7310788071","kind":"peak","name":"Karaca","lat":40.8423918,"lon":41.1758925,"elevationM":3633},{"id":"node:7310788072","kind":"peak","name":"Dua Tepe","lat":40.9855804,"lon":41.2759995,"elevationM":3488},{"id":"node:7310788074","kind":"peak","name":"Demirkalem","lat":40.9909345,"lon":41.3012051,"elevationM":3223},{"id":"node:7310833490","kind":"peak","name":"Tatos","lat":40.7546339,"lon":41.0178031,"elevationM":3645},{"id":"node:8682399888","kind":"peak","name":"Pulur Tepesi","lat":40.7926845,"lon":41.7983632,"elevationM":2120},{"id":"node:8682399893","kind":"peak","name":"Tipiligedik Sırtı","lat":40.8233698,"lon":41.771999,"elevationM":2377},{"id":"node:8682399894","kind":"peak","name":"Küçükdağınağzı Sırtı","lat":40.825779,"lon":41.7816094,"elevationM":2434},{"id":"node:8682399895","kind":"peak","name":"Karyol Dağı","lat":40.808814,"lon":41.7975253,"elevationM":2614},{"id":"node:9234023604","kind":"peak","name":"Şilenkar Tepesi","lat":40.7737505,"lon":41.7179111,"elevationM":730},{"id":"node:13417847321","kind":"peak","name":"Arefet Dağı","lat":40.7213087,"lon":41.7322044,"elevationM":2428},{"id":"node:13417865659","kind":"peak","name":"Gelin Dağı","lat":40.6617049,"lon":41.805204,"elevationM":2892},{"id":"node:13417910302","kind":"peak","name":"Kale Tepesi","lat":40.8179382,"lon":41.7299939,"elevationM":1869},{"id":"node:13555733577","kind":"peak","name":"Gorisker Tepesi","lat":40.7916791,"lon":41.722541,"elevationM":1530},{"id":"node:13555756337","kind":"peak","name":"Mollamutikabanı","lat":40.8214631,"lon":41.7186558,"elevationM":1670},{"id":"node:13555839147","kind":"peak","name":"Lamaver","lat":40.7775222,"lon":41.7491858,"elevationM":1100},{"id":"node:13555851869","kind":"peak","name":"Kazantaşı","lat":40.7732266,"lon":41.7390332,"elevationM":1030},{"id":"node:13555852672","kind":"peak","name":"Gonkertaşı Tepesi","lat":40.8032819,"lon":41.7292595,"elevationM":1560},{"id":"node:13555884955","kind":"peak","name":"Deveboynu Tepesi","lat":40.764935,"lon":41.7966038,"elevationM":1330},{"id":"node:13555910075","kind":"peak","name":"Deringedik Tepesi","lat":40.743461,"lon":41.7624359,"elevationM":1960},{"id":"node:13555912016","kind":"peak","name":"Tekketaş Tepesi","lat":40.7415006,"lon":41.7152297,"elevationM":2100},{"id":"node:13555935656","kind":"peak","name":"Fulun Tepesi","lat":40.8266809,"lon":41.7611027,"elevationM":2030},{"id":"node:13555939192","kind":"peak","name":"Atlarınsuyu","lat":40.7933638,"lon":41.6966777,"elevationM":1250},{"id":"node:13555943850","kind":"peak","name":"Kavaklarkesiği","lat":40.8024103,"lon":41.6983372,"elevationM":1380},{"id":"node:13555950534","kind":"peak","name":"Sineklik Tepesi","lat":40.8349495,"lon":41.7868434,"elevationM":2570},{"id":"node:13555958860","kind":"peak","name":"Aristapın Tepesi","lat":40.8280004,"lon":41.752284,"elevationM":1850}]}