{"tileKey":"la_p17_lo_p47","version":"v1-1775891056926","entries":[{"id":"node:1236473438","kind":"peak","name":"قرن الوديعة","lat":17.0424199,"lon":47.1092742,"elevationM":null},{"id":"node:6774270837","kind":"peak","name":"المغيراء","lat":17.004056,"lon":47.127493,"elevationM":null},{"id":"node:6774291728","kind":"peak","name":"جبل الزعيرع","lat":17.644043,"lon":47.259064,"elevationM":null},{"id":"node:6937224523","kind":"peak","name":"قرون العرارين","lat":17.0431332,"lon":47.8199606,"elevationM":null},{"id":"node:11870047950","kind":"peak","name":"حزوم الشرورة","lat":17.3429629,"lon":47.1758627,"elevationM":null},{"id":"node:11870738195","kind":"peak","name":"أمهات السلم","lat":17.1843303,"lon":47.1851936,"elevationM":null},{"id":"node:11871768641","kind":"peak","name":"البغثان","lat":17.0568274,"lon":47.1781835,"elevationM":null},{"id":"node:11871768744","kind":"peak","name":"أبرق إبن زيد","lat":17.4373523,"lon":47.3031863,"elevationM":null},{"id":"node:11871768936","kind":"peak","name":"برقان الكسارة","lat":17.3797497,"lon":47.2161088,"elevationM":null},{"id":"node:11871883538","kind":"peak","name":"برقان وديعة","lat":17.0425937,"lon":47.0975417,"elevationM":null},{"id":"node:11871883779","kind":"peak","name":"أم الحاذ","lat":17.2531661,"lon":47.1651539,"elevationM":null},{"id":"node:11871883992","kind":"peak","name":"أم الهجلة","lat":17.270526,"lon":47.1936914,"elevationM":null}]}