{"tileKey":"la_p60_lo_p145","version":"v1-1775891056926","entries":[{"id":"node:3674837225","kind":"peak","name":"гора Кырдал","lat":60.011323,"lon":145.69051,"elevationM":null},{"id":"node:3717309244","kind":"peak","name":"гора Накими","lat":60.6148676,"lon":145.1964941,"elevationM":null},{"id":"node:3717392477","kind":"peak","name":"Глухая гора","lat":60.9354895,"lon":145.9643039,"elevationM":null},{"id":"node:3717392480","kind":"peak","name":"Добрая гора","lat":60.7386215,"lon":145.172165,"elevationM":null},{"id":"node:3717392483","kind":"peak","name":"Каменистая гора","lat":60.7813923,"lon":145.0530892,"elevationM":null},{"id":"node:3717392486","kind":"peak","name":"Крутая гора","lat":60.6907787,"lon":145.3928192,"elevationM":null},{"id":"node:3717392487","kind":"peak","name":"Курортная гора","lat":60.8969857,"lon":145.7182678,"elevationM":null},{"id":"node:3717392489","kind":"peak","name":"Малая гора","lat":60.8716991,"lon":145.5899238,"elevationM":null},{"id":"node:3717392492","kind":"peak","name":"Междуречная гора","lat":60.7540015,"lon":145.8419778,"elevationM":null},{"id":"node:3717392493","kind":"peak","name":"Междуречная гора","lat":60.8767628,"lon":145.4057231,"elevationM":null},{"id":"node:3717392501","kind":"peak","name":"Отдельная гора","lat":60.7398788,"lon":145.670114,"elevationM":null},{"id":"node:3717392502","kind":"peak","name":"Открытая гора","lat":60.9112656,"lon":145.8027848,"elevationM":null},{"id":"node:3717392503","kind":"peak","name":"Плоская гора","lat":60.8157899,"lon":145.5503408,"elevationM":null},{"id":"node:3717392507","kind":"peak","name":"Средняя гора","lat":60.8115992,"lon":145.2066868,"elevationM":null},{"id":"node:3717392509","kind":"peak","name":"Тихая гора","lat":60.9853634,"lon":145.8955189,"elevationM":null},{"id":"node:3717392510","kind":"peak","name":"Трапезная гора","lat":60.8221638,"lon":145.3044543,"elevationM":null},{"id":"node:3717392515","kind":"peak","name":"Юбилейная гора","lat":60.988529,"lon":145.3226174,"elevationM":null},{"id":"node:3717392516","kind":"peak","name":"Ягодная гора","lat":60.6842554,"lon":145.1417758,"elevationM":null},{"id":"node:3717392520","kind":"peak","name":"гора Амбарчан","lat":60.9071612,"lon":145.0368987,"elevationM":null},{"id":"node:3717392521","kind":"peak","name":"гора Анкурикан","lat":60.9244341,"lon":145.8728852,"elevationM":null},{"id":"node:3717394332","kind":"peak","name":"гора Винт","lat":60.9752617,"lon":145.0454148,"elevationM":null},{"id":"node:3717394338","kind":"peak","name":"гора Изумруд","lat":60.866513,"lon":145.1667668,"elevationM":null},{"id":"node:3717394340","kind":"peak","name":"гора Икэлчан","lat":60.7968378,"lon":145.2709698,"elevationM":null},{"id":"node:3717394341","kind":"peak","name":"гора Кадакчан","lat":60.9563946,"lon":145.4293069,"elevationM":null},{"id":"node:3717394342","kind":"peak","name":"гора Калнитан","lat":60.7501503,"lon":145.7336749,"elevationM":null},{"id":"node:3717394348","kind":"peak","name":"гора Леон","lat":60.7686283,"lon":145.1918617,"elevationM":null},{"id":"node:3717394349","kind":"peak","name":"гора Лори","lat":60.7846515,"lon":145.7193377,"elevationM":null},{"id":"node:3717394351","kind":"peak","name":"гора Мальма","lat":60.694328,"lon":145.2917128,"elevationM":null},{"id":"node:3717394353","kind":"peak","name":"гора Метеослужба","lat":60.8898241,"lon":145.3024049,"elevationM":null},{"id":"node:3717394354","kind":"peak","name":"гора Надежда","lat":60.8313399,"lon":145.0782686,"elevationM":null},{"id":"node:3717394356","kind":"peak","name":"гора Находка","lat":60.729184,"lon":145.3426794,"elevationM":null},{"id":"node:3717394361","kind":"peak","name":"гора Няпол","lat":60.8728322,"lon":145.5365636,"elevationM":null},{"id":"node:3717394362","kind":"peak","name":"гора Опал","lat":60.8797534,"lon":145.9155193,"elevationM":null},{"id":"node:3717394363","kind":"peak","name":"гора Ольганджа","lat":60.7831548,"lon":145.8937241,"elevationM":null},{"id":"node:3717394367","kind":"peak","name":"гора Перепад","lat":60.919783,"lon":145.0941984,"elevationM":null},{"id":"node:3717394370","kind":"peak","name":"гора Поворот","lat":60.990366,"lon":145.4493618,"elevationM":null},{"id":"node:3717394374","kind":"peak","name":"гора Рамка","lat":60.8932211,"lon":145.9936027,"elevationM":null},{"id":"node:3717394380","kind":"peak","name":"гора Таолон","lat":60.8799668,"lon":145.8414291,"elevationM":null},{"id":"node:3717394382","kind":"peak","name":"гора Тогой","lat":60.6853874,"lon":145.6586044,"elevationM":null},{"id":"node:3717394383","kind":"peak","name":"гора Тройка","lat":60.9330088,"lon":145.0626836,"elevationM":null},{"id":"node:3717394384","kind":"peak","name":"гора Усть-Таса","lat":60.8185502,"lon":145.843077,"elevationM":null},{"id":"node:3717394388","kind":"peak","name":"гора Хетас","lat":60.9686719,"lon":145.239909,"elevationM":null},{"id":"node:3717394395","kind":"peak","name":"гора Эйле","lat":60.6776846,"lon":145.8592775,"elevationM":null},{"id":"node:3717394397","kind":"peak","name":"гора Ялакахчан","lat":60.7043753,"lon":145.0180594,"elevationM":null},{"id":"node:3717394398","kind":"peak","name":"гора Янтарь","lat":60.7072161,"lon":145.1716813,"elevationM":null}]}