{"tileKey":"la_p59_lo_p150","version":"v1-1775891056926","entries":[{"id":"node:2299588625","kind":"peak","name":"Каменный Венец","lat":59.5206095,"lon":150.6714967,"elevationM":307},{"id":"node:2577856062","kind":"peak","name":"Марчеканская сопка","lat":59.5116514,"lon":150.8312882,"elevationM":705},{"id":"node:2580277123","kind":"peak","name":"Сопка Крутая","lat":59.5918483,"lon":150.8106358,"elevationM":256},{"id":"node:8950797617","kind":"peak","name":"Сопка Горняк","lat":59.5825092,"lon":150.8951511,"elevationM":300},{"id":"node:8977085517","kind":"peak","name":"Сопка Остроконечная","lat":59.4956086,"lon":150.7498773,"elevationM":577},{"id":"node:8977085617","kind":"peak","name":"Сопка Маяк","lat":59.4910938,"lon":150.5953296,"elevationM":370},{"id":"node:8989710118","kind":"peak","name":"Нагаевская сопка","lat":59.5765133,"lon":150.7329316,"elevationM":490},{"id":"node:8991532276","kind":"peak","name":"Сопка Ретранслятор","lat":59.9603372,"lon":150.815321,"elevationM":1000},{"id":"node:9006009436","kind":"peak","name":"Алеут","lat":59.1011792,"lon":150.7245817,"elevationM":1116},{"id":"node:9013008459","kind":"peak","name":"Комендант","lat":59.71316,"lon":150.3738602,"elevationM":935},{"id":"node:9024119664","kind":"peak","name":"Сахарная","lat":59.623002,"lon":150.7066736,"elevationM":415},{"id":"node:9024129218","kind":"peak","name":"Тысячник","lat":59.7643641,"lon":150.6828697,"elevationM":1026},{"id":"node:10028740441","kind":"peak","name":"Хулакаг","lat":59.8565673,"lon":150.9739231,"elevationM":594},{"id":"node:10052673650","kind":"peak","name":"Вечерняя","lat":59.598642,"lon":150.7706468,"elevationM":217},{"id":"node:10594108173","kind":"peak","name":"Петропавловка","lat":59.6512617,"lon":150.71416,"elevationM":660},{"id":"node:10595314173","kind":"peak","name":"Усталая","lat":59.6623106,"lon":150.3575497,"elevationM":685},{"id":"node:10694458970","kind":"peak","name":"Чёрные Камни","lat":59.6518172,"lon":150.79816,"elevationM":530},{"id":"node:12211421801","kind":"peak","name":"Сопка Видовая","lat":59.5702936,"lon":150.9682962,"elevationM":315}]}