{"tileKey":"la_p47_lo_p38","version":"v1-1775891056926","entries":[{"id":"node:1812167908","kind":"peak","name":"Зор-Тау","lat":47.737633,"lon":38.0698064,"elevationM":136},{"id":"node:1961448675","kind":"peak","name":"террикон Моспинской ЦОФ","lat":47.884998,"lon":38.0336601,"elevationM":null},{"id":"node:2293717477","kind":"peak","name":"Терикон №27","lat":47.9458864,"lon":38.0626158,"elevationM":null},{"id":"node:2729580540","kind":"peak","name":"Ясна","lat":47.8877461,"lon":38.5297151,"elevationM":167},{"id":"node:2729580567","kind":"peak","name":"Синя","lat":47.9045502,"lon":38.5197315,"elevationM":178},{"id":"node:2965468151","kind":"peak","name":"Савур-Могила","lat":47.9220973,"lon":38.7403471,"elevationM":278},{"id":"node:3058824633","kind":"peak","name":"кург.","lat":47.3825444,"lon":38.3375529,"elevationM":110},{"id":"node:3378968969","kind":"peak","name":"Куцая","lat":47.8721993,"lon":38.5536391,"elevationM":null},{"id":"node:3458418158","kind":"peak","name":"Гуляєва","lat":47.6617058,"lon":38.2521655,"elevationM":151}]}