{"tileKey":"la_p34_lo_p76","version":"v1-1775891056926","entries":[{"id":"node:328869238","kind":"peak","name":"Chhobark","lat":34.3300645,"lon":76.0459145,"elevationM":null},{"id":"node:4544784597","kind":"peak","name":"Kun","lat":34.0139272,"lon":76.0566116,"elevationM":7077},{"id":"node:4544812729","kind":"peak","name":"Lingsarmo","lat":34.0219954,"lon":76.0799841,"elevationM":6930},{"id":"node:5561996846","kind":"peak","name":"P 6800","lat":34.0288334,"lon":76.0816954,"elevationM":6800},{"id":"node:5928725120","kind":"peak","name":"Manan","lat":34.2508493,"lon":76.9006061,"elevationM":5277},{"id":"node:5930280866","kind":"peak","name":"Nindam","lat":34.3692635,"lon":76.6562676,"elevationM":5499},{"id":"node:6871476440","kind":"peak","name":"Point 5310","lat":34.801758,"lon":76.4808239,"elevationM":null},{"id":"node:7022704909","kind":"peak","name":"Shangruti Top","lat":34.7523309,"lon":76.4067457,"elevationM":5343},{"id":"node:7044650599","kind":"peak","name":"Largip","lat":34.4900043,"lon":76.5558242,"elevationM":null},{"id":"node:7501666211","kind":"peak","name":"Machu Kangri","lat":34.02948,"lon":76.7931368,"elevationM":6086},{"id":"node:7501857696","kind":"peak","name":"Chomotang I","lat":34.0866993,"lon":76.6891775,"elevationM":null},{"id":"node:7501860766","kind":"peak","name":"Nigutse South","lat":34.1214768,"lon":76.7182043,"elevationM":5750},{"id":"node:7671195084","kind":"peak","name":"Lingsarmo","lat":34.1174539,"lon":76.0470199,"elevationM":null},{"id":"node:7687458355","kind":"peak","name":"Chomotang II","lat":34.0882981,"lon":76.6952105,"elevationM":null},{"id":"node:7687458356","kind":"peak","name":"Thorchuk I","lat":34.0770267,"lon":76.6730366,"elevationM":null},{"id":"node:7687853225","kind":"peak","name":"Lingsarmo","lat":34.1720562,"lon":76.0862395,"elevationM":null},{"id":"node:7687877197","kind":"peak","name":"Pt 6148","lat":34.0460288,"lon":76.035164,"elevationM":null},{"id":"node:7687894815","kind":"peak","name":"Rungofarka","lat":34.0344644,"lon":76.0603778,"elevationM":null},{"id":"node:7688038992","kind":"peak","name":"Rungofarka","lat":34.0332732,"lon":76.0930842,"elevationM":6485},{"id":"node:7726312631","kind":"peak","name":"Brok","lat":34.5333236,"lon":76.727271,"elevationM":null},{"id":"node:7726345534","kind":"peak","name":"Spangpochigo","lat":34.4436365,"lon":76.9186091,"elevationM":null},{"id":"node:7726345539","kind":"peak","name":"Suchetego S.","lat":34.6505792,"lon":76.5718317,"elevationM":5345},{"id":"node:9755988645","kind":"peak","name":"Chomotang III (Chomotang southwest)","lat":34.0766812,"lon":76.6844118,"elevationM":5850},{"id":"node:9822791864","kind":"peak","name":"Shichan","lat":34.0906607,"lon":76.9084596,"elevationM":null},{"id":"node:9822995001","kind":"peak","name":"Singekhabar Dans","lat":34.361718,"lon":76.5074586,"elevationM":null},{"id":"node:9822995002","kind":"peak","name":"Barqphoche","lat":34.3566165,"lon":76.5226936,"elevationM":null},{"id":"node:9822995055","kind":"peak","name":"Shorka","lat":34.2521086,"lon":76.671009,"elevationM":null},{"id":"node:9822995056","kind":"peak","name":"Pamsi Phu","lat":34.2509735,"lon":76.6964149,"elevationM":null},{"id":"node:9822995082","kind":"peak","name":"Jhalde","lat":34.4172479,"lon":76.5883541,"elevationM":null},{"id":"node:9823164041","kind":"peak","name":"Zabra Chhupo","lat":34.3674569,"lon":76.2019872,"elevationM":null},{"id":"node:9823164167","kind":"peak","name":"Numi Go","lat":34.4276557,"lon":76.3434791,"elevationM":null},{"id":"node:9823164168","kind":"peak","name":"Thang","lat":34.4717857,"lon":76.4264774,"elevationM":null},{"id":"node:9823164169","kind":"peak","name":"Kayonli","lat":34.4572788,"lon":76.4172506,"elevationM":null},{"id":"node:9823164170","kind":"peak","name":"Biyachhuthasa","lat":34.4494228,"lon":76.3940334,"elevationM":null},{"id":"node:9823164171","kind":"peak","name":"Shakar Kayonli","lat":34.4385577,"lon":76.3755369,"elevationM":null},{"id":"node:9823164172","kind":"peak","name":"Kyonli","lat":34.4395487,"lon":76.3637781,"elevationM":null},{"id":"node:9823164297","kind":"peak","name":"Naktul","lat":34.4140262,"lon":76.1729335,"elevationM":null},{"id":"node:9823164492","kind":"peak","name":"Tsojon","lat":34.3814835,"lon":76.0582637,"elevationM":null},{"id":"node:9823164493","kind":"peak","name":"Jon","lat":34.3703262,"lon":76.0614395,"elevationM":null},{"id":"node:9823164525","kind":"peak","name":"Chhumeg Chen","lat":34.2886373,"lon":76.1542654,"elevationM":null},{"id":"node:9823164526","kind":"peak","name":"Saser Nyaga","lat":34.4264521,"lon":76.5630769,"elevationM":null},{"id":"node:9823416665","kind":"peak","name":"Somau","lat":34.5285154,"lon":76.0494661,"elevationM":null},{"id":"node:10311888246","kind":"peak","name":"Junkar 17627","lat":34.6223897,"lon":76.2267085,"elevationM":5235},{"id":"node:10563676209","kind":"peak","name":"Point 13620","lat":34.6046494,"lon":76.1749357,"elevationM":4330},{"id":"node:10575706293","kind":"peak","name":"Junkor","lat":34.6226024,"lon":76.2458,"elevationM":5335},{"id":"node:10602178210","kind":"peak","name":"Suchetego N.","lat":34.6712778,"lon":76.5768777,"elevationM":5395},{"id":"node:12279206780","kind":"peak","name":"Hemar Ri","lat":34.062885,"lon":76.7415843,"elevationM":5699},{"id":"node:12901269436","kind":"peak","name":"Amaiur","lat":34.0473723,"lon":76.1008733,"elevationM":5760},{"id":"node:12901269437","kind":"peak","name":"Askatasunaren Dorrea","lat":34.0748529,"lon":76.1939942,"elevationM":4800}]}