{"tileKey":"la_p49_lo_p15","version":"v1-1775891056926","entries":[{"id":"node:295322897","kind":"peak","name":"Žižkův kopec","lat":49.5087673,"lon":15.6489303,"elevationM":null},{"id":"node:405934040","kind":"peak","name":"Míchova skála","lat":49.2278807,"lon":15.3616532,"elevationM":783},{"id":"node:432494350","kind":"peak","name":"Černý les","lat":49.5834322,"lon":15.9514929,"elevationM":648},{"id":"node:432799836","kind":"peak","name":"Tisůvka","lat":49.6517801,"lon":15.9494462,"elevationM":804},{"id":"node:432799837","kind":"peak","name":"Šindelný vrch","lat":49.666544,"lon":15.9480994,"elevationM":806},{"id":"node:432799838","kind":"peak","name":"Žákova hora","lat":49.6569931,"lon":15.9918274,"elevationM":810},{"id":"node:462104039","kind":"peak","name":"Javořice","lat":49.2209987,"lon":15.3395146,"elevationM":837},{"id":"node:603168881","kind":"peak","name":"Holubovský","lat":49.4565759,"lon":15.4654552,"elevationM":675},{"id":"node:603168882","kind":"peak","name":"Strážník","lat":49.4679049,"lon":15.4525662,"elevationM":713},{"id":"node:603595429","kind":"peak","name":"Křemešník","lat":49.4042307,"lon":15.3249214,"elevationM":769},{"id":"node:603691751","kind":"peak","name":"Čeřínek","lat":49.3766888,"lon":15.4365334,"elevationM":761},{"id":"node:679782859","kind":"peak","name":"Bojanov","lat":49.4736178,"lon":15.3869315,"elevationM":665},{"id":"node:679782860","kind":"peak","name":"Panský kopec","lat":49.4789557,"lon":15.4130548,"elevationM":613},{"id":"node:679845692","kind":"peak","name":"Ježkův vrch","lat":49.4938854,"lon":15.399172,"elevationM":595},{"id":"node:1269293074","kind":"peak","name":"Peperek","lat":49.5770826,"lon":15.8648249,"elevationM":675},{"id":"node:1379847848","kind":"peak","name":"Hůrka","lat":49.3909601,"lon":15.2425378,"elevationM":580},{"id":"node:1392459656","kind":"peak","name":"Melechov","lat":49.6384545,"lon":15.3198956,"elevationM":715},{"id":"node:1402106487","kind":"peak","name":"Velký Špičák","lat":49.3116194,"lon":15.5111753,"elevationM":734},{"id":"node:1407052915","kind":"peak","name":"Vrch","lat":49.2169274,"lon":15.3798682,"elevationM":726},{"id":"node:1414713505","kind":"peak","name":"Kozí hřbet","lat":49.2592342,"lon":15.3675769,"elevationM":751},{"id":"node:1414713582","kind":"peak","name":"Rovina","lat":49.2550296,"lon":15.3618822,"elevationM":761},{"id":"node:1483368300","kind":"peak","name":"Míchův vrch","lat":49.2371191,"lon":15.3561415,"elevationM":791},{"id":"node:1483368331","kind":"peak","name":"Velký skalní vrch","lat":49.2343313,"lon":15.3293179,"elevationM":785},{"id":"node:1507497458","kind":"peak","name":"Beranov","lat":49.4088928,"lon":15.6624199,"elevationM":563},{"id":"node:1507497459","kind":"peak","name":"Zmoliška","lat":49.4147539,"lon":15.6604029,"elevationM":550},{"id":"node:1679746781","kind":"peak","name":"Malý Špičák","lat":49.3203661,"lon":15.5073793,"elevationM":674},{"id":"node:1744366298","kind":"peak","name":"Jelení hora","lat":49.2672159,"lon":15.5014661,"elevationM":653},{"id":"node:1744366320","kind":"peak","name":"Kratizna","lat":49.2684224,"lon":15.4487724,"elevationM":641},{"id":"node:1744369296","kind":"peak","name":"Šibeniční vrch","lat":49.2865761,"lon":15.4997784,"elevationM":666},{"id":"node:1746312002","kind":"peak","name":"Skalky","lat":49.4852993,"lon":15.4992598,"elevationM":709},{"id":"node:1749545040","kind":"peak","name":"Venušín","lat":49.4747944,"lon":15.5120649,"elevationM":679},{"id":"node:1756408498","kind":"peak","name":"Mistrovský kopec","lat":49.2880286,"lon":15.5125852,"elevationM":699},{"id":"node:1756408543","kind":"peak","name":"Velké Javoří","lat":49.3048637,"lon":15.5155634,"elevationM":679},{"id":"node:1759696782","kind":"peak","name":"Popický vrch","lat":49.3420595,"lon":15.5213576,"elevationM":682},{"id":"node:1759696798","kind":"peak","name":"V Horách","lat":49.3359925,"lon":15.4709642,"elevationM":604},{"id":"node:1767846180","kind":"peak","name":"Kamenný vrch","lat":49.26779,"lon":15.3469062,"elevationM":716},{"id":"node:1767846181","kind":"peak","name":"Lísek","lat":49.2762276,"lon":15.2820262,"elevationM":760},{"id":"node:1783519200","kind":"peak","name":"Hanzalka","lat":49.3060875,"lon":15.4386433,"elevationM":663},{"id":"node:1783519205","kind":"peak","name":"Havlův kopec","lat":49.2947396,"lon":15.4058588,"elevationM":679},{"id":"node:1783519210","kind":"peak","name":"Jůzlův kopec","lat":49.2853046,"lon":15.4165375,"elevationM":630},{"id":"node:1783519212","kind":"peak","name":"Kaz","lat":49.3022827,"lon":15.4588157,"elevationM":638},{"id":"node:1783519213","kind":"peak","name":"Lovětínský vrch","lat":49.2929267,"lon":15.4637039,"elevationM":617},{"id":"node:1783519214","kind":"peak","name":"Sovův kopec","lat":49.2957908,"lon":15.4413764,"elevationM":618},{"id":"node:1783519218","kind":"peak","name":"Vršek","lat":49.3078684,"lon":15.4010891,"elevationM":631},{"id":"node:1783519223","kind":"peak","name":"Zudův vrch","lat":49.2982561,"lon":15.4143529,"elevationM":647},{"id":"node:1896739219","kind":"peak","name":"Hájek","lat":49.300348,"lon":15.2739478,"elevationM":714},{"id":"node:1989367667","kind":"peak","name":"Mařenka","lat":49.1705595,"lon":15.7028477,"elevationM":711},{"id":"node:2401588453","kind":"peak","name":"Hora","lat":49.2727713,"lon":15.854151,"elevationM":613},{"id":"node:2401588454","kind":"peak","name":"Strážnice","lat":49.2623448,"lon":15.8420332,"elevationM":574},{"id":"node:2401588632","kind":"peak","name":"Čechtínský kopec","lat":49.2832398,"lon":15.8402408,"elevationM":662},{"id":"node:2769126163","kind":"peak","name":"Otrok","lat":49.6759503,"lon":15.9692695,"elevationM":717},{"id":"node:2770640943","kind":"peak","name":"Pavlíčkův kopec","lat":49.4642441,"lon":15.2848187,"elevationM":624},{"id":"node:2860935454","kind":"peak","name":"Vizáb","lat":49.7122607,"lon":15.5505372,"elevationM":598},{"id":"node:2935043437","kind":"peak","name":"Bražský kopec","lat":49.282305,"lon":15.3398939,"elevationM":688},{"id":"node:2957641898","kind":"peak","name":"Hora","lat":49.4242488,"lon":15.9738287,"elevationM":null},{"id":"node:2993582472","kind":"peak","name":"Kopec","lat":49.5752033,"lon":15.4236154,"elevationM":656},{"id":"node:2993582475","kind":"peak","name":"Orlík","lat":49.5652002,"lon":15.4104397,"elevationM":678},{"id":"node:3039911209","kind":"peak","name":"Markův kopec","lat":49.0827218,"lon":15.0131549,"elevationM":551},{"id":"node:3123924850","kind":"peak","name":"Friedlerův kopec","lat":49.6849578,"lon":15.6937551,"elevationM":615},{"id":"node:3123969742","kind":"peak","name":"Vestec","lat":49.7509526,"lon":15.7639646,"elevationM":668},{"id":"node:3124019069","kind":"peak","name":"Spálava","lat":49.7779659,"lon":15.7314084,"elevationM":663},{"id":"node:3124555282","kind":"peak","name":"Strážný vrch","lat":49.7724461,"lon":15.5834948,"elevationM":514},{"id":"node:3124625648","kind":"peak","name":"Ranský babylon","lat":49.6676081,"lon":15.8170018,"elevationM":673},{"id":"node:3124646956","kind":"peak","name":"Henzlička","lat":49.6314905,"lon":15.8162352,"elevationM":692},{"id":"node:3246466096","kind":"peak","name":"Kamenný vrch","lat":49.6788429,"lon":15.9318812,"elevationM":803},{"id":"node:3338454105","kind":"peak","name":"Vlachov","lat":49.7897421,"lon":15.0289793,"elevationM":467},{"id":"node:3669231362","kind":"peak","name":"Žebrákovský kopec","lat":49.6822123,"lon":15.365028,"elevationM":601},{"id":"node:3692753362","kind":"peak","name":"Peklo","lat":49.4668718,"lon":15.4961097,"elevationM":699},{"id":"node:3692770555","kind":"peak","name":"Roháč","lat":49.4579341,"lon":15.5268939,"elevationM":684},{"id":"node:3692770556","kind":"peak","name":"Trojan","lat":49.4532556,"lon":15.4914713,"elevationM":659},{"id":"node:3711095822","kind":"peak","name":"Pyramida","lat":49.6184231,"lon":15.4124981,"elevationM":620},{"id":"node:3840805556","kind":"peak","name":"Vysoká skála","lat":49.9660694,"lon":15.632686,"elevationM":null},{"id":"node:3906126723","kind":"peak","name":"Na Mlýncích","lat":49.1042048,"lon":15.7559723,"elevationM":526},{"id":"node:3906127299","kind":"peak","name":"Přední kopec","lat":49.0980932,"lon":15.7595026,"elevationM":528},{"id":"node:3918187232","kind":"peak","name":"Kunějovský vrch","lat":49.0740987,"lon":15.1378792,"elevationM":724},{"id":"node:3918187233","kind":"peak","name":"Vysoký kámen","lat":49.0878275,"lon":15.185974,"elevationM":732},{"id":"node:3925194316","kind":"peak","name":"Schullerův kámen","lat":49.0169074,"lon":15.0074195,"elevationM":494},{"id":"node:3937170704","kind":"peak","name":"Hrádeček","lat":49.1039856,"lon":15.0293174,"elevationM":533},{"id":"node:3951225644","kind":"peak","name":"Bída","lat":49.0579508,"lon":15.058433,"elevationM":600},{"id":"node:3951225734","kind":"peak","name":"Černý vrch","lat":49.0973918,"lon":15.0691208,"elevationM":602},{"id":"node:3951225735","kind":"peak","name":"Řasy","lat":49.0789262,"lon":15.0664129,"elevationM":642},{"id":"node:4066382038","kind":"peak","name":"Hradiště","lat":49.7552786,"lon":15.6867868,"elevationM":483},{"id":"node:4066382039","kind":"peak","name":"Rouzeň","lat":49.7662087,"lon":15.6354735,"elevationM":452},{"id":"node:4210756342","kind":"peak","name":"Markova skála","lat":49.8322841,"lon":15.671572,"elevationM":null},{"id":"node:4223022930","kind":"peak","name":"Bučina","lat":49.8792006,"lon":15.6508551,"elevationM":606},{"id":"node:4227520243","kind":"peak","name":"Olšina","lat":49.8279126,"lon":15.6513335,"elevationM":559},{"id":"node:4232063806","kind":"peak","name":"Malý Oheb","lat":49.8354334,"lon":15.6496501,"elevationM":512},{"id":"node:4333432728","kind":"peak","name":"Zemanův kopec","lat":49.5073806,"lon":15.9606687,"elevationM":558},{"id":"node:4343403909","kind":"peak","name":"Čihadlo","lat":49.3996316,"lon":15.3145081,"elevationM":711},{"id":"node:4344085332","kind":"peak","name":"Tapač","lat":49.3815259,"lon":15.2985933,"elevationM":665},{"id":"node:4349497164","kind":"peak","name":"Puchýrna","lat":49.4561191,"lon":15.5437852,"elevationM":578},{"id":"node:4364683881","kind":"peak","name":"Mešnice","lat":49.3776758,"lon":15.3975625,"elevationM":756},{"id":"node:4418761316","kind":"peak","name":"Fučíkův vršek","lat":49.4914626,"lon":15.3705196,"elevationM":580},{"id":"node:4418761318","kind":"peak","name":"Soví hať","lat":49.4821218,"lon":15.3689241,"elevationM":619},{"id":"node:4690383200","kind":"peak","name":"Pekelský vrch","lat":49.395231,"lon":15.5114332,"elevationM":580},{"id":"node:4690383201","kind":"peak","name":"Bradlo","lat":49.3877206,"lon":15.5129047,"elevationM":579},{"id":"node:4804271121","kind":"peak","name":"Huťský vrch","lat":49.3663656,"lon":15.4421375,"elevationM":710},{"id":"node:4804302947","kind":"peak","name":"Přední skála","lat":49.3624118,"lon":15.425097,"elevationM":714},{"id":"node:4804335818","kind":"peak","name":"Březina","lat":49.3866222,"lon":15.4323831,"elevationM":743},{"id":"node:4804373518","kind":"peak","name":"Suchý kopec","lat":49.3823372,"lon":15.4473844,"elevationM":678},{"id":"node:4804463051","kind":"peak","name":"Skalka","lat":49.3782454,"lon":15.4206285,"elevationM":703},{"id":"node:4914284899","kind":"peak","name":"Velký Kuklík","lat":49.9642331,"lon":15.2492741,"elevationM":356},{"id":"node:4914284900","kind":"peak","name":"Malý Kuklík","lat":49.9644832,"lon":15.2449773,"elevationM":356},{"id":"node:4974216067","kind":"peak","name":"Javornická hůra","lat":49.6809523,"lon":15.0144331,"elevationM":583},{"id":"node:5004331609","kind":"peak","name":"Špilberk","lat":49.4220646,"lon":15.3983855,"elevationM":690},{"id":"node:5015818715","kind":"peak","name":"Spálený vrch","lat":49.4033464,"lon":15.343228,"elevationM":741},{"id":"node:5015858920","kind":"peak","name":"Vrchy","lat":49.4016307,"lon":15.2857013,"elevationM":652},{"id":"node:5015860722","kind":"peak","name":"Kučerův vrch","lat":49.40228,"lon":15.2925396,"elevationM":674},{"id":"node:5015860723","kind":"peak","name":"Špeták","lat":49.4065788,"lon":15.3374478,"elevationM":749},{"id":"node:5026879523","kind":"peak","name":"Temník","lat":49.4957124,"lon":15.4554137,"elevationM":662},{"id":"node:5032023367","kind":"peak","name":"Šeredův kopec","lat":49.4794487,"lon":15.4366073,"elevationM":659},{"id":"node:5032023368","kind":"peak","name":"Kalhovský vrch","lat":49.4837466,"lon":15.4443904,"elevationM":693},{"id":"node:5032033602","kind":"peak","name":"Zbinožský kopec","lat":49.4830341,"lon":15.4891116,"elevationM":705},{"id":"node:5092855941","kind":"peak","name":"Rejd","lat":49.4792187,"lon":15.0201118,"elevationM":590},{"id":"node:5092856624","kind":"peak","name":"Ve Vrších","lat":49.4537083,"lon":15.0217335,"elevationM":589},{"id":"node:5092868979","kind":"peak","name":"Vršík","lat":49.4602517,"lon":15.0461061,"elevationM":587},{"id":"node:5092883826","kind":"peak","name":"U Hrušky","lat":49.4955345,"lon":15.0200893,"elevationM":554},{"id":"node:5092908615","kind":"peak","name":"V Čihadle","lat":49.4507553,"lon":15.0698642,"elevationM":617},{"id":"node:5092909587","kind":"peak","name":"Kobyla","lat":49.4611696,"lon":15.0913333,"elevationM":586},{"id":"node:5092914020","kind":"peak","name":"Na Vršku","lat":49.4672082,"lon":15.0952171,"elevationM":562},{"id":"node:5092919160","kind":"peak","name":"Hůrka","lat":49.488559,"lon":15.0926702,"elevationM":554},{"id":"node:5303702002","kind":"peak","name":"Podhůra","lat":49.9140674,"lon":15.7802814,"elevationM":356},{"id":"node:5303702003","kind":"peak","name":"Hůra","lat":49.907984,"lon":15.7909489,"elevationM":393},{"id":"node:5303702005","kind":"peak","name":"Na Chlumu","lat":49.9031183,"lon":15.7926806,"elevationM":381},{"id":"node:5303702008","kind":"peak","name":"Zabitý kopec","lat":49.8946505,"lon":15.7789494,"elevationM":363},{"id":"node:5303702009","kind":"peak","name":"Příčný","lat":49.8908669,"lon":15.7907167,"elevationM":369},{"id":"node:5337635674","kind":"peak","name":"Strážný kopec","lat":49.2574072,"lon":15.2737534,"elevationM":706},{"id":"node:5421183671","kind":"peak","name":"Vysoký kámen","lat":49.46283,"lon":15.5669912,"elevationM":661},{"id":"node:5421183677","kind":"peak","name":"Ptačí vrch","lat":49.4532493,"lon":15.5753633,"elevationM":637},{"id":"node:5421202478","kind":"peak","name":"U serpentinky","lat":49.4802475,"lon":15.5700517,"elevationM":630},{"id":"node:5421207253","kind":"peak","name":"Suchý kopec","lat":49.476905,"lon":15.5338687,"elevationM":645},{"id":"node:5421225400","kind":"peak","name":"Nivka","lat":49.4129552,"lon":15.2854786,"elevationM":623},{"id":"node:5421225405","kind":"peak","name":"Hurdův vrch","lat":49.4238226,"lon":15.3045452,"elevationM":654},{"id":"node:5421225408","kind":"peak","name":"Na skalce","lat":49.4002709,"lon":15.3584683,"elevationM":713},{"id":"node:5421231902","kind":"peak","name":"Hadí vrch","lat":49.4214498,"lon":15.3561938,"elevationM":668},{"id":"node:5459410867","kind":"peak","name":"Spálensko","lat":49.6285463,"lon":15.2826705,"elevationM":646},{"id":"node:5459526972","kind":"peak","name":"Šeptouchov","lat":49.6946631,"lon":15.2678875,"elevationM":422},{"id":"node:5531650432","kind":"peak","name":"Prašivec","lat":49.4647424,"lon":15.7090974,"elevationM":574},{"id":"node:5531650435","kind":"peak","name":"Homole","lat":49.4781916,"lon":15.7110971,"elevationM":544},{"id":"node:5538324981","kind":"peak","name":"275","lat":49.9603729,"lon":15.2693553,"elevationM":275},{"id":"node:5547194924","kind":"peak","name":"Borek","lat":49.1223563,"lon":15.0355807,"elevationM":null},{"id":"node:5586785170","kind":"peak","name":"U Obrázku","lat":49.1780177,"lon":15.6500607,"elevationM":684},{"id":"node:5615312839","kind":"peak","name":"Králův vrch","lat":49.2341001,"lon":15.0195833,"elevationM":557},{"id":"node:5744220019","kind":"peak","name":"Čertův stolek","lat":49.7135159,"lon":15.7119834,"elevationM":null},{"id":"node:5746546520","kind":"peak","name":"Okrouhlík","lat":49.5197342,"lon":15.4195315,"elevationM":null},{"id":"node:5746546682","kind":"peak","name":"V oboře","lat":49.5211829,"lon":15.4041409,"elevationM":null},{"id":"node:5774889572","kind":"peak","name":"Větrník","lat":49.3801739,"lon":15.5799602,"elevationM":571},{"id":"node:5774889603","kind":"peak","name":"Smrček","lat":49.0371868,"lon":15.5321927,"elevationM":517},{"id":"node:5774889604","kind":"peak","name":"Vlčí hora","lat":49.0400334,"lon":15.550736,"elevationM":504},{"id":"node:5774889605","kind":"peak","name":"Na Stráži","lat":49.0121439,"lon":15.5350762,"elevationM":522},{"id":"node:5774889606","kind":"peak","name":"Větrník","lat":49.0198036,"lon":15.4826655,"elevationM":572},{"id":"node:5808532826","kind":"peak","name":"Korunní kopec","lat":49.3483933,"lon":15.5197562,"elevationM":662},{"id":"node:6137479110","kind":"peak","name":"Krkanka","lat":49.895858,"lon":15.5754159,"elevationM":568},{"id":"node:6175230414","kind":"peak","name":"U Šmejdů buku","lat":49.0534586,"lon":15.0222151,"elevationM":591},{"id":"node:6175230419","kind":"peak","name":"Kovář","lat":49.0407132,"lon":15.0159249,"elevationM":579},{"id":"node:6219236095","kind":"peak","name":"Stařeček","lat":49.0773186,"lon":15.4826797,"elevationM":542},{"id":"node:6219437581","kind":"peak","name":"Hradisko","lat":49.1542,"lon":15.3377179,"elevationM":761},{"id":"node:6219437582","kind":"peak","name":"Pivničky","lat":49.1570403,"lon":15.3259265,"elevationM":760},{"id":"node:6257496545","kind":"peak","name":"Orlov","lat":49.3860967,"lon":15.1343293,"elevationM":674},{"id":"node:6316320613","kind":"peak","name":"Stražiště","lat":49.5358227,"lon":15.0038524,"elevationM":744},{"id":"node:6480238472","kind":"peak","name":"Bárův kopec","lat":49.8856904,"lon":15.8022938,"elevationM":354},{"id":"node:6494046977","kind":"peak","name":"Uhliště","lat":49.0153419,"lon":15.2829051,"elevationM":705},{"id":"node:6499449545","kind":"peak","name":"Sternberg","lat":49.0091855,"lon":15.0516938,"elevationM":616},{"id":"node:6500838292","kind":"peak","name":"Obora","lat":49.0011613,"lon":15.1060378,"elevationM":656},{"id":"node:6574816188","kind":"peak","name":"Žehušická skalka","lat":49.9734127,"lon":15.3982119,"elevationM":225},{"id":"node:6694755341","kind":"peak","name":"U sv. Anny","lat":49.3659721,"lon":15.9935912,"elevationM":null},{"id":"node:6801378500","kind":"peak","name":"Bednářská skála (Habešák)","lat":49.3246856,"lon":15.3334498,"elevationM":615},{"id":"node:6801428083","kind":"peak","name":"Pustý vrch","lat":49.3067695,"lon":15.324408,"elevationM":614},{"id":"node:6801428084","kind":"peak","name":"Jelení hora","lat":49.3328965,"lon":15.3240787,"elevationM":656},{"id":"node:6802445916","kind":"peak","name":"Čížkův vrch","lat":49.2980139,"lon":15.3277322,"elevationM":641},{"id":"node:6802445917","kind":"peak","name":"Na Planinách","lat":49.3083931,"lon":15.2924929,"elevationM":684},{"id":"node:6901873280","kind":"peak","name":"Bradelský vrch","lat":49.3962007,"lon":15.5400901,"elevationM":585},{"id":"node:6927128855","kind":"peak","name":"Kostelecký vrch","lat":49.3580916,"lon":15.5057387,"elevationM":657},{"id":"node:6927128856","kind":"peak","name":"Vodárenský vrch","lat":49.380973,"lon":15.5561401,"elevationM":594},{"id":"node:6969448430","kind":"peak","name":"Putimov","lat":49.4181073,"lon":15.2527221,"elevationM":633},{"id":"node:6969448435","kind":"peak","name":"Slavíčkův vrch","lat":49.3780605,"lon":15.2509026,"elevationM":null},{"id":"node:6969448438","kind":"peak","name":"Homole","lat":49.3750606,"lon":15.2760919,"elevationM":638},{"id":"node:6969460852","kind":"peak","name":"Svatá Anna","lat":49.4432,"lon":15.2354591,"elevationM":570},{"id":"node:6969460853","kind":"peak","name":"V hatích","lat":49.4363701,"lon":15.2497112,"elevationM":605},{"id":"node:6969460857","kind":"peak","name":"Kocour","lat":49.4305512,"lon":15.2530341,"elevationM":609},{"id":"node:6969474046","kind":"peak","name":"Váňův vršek","lat":49.3995081,"lon":15.2162024,"elevationM":586},{"id":"node:6969474048","kind":"peak","name":"Štanfle","lat":49.4138734,"lon":15.1834068,"elevationM":612},{"id":"node:6969474053","kind":"peak","name":"Hosopýl","lat":49.4247448,"lon":15.182568,"elevationM":null},{"id":"node:6969474055","kind":"peak","name":"Varta","lat":49.4319691,"lon":15.1822235,"elevationM":624},{"id":"node:6969474056","kind":"peak","name":"Horpiálek","lat":49.4416481,"lon":15.1914345,"elevationM":603},{"id":"node:6969474058","kind":"peak","name":"U pekla","lat":49.4442329,"lon":15.2133496,"elevationM":547},{"id":"node:6969481727","kind":"peak","name":"Pavlovský kopec","lat":49.40489,"lon":15.2462951,"elevationM":566},{"id":"node:6969481728","kind":"peak","name":"Zelený vrch","lat":49.3881204,"lon":15.1886164,"elevationM":636},{"id":"node:6969481729","kind":"peak","name":"Bečkův vrch","lat":49.38465,"lon":15.2240618,"elevationM":574},{"id":"node:7049205373","kind":"peak","name":"Poupil","lat":49.8054834,"lon":15.1851261,"elevationM":541},{"id":"node:7051558557","kind":"peak","name":"Roudnice","lat":49.6245683,"lon":15.8041568,"elevationM":661},{"id":"node:7066097502","kind":"peak","name":"Rudný","lat":49.434923,"lon":15.5812362,"elevationM":613},{"id":"node:7146633286","kind":"peak","name":"U ručiček","lat":49.1425892,"lon":15.32332,"elevationM":640},{"id":"node:7363569694","kind":"peak","name":"Sukov","lat":49.969305,"lon":15.2663393,"elevationM":336},{"id":"node:7363569695","kind":"peak","name":"Kaňk","lat":49.9720774,"lon":15.2785909,"elevationM":353},{"id":"node:7679663940","kind":"peak","name":"Šibeník","lat":49.0856638,"lon":15.2307529,"elevationM":732},{"id":"node:7692271151","kind":"peak","name":"Vysoký kámen","lat":49.0633489,"lon":15.2408885,"elevationM":728},{"id":"node:7692319993","kind":"peak","name":"Skalka","lat":49.0990486,"lon":15.2192001,"elevationM":703},{"id":"node:7855843108","kind":"peak","name":"Křenička","lat":49.3406992,"lon":15.9688586,"elevationM":null},{"id":"node:7948786262","kind":"peak","name":"Jizbický kopec","lat":49.6172629,"lon":15.0205159,"elevationM":602},{"id":"node:8043918028","kind":"peak","name":"Balkán","lat":49.3627191,"lon":15.7077313,"elevationM":554},{"id":"node:8268352451","kind":"peak","name":"Homole","lat":49.6854811,"lon":15.446392,"elevationM":553},{"id":"node:8268352452","kind":"peak","name":"Hejlice","lat":49.688437,"lon":15.4436979,"elevationM":550},{"id":"node:8268352453","kind":"peak","name":"Malá Homole","lat":49.6744575,"lon":15.4469681,"elevationM":547},{"id":"node:8418291744","kind":"peak","name":"Kubalov","lat":49.2452048,"lon":15.0170123,"elevationM":596},{"id":"node:8530156507","kind":"peak","name":"Vávrův kopec","lat":49.4604503,"lon":15.2094354,"elevationM":589},{"id":"node:8530156508","kind":"peak","name":"Kostelík","lat":49.4554639,"lon":15.2039256,"elevationM":593},{"id":"node:8686694773","kind":"peak","name":"U sv. Antonína","lat":49.4126938,"lon":15.4884589,"elevationM":629},{"id":"node:9041823549","kind":"peak","name":"Růžový kopec","lat":49.2557983,"lon":15.398615,"elevationM":708},{"id":"node:9048025769","kind":"peak","name":"V horách","lat":49.5602607,"lon":15.3511293,"elevationM":561},{"id":"node:9122712365","kind":"peak","name":"Vršek","lat":49.343932,"lon":15.5118759,"elevationM":638},{"id":"node:9122712366","kind":"peak","name":"Hůrka","lat":49.3676625,"lon":15.5414283,"elevationM":624},{"id":"node:9122712368","kind":"peak","name":"Suchá","lat":49.3187554,"lon":15.5870822,"elevationM":633},{"id":"node:9122734709","kind":"peak","name":"Kamenný kopec","lat":49.3755331,"lon":15.5250182,"elevationM":652},{"id":"node:9122734710","kind":"peak","name":"Vysoká","lat":49.3647979,"lon":15.5285704,"elevationM":664},{"id":"node:9122734711","kind":"peak","name":"Na šibenici","lat":49.3712592,"lon":15.5031628,"elevationM":576},{"id":"node:9123969728","kind":"peak","name":"Letná","lat":49.4939385,"lon":15.5766396,"elevationM":612},{"id":"node:9124936059","kind":"peak","name":"U liščích kamenů","lat":49.3739799,"lon":15.3053067,"elevationM":685},{"id":"node:9124936060","kind":"peak","name":"Vratnice","lat":49.3837017,"lon":15.3361296,"elevationM":691},{"id":"node:9124936061","kind":"peak","name":"Lísek","lat":49.3576073,"lon":15.3720348,"elevationM":645},{"id":"node:9124936062","kind":"peak","name":"Skála","lat":49.3550335,"lon":15.3674486,"elevationM":676},{"id":"node:9205025203","kind":"peak","name":"Na Homoli","lat":49.9015914,"lon":15.9616753,"elevationM":309},{"id":"node:9235146141","kind":"peak","name":"Weißenberg","lat":49.0063906,"lon":15.0277948,"elevationM":582},{"id":"node:9240823608","kind":"peak","name":"Smrčina","lat":49.8798668,"lon":15.6961982,"elevationM":545},{"id":"node:9240859025","kind":"peak","name":"Smrt","lat":49.8991962,"lon":15.7029418,"elevationM":461},{"id":"node:9241276831","kind":"peak","name":"Skála","lat":49.9157973,"lon":15.5666092,"elevationM":490},{"id":"node:9241276834","kind":"peak","name":"Skalička","lat":49.8866685,"lon":15.6079632,"elevationM":479},{"id":"node:9241276835","kind":"peak","name":"Nohavice","lat":49.8920758,"lon":15.5771675,"elevationM":565},{"id":"node:9285619290","kind":"peak","name":"Kleniční","lat":49.0904503,"lon":15.460399,"elevationM":523},{"id":"node:9316318053","kind":"peak","name":"Strážnice","lat":49.4187203,"lon":15.9458622,"elevationM":610},{"id":"node:9316318054","kind":"peak","name":"Dědkovský kříb","lat":49.4195993,"lon":15.9264608,"elevationM":639},{"id":"node:9316318056","kind":"peak","name":"Dědkovská hora","lat":49.4254973,"lon":15.9003887,"elevationM":694},{"id":"node:9316318057","kind":"peak","name":"Kyjov","lat":49.4442746,"lon":15.8915001,"elevationM":703},{"id":"node:9324898444","kind":"peak","name":"Zárubka","lat":49.8361636,"lon":15.9028917,"elevationM":455},{"id":"node:9344116378","kind":"peak","name":"Opatovický vrch","lat":49.9578791,"lon":15.1909285,"elevationM":421},{"id":"node:9462947488","kind":"peak","name":"Vysoká","lat":49.9422862,"lon":15.1879724,"elevationM":471},{"id":"node:9476158192","kind":"peak","name":"Jankův kopec","lat":49.5895428,"lon":15.7492343,"elevationM":519},{"id":"node:9556330948","kind":"peak","name":"Ochoz","lat":49.8402827,"lon":15.8121202,"elevationM":520},{"id":"node:9556739167","kind":"peak","name":"Malešovský vrch","lat":49.9223032,"lon":15.1386053,"elevationM":459},{"id":"node:9556739168","kind":"peak","name":"Kamenný vrch","lat":49.957049,"lon":15.1176248,"elevationM":371},{"id":"node:9556739169","kind":"peak","name":"Chlum","lat":49.9810735,"lon":15.1181856,"elevationM":357},{"id":"node:9556739170","kind":"peak","name":"Písečný vrch","lat":49.915286,"lon":15.2222204,"elevationM":361},{"id":"node:9576445727","kind":"peak","name":"Na hradci","lat":49.8392108,"lon":15.5332142,"elevationM":342},{"id":"node:9576459806","kind":"peak","name":"Tisá skála","lat":49.8447574,"lon":15.419133,"elevationM":392},{"id":"node:9654105128","kind":"peak","name":"U křížku","lat":49.9957741,"lon":15.6224269,"elevationM":260},{"id":"node:9676744853","kind":"peak","name":"Hroubovický kopec","lat":49.8840591,"lon":15.9839969,"elevationM":351},{"id":"node:9676744857","kind":"peak","name":"Rabštejnek","lat":49.9027911,"lon":15.7529759,"elevationM":401},{"id":"node:9761337525","kind":"peak","name":"Homole","lat":49.673529,"lon":15.4468139,"elevationM":547},{"id":"node:9761337534","kind":"peak","name":"Vršek","lat":49.6813611,"lon":15.4635729,"elevationM":558},{"id":"node:9763618192","kind":"peak","name":"Homole","lat":49.8542992,"lon":15.5261785,"elevationM":346},{"id":"node:9900655295","kind":"peak","name":"Liščí vrch","lat":49.1125861,"lon":15.1746599,"elevationM":647},{"id":"node:9900655296","kind":"peak","name":"Fenka","lat":49.1333081,"lon":15.1784219,"elevationM":609},{"id":"node:9937507334","kind":"peak","name":"Vitizek","lat":49.880213,"lon":15.877673,"elevationM":316},{"id":"node:10000354506","kind":"peak","name":"Urbanečský vrch","lat":49.0388131,"lon":15.413097,"elevationM":570},{"id":"node:10067101340","kind":"peak","name":"Na Chocolce","lat":49.890852,"lon":15.7398495,"elevationM":452},{"id":"node:10067101343","kind":"peak","name":"Bučina","lat":49.8333474,"lon":15.641139,"elevationM":534},{"id":"node:10120572786","kind":"peak","name":"Šenkýřka","lat":49.586847,"lon":15.7149419,"elevationM":484},{"id":"node:10210118929","kind":"peak","name":"Medkovy kopce","lat":49.7808511,"lon":15.9349649,"elevationM":638},{"id":"node:10292709014","kind":"peak","name":"Kamenný vrch","lat":49.0425531,"lon":15.214226,"elevationM":689},{"id":"node:10292709016","kind":"peak","name":"Javoří hora","lat":49.0682921,"lon":15.2172069,"elevationM":700},{"id":"node:10292709018","kind":"peak","name":"Velký kopec","lat":49.083756,"lon":15.2029619,"elevationM":692},{"id":"node:10307262214","kind":"peak","name":"Na Synci","lat":49.89326,"lon":15.666795,"elevationM":508},{"id":"node:10307262217","kind":"peak","name":"Jahodnice","lat":49.886543,"lon":15.8510259,"elevationM":343},{"id":"node:10309100448","kind":"peak","name":"Hořička","lat":49.858538,"lon":15.9005519,"elevationM":385},{"id":"node:10586616173","kind":"peak","name":"Pešava","lat":49.7507794,"lon":15.959722,"elevationM":697},{"id":"node:10586616419","kind":"peak","name":"Zuberský vrch","lat":49.7783641,"lon":15.7939535,"elevationM":650},{"id":"node:10599909125","kind":"peak","name":"Spravedlnost","lat":49.1372054,"lon":15.5726318,"elevationM":null},{"id":"node:10698888623","kind":"peak","name":"Blažkov","lat":49.4930695,"lon":15.829577,"elevationM":694},{"id":"node:10719759377","kind":"peak","name":"Čtrnáctka","lat":49.0012331,"lon":15.418964,"elevationM":598},{"id":"node:10759663104","kind":"peak","name":"Plhov","lat":49.7312442,"lon":15.6878076,"elevationM":482},{"id":"node:10916599126","kind":"peak","name":"Na veselickém kopci","lat":49.607321,"lon":15.5341874,"elevationM":465},{"id":"node:10916599128","kind":"peak","name":"Vadínský kopec","lat":49.6105382,"lon":15.4967361,"elevationM":470},{"id":"node:10959525313","kind":"peak","name":"Horní Chlum","lat":49.654272,"lon":15.5188621,"elevationM":570},{"id":"node:10997213748","kind":"peak","name":"Borový vrch","lat":49.4423685,"lon":15.4135177,"elevationM":697},{"id":"node:10997233433","kind":"peak","name":"Hrachovec","lat":49.4303896,"lon":15.4163759,"elevationM":685},{"id":"node:11007753682","kind":"peak","name":"Farský kopec","lat":49.2454002,"lon":15.4043561,"elevationM":669},{"id":"node:11007753683","kind":"peak","name":"Řídelovský kopec","lat":49.2521769,"lon":15.3859945,"elevationM":716},{"id":"node:11007753684","kind":"peak","name":"Farářský kopec","lat":49.2583971,"lon":15.40399,"elevationM":706},{"id":"node:11009571599","kind":"peak","name":"Vondrova skalka","lat":49.2349922,"lon":15.3860506,"elevationM":701},{"id":"node:11009571600","kind":"peak","name":"Stříbrný vrch","lat":49.2329016,"lon":15.3052415,"elevationM":760},{"id":"node:11009571601","kind":"peak","name":"Široký kámen","lat":49.2157854,"lon":15.3520631,"elevationM":771},{"id":"node:11049899686","kind":"peak","name":"Malíkovský kopec","lat":49.0505611,"lon":15.0099153,"elevationM":574},{"id":"node:11049899690","kind":"peak","name":"Kamenný vrch","lat":49.0880587,"lon":15.038692,"elevationM":537},{"id":"node:11049899692","kind":"peak","name":"Kunejovský kopec","lat":49.0791491,"lon":15.1132969,"elevationM":683},{"id":"node:11049899693","kind":"peak","name":"Kozlíkův kopec","lat":49.083242,"lon":15.113939,"elevationM":676},{"id":"node:11049899697","kind":"peak","name":"Suchý vrch","lat":49.1126339,"lon":15.0518863,"elevationM":551},{"id":"node:11049899699","kind":"peak","name":"Čihadlo","lat":49.1424287,"lon":15.0652915,"elevationM":546},{"id":"node:11049899701","kind":"peak","name":"Hrůzův kopec","lat":49.2078281,"lon":15.1600314,"elevationM":613},{"id":"node:11049899702","kind":"peak","name":"Horní les","lat":49.1879143,"lon":15.1493224,"elevationM":586},{"id":"node:11049899703","kind":"peak","name":"Na Kopci","lat":49.1798489,"lon":15.1098464,"elevationM":592},{"id":"node:11049899704","kind":"peak","name":"Pihalův kopec","lat":49.1733518,"lon":15.066595,"elevationM":515},{"id":"node:11049919805","kind":"peak","name":"Kalcův kopec","lat":49.1699447,"lon":15.0364257,"elevationM":499},{"id":"node:11049919809","kind":"peak","name":"Dlouhý kopec","lat":49.2148361,"lon":15.004954,"elevationM":554},{"id":"node:11049919838","kind":"peak","name":"Bohutín","lat":49.3599393,"lon":15.0253755,"elevationM":712},{"id":"node:11049919839","kind":"peak","name":"Hřeben","lat":49.3348742,"lon":15.0375049,"elevationM":659},{"id":"node:11049919840","kind":"peak","name":"Přední Kamenická hora","lat":49.3129349,"lon":15.0551498,"elevationM":631},{"id":"node:11049919841","kind":"peak","name":"Kropáč","lat":49.2743767,"lon":15.0352503,"elevationM":625},{"id":"node:11049919842","kind":"peak","name":"Veselkův vrch","lat":49.2653171,"lon":15.0153943,"elevationM":638},{"id":"node:11059328175","kind":"peak","name":"541","lat":49.4101389,"lon":15.6221494,"elevationM":null},{"id":"node:11059328176","kind":"peak","name":"Kázek","lat":49.4193448,"lon":15.6250334,"elevationM":567},{"id":"node:11102799165","kind":"peak","name":"Strážnice","lat":49.7903516,"lon":15.0824876,"elevationM":496},{"id":"node:11102799166","kind":"peak","name":"Pohoř","lat":49.7839822,"lon":15.1071976,"elevationM":507},{"id":"node:11102799167","kind":"peak","name":"Čihadlo","lat":49.7799179,"lon":15.1234026,"elevationM":531},{"id":"node:11174390530","kind":"peak","name":"Pánův kopec","lat":49.2542924,"lon":15.3198971,"elevationM":712},{"id":"node:11174393763","kind":"peak","name":"Hamr","lat":49.2518324,"lon":15.4632682,"elevationM":651},{"id":"node:11174393764","kind":"peak","name":"Vyštěnec","lat":49.256984,"lon":15.4275377,"elevationM":687},{"id":"node:11174424458","kind":"peak","name":"Skelný vrch","lat":49.2561172,"lon":15.3434806,"elevationM":788},{"id":"node:11183300413","kind":"peak","name":"Královský vršek","lat":49.4135392,"lon":15.5875909,"elevationM":523},{"id":"node:11183380112","kind":"peak","name":"Kamenný kopeček","lat":49.4254731,"lon":15.6272357,"elevationM":556},{"id":"node:11183401883","kind":"peak","name":"Borovice","lat":49.4342751,"lon":15.567296,"elevationM":582},{"id":"node:11185060684","kind":"peak","name":"Na dílech","lat":49.4745488,"lon":15.4501107,"elevationM":694},{"id":"node:11185060781","kind":"peak","name":"Ve Vršku","lat":49.396683,"lon":15.3865335,"elevationM":697},{"id":"node:11185060783","kind":"peak","name":"Stráž","lat":49.4004016,"lon":15.3823963,"elevationM":693},{"id":"node:11185060784","kind":"peak","name":"Kopec","lat":49.4049823,"lon":15.402229,"elevationM":696},{"id":"node:11185091491","kind":"peak","name":"Strahovice","lat":49.2782882,"lon":15.3390696,"elevationM":701},{"id":"node:11185091492","kind":"peak","name":"Ještěnice","lat":49.2749794,"lon":15.3317699,"elevationM":711},{"id":"node:11185091495","kind":"peak","name":"Malý skalní vrch","lat":49.2309157,"lon":15.3242904,"elevationM":765},{"id":"node:11185108183","kind":"peak","name":"Na Čtvrtích","lat":49.2878481,"lon":15.3244754,"elevationM":659},{"id":"node:11185110734","kind":"peak","name":"Kobylí ohon","lat":49.2334266,"lon":15.3940623,"elevationM":653},{"id":"node:11185135769","kind":"peak","name":"Vrch","lat":49.2284926,"lon":15.2874819,"elevationM":701},{"id":"node:11185135771","kind":"peak","name":"V Kopcích","lat":49.2134411,"lon":15.2852088,"elevationM":729},{"id":"node:11185135777","kind":"peak","name":"Obecní kopec","lat":49.2369787,"lon":15.4124352,"elevationM":660},{"id":"node:11185146137","kind":"peak","name":"Velký Kopec","lat":49.2795015,"lon":15.388847,"elevationM":666},{"id":"node:11185146138","kind":"peak","name":"Křepílek","lat":49.2710901,"lon":15.3895567,"elevationM":722},{"id":"node:11185146181","kind":"peak","name":"Skalka","lat":49.2070201,"lon":15.3487546,"elevationM":686},{"id":"node:11185146911","kind":"peak","name":"Vrchy","lat":49.178823,"lon":15.3543968,"elevationM":626},{"id":"node:11185146912","kind":"peak","name":"Beranov","lat":49.1874585,"lon":15.3475732,"elevationM":643},{"id":"node:11185146913","kind":"peak","name":"Písková hora","lat":49.1781652,"lon":15.340251,"elevationM":652},{"id":"node:11185146914","kind":"peak","name":"Babí hora","lat":49.1811897,"lon":15.3176466,"elevationM":708},{"id":"node:11185236816","kind":"peak","name":"Triangl","lat":49.3806977,"lon":15.5365655,"elevationM":607},{"id":"node:11185244865","kind":"peak","name":"Jelení skok","lat":49.2944596,"lon":15.5105929,"elevationM":658},{"id":"node:11185255769","kind":"peak","name":"Bažantnice","lat":49.3483709,"lon":15.4957623,"elevationM":565},{"id":"node:11185261629","kind":"peak","name":"Kopeček","lat":49.4102015,"lon":15.7835782,"elevationM":627},{"id":"node:11185266860","kind":"peak","name":"Kosovská hůrka","lat":49.3934864,"lon":15.6326966,"elevationM":548},{"id":"node:11185268467","kind":"peak","name":"Kamenný kopec","lat":49.3326854,"lon":15.5091936,"elevationM":634},{"id":"node:11185268468","kind":"peak","name":"Vlčí vrch","lat":49.3323927,"lon":15.5022959,"elevationM":625},{"id":"node:11185278784","kind":"peak","name":"Cahův vrch","lat":49.3711726,"lon":15.6401484,"elevationM":594},{"id":"node:11185299379","kind":"peak","name":"Zaječí vrch","lat":49.5244574,"lon":15.3558926,"elevationM":620},{"id":"node:11185299380","kind":"peak","name":"Šibeniční kopec","lat":49.5331316,"lon":15.3686548,"elevationM":606},{"id":"node:11185299381","kind":"peak","name":"U svatého Václava","lat":49.5296001,"lon":15.3752324,"elevationM":643},{"id":"node:11185316976","kind":"peak","name":"Veský vrch","lat":49.5062176,"lon":15.340826,"elevationM":593},{"id":"node:11185319618","kind":"peak","name":"Na Skále","lat":49.5017514,"lon":15.4827371,"elevationM":611},{"id":"node:11185319619","kind":"peak","name":"Kašparův vrch","lat":49.4919892,"lon":15.4830606,"elevationM":651},{"id":"node:11185323527","kind":"peak","name":"Krásná vyhlídka","lat":49.5206694,"lon":15.3667636,"elevationM":662},{"id":"node:11185323528","kind":"peak","name":"Holý vrch","lat":49.5156825,"lon":15.3881956,"elevationM":662},{"id":"node:11185323530","kind":"peak","name":"Stráž","lat":49.5047853,"lon":15.4138232,"elevationM":653},{"id":"node:11185325774","kind":"peak","name":"Jalovčí","lat":49.502577,"lon":15.5052293,"elevationM":668},{"id":"node:11185325775","kind":"peak","name":"Suchý vrch","lat":49.4950237,"lon":15.5137509,"elevationM":683},{"id":"node:11185372821","kind":"peak","name":"Holý vrch","lat":49.547813,"lon":15.0250444,"elevationM":704},{"id":"node:11185372822","kind":"peak","name":"Spálený vrch","lat":49.5457771,"lon":15.0183804,"elevationM":719},{"id":"node:11185373781","kind":"peak","name":"Černý vrch","lat":49.4735972,"lon":15.3226576,"elevationM":615},{"id":"node:11185413646","kind":"peak","name":"Na Vršku","lat":49.4706737,"lon":15.2855345,"elevationM":608},{"id":"node:11185415220","kind":"peak","name":"Hůrka","lat":49.4666408,"lon":15.2681567,"elevationM":582},{"id":"node:11185491515","kind":"peak","name":"Hradiště","lat":49.3353331,"lon":15.8483163,"elevationM":662},{"id":"node:11185491516","kind":"peak","name":"Panský kopec","lat":49.3488301,"lon":15.8388289,"elevationM":668},{"id":"node:11185651717","kind":"peak","name":"Bukovec","lat":49.2874396,"lon":15.7386767,"elevationM":572},{"id":"node:11185651724","kind":"peak","name":"Na Skalici","lat":49.2899082,"lon":15.7735873,"elevationM":524},{"id":"node:11185653304","kind":"peak","name":"Vořanov","lat":49.3253928,"lon":15.8397408,"elevationM":621},{"id":"node:11185662585","kind":"peak","name":"Smrček","lat":49.3112963,"lon":15.8339325,"elevationM":674},{"id":"node:11185677892","kind":"peak","name":"Haškův kopec","lat":49.2622508,"lon":15.7585342,"elevationM":561},{"id":"node:11185677897","kind":"peak","name":"Velká hora","lat":49.2651779,"lon":15.7320822,"elevationM":618},{"id":"node:11185677900","kind":"peak","name":"Vránův kopec","lat":49.271606,"lon":15.7672287,"elevationM":539},{"id":"node:11185697390","kind":"peak","name":"U Hádky","lat":49.3889729,"lon":15.6724221,"elevationM":532},{"id":"node:11185708290","kind":"peak","name":"Na Výhonu","lat":49.3781353,"lon":15.7221366,"elevationM":542},{"id":"node:11185708292","kind":"peak","name":"Pahorek","lat":49.385847,"lon":15.7545699,"elevationM":607},{"id":"node:11185725509","kind":"peak","name":"Hlávkovský kopec","lat":49.4393192,"lon":15.4927771,"elevationM":648},{"id":"node:11185725628","kind":"peak","name":"Vápenný kopec","lat":49.5149636,"lon":15.5743565,"elevationM":597},{"id":"node:11185728420","kind":"peak","name":"Babylon","lat":49.3586092,"lon":15.6872282,"elevationM":564},{"id":"node:11185740243","kind":"peak","name":"Na Františku","lat":49.409488,"lon":15.5405487,"elevationM":554},{"id":"node:11185740244","kind":"peak","name":"Slepičák","lat":49.4032649,"lon":15.5412585,"elevationM":582},{"id":"node:11185742563","kind":"peak","name":"Modříny","lat":49.5121914,"lon":15.5960199,"elevationM":575},{"id":"node:11185750083","kind":"peak","name":"Květnovský kopec","lat":49.5374258,"lon":15.5733301,"elevationM":542},{"id":"node:11185753429","kind":"peak","name":"Březová výšina","lat":49.5035485,"lon":15.6325612,"elevationM":513},{"id":"node:11185754094","kind":"peak","name":"Vysočina","lat":49.5240594,"lon":15.596651,"elevationM":621},{"id":"node:11185768348","kind":"peak","name":"Boucko","lat":49.4207117,"lon":15.443952,"elevationM":662},{"id":"node:11185768350","kind":"peak","name":"Tomšův kopec","lat":49.3894729,"lon":15.4563705,"elevationM":648},{"id":"node:11185771082","kind":"peak","name":"Turkův kopec","lat":49.5294828,"lon":15.5148335,"elevationM":599},{"id":"node:11185778236","kind":"peak","name":"Malín","lat":49.3031569,"lon":15.7003947,"elevationM":634},{"id":"node:11185778863","kind":"peak","name":"Holý vrch","lat":49.3579634,"lon":15.615728,"elevationM":660},{"id":"node:11185779788","kind":"peak","name":"Ločarův kopec","lat":49.5304304,"lon":15.5631778,"elevationM":542},{"id":"node:11185785865","kind":"peak","name":"Máselný kopec","lat":49.5128637,"lon":15.5198489,"elevationM":634},{"id":"node:11185789796","kind":"peak","name":"Strážka","lat":49.2998352,"lon":15.6863613,"elevationM":609},{"id":"node:11185791859","kind":"peak","name":"Výrova skála","lat":49.3228558,"lon":15.686195,"elevationM":585},{"id":"node:11196236730","kind":"peak","name":"Šibeňák","lat":49.1617492,"lon":15.2104483,"elevationM":574},{"id":"node:11196236732","kind":"peak","name":"U Kapličky","lat":49.180097,"lon":15.1754145,"elevationM":507},{"id":"node:11197461571","kind":"peak","name":"Tůmův vrch","lat":49.1988678,"lon":15.1790734,"elevationM":625},{"id":"node:11219496424","kind":"peak","name":"Prostřední kopec","lat":49.6490703,"lon":15.9969185,"elevationM":773},{"id":"node:11255075955","kind":"peak","name":"Stříbrný kopec","lat":49.0578291,"lon":15.3015333,"elevationM":655},{"id":"node:11255075956","kind":"peak","name":"Vichrův kopec","lat":49.0506931,"lon":15.3025844,"elevationM":645},{"id":"node:11255075957","kind":"peak","name":"Bukový vrch","lat":49.0434,"lon":15.2755867,"elevationM":721},{"id":"node:11255075958","kind":"peak","name":"Pekelec","lat":49.038288,"lon":15.2917449,"elevationM":662},{"id":"node:11255075959","kind":"peak","name":"Stříbrný vrch","lat":49.0360661,"lon":15.3143943,"elevationM":655},{"id":"node:11255079861","kind":"peak","name":"Horní kopec","lat":49.0623887,"lon":15.2527666,"elevationM":693},{"id":"node:11255079862","kind":"peak","name":"Studnice","lat":49.0557685,"lon":15.2483014,"elevationM":723},{"id":"node:11266635130","kind":"peak","name":"Za kostelem","lat":49.3455583,"lon":15.6402854,"elevationM":615},{"id":"node:11266672094","kind":"peak","name":"Katova hora","lat":49.3329108,"lon":15.6592647,"elevationM":636},{"id":"node:11266701342","kind":"peak","name":"Vlčkovo březí","lat":49.325501,"lon":15.6438404,"elevationM":648},{"id":"node:11266701343","kind":"peak","name":"Rezkův vršek","lat":49.3343203,"lon":15.6462083,"elevationM":630},{"id":"node:11268546737","kind":"peak","name":"Blažkův vrch","lat":49.3543545,"lon":15.3027683,"elevationM":717},{"id":"node:11268588687","kind":"peak","name":"Ráj","lat":49.4427192,"lon":15.3775537,"elevationM":624},{"id":"node:11268619069","kind":"peak","name":"Čihadlo","lat":49.4548976,"lon":15.4241686,"elevationM":665},{"id":"node:11327743372","kind":"peak","name":"Na vrchu","lat":49.7971494,"lon":15.1890189,"elevationM":520},{"id":"node:11347203708","kind":"peak","name":"Honzíkův vrch","lat":49.9111569,"lon":15.5900338,"elevationM":508},{"id":"node:11347203740","kind":"peak","name":"Černá skála","lat":49.9362499,"lon":15.5649606,"elevationM":413},{"id":"node:11407919715","kind":"peak","name":"Poláček","lat":49.5740087,"lon":15.4154429,"elevationM":644},{"id":"node:11407919716","kind":"peak","name":"Vítkov","lat":49.555637,"lon":15.3392121,"elevationM":556},{"id":"node:11499630170","kind":"peak","name":"Na klíně","lat":49.4564371,"lon":15.3885988,"elevationM":632},{"id":"node:11503215900","kind":"peak","name":"Bláhův kopec","lat":49.1626196,"lon":15.5262233,"elevationM":622},{"id":"node:11503215901","kind":"peak","name":"Čížovský kopec","lat":49.1657714,"lon":15.5208035,"elevationM":636},{"id":"node:11503215902","kind":"peak","name":"Moučkův kopec","lat":49.1726449,"lon":15.5157139,"elevationM":644},{"id":"node:11503222120","kind":"peak","name":"Skalní kopec","lat":49.2036515,"lon":15.4517189,"elevationM":579},{"id":"node:11503241445","kind":"peak","name":"Hochův kopec","lat":49.1856235,"lon":15.5124201,"elevationM":654},{"id":"node:11503241446","kind":"peak","name":"Hustý kopec","lat":49.1886975,"lon":15.5352502,"elevationM":646},{"id":"node:11503245300","kind":"peak","name":"Pahorky","lat":49.1707366,"lon":15.4200628,"elevationM":537},{"id":"node:11503245301","kind":"peak","name":"Buzový","lat":49.1598377,"lon":15.4393038,"elevationM":570},{"id":"node:11503245302","kind":"peak","name":"Klínek","lat":49.1679244,"lon":15.4371958,"elevationM":562},{"id":"node:11503248595","kind":"peak","name":"Musilův kopec","lat":49.2213738,"lon":15.4160951,"elevationM":644},{"id":"node:11503255229","kind":"peak","name":"Trojanův kopec","lat":49.2870137,"lon":15.4588682,"elevationM":607},{"id":"node:11503255230","kind":"peak","name":"Podvesný kopec","lat":49.2774662,"lon":15.4479949,"elevationM":625},{"id":"node:11542473617","kind":"peak","name":"Hřeben","lat":49.2696935,"lon":15.5191549,"elevationM":678},{"id":"node:11549123203","kind":"peak","name":"Na Vršku","lat":49.3599668,"lon":15.4649168,"elevationM":581},{"id":"node:11549123204","kind":"peak","name":"Díly","lat":49.3494066,"lon":15.4643643,"elevationM":569},{"id":"node:11549123205","kind":"peak","name":"U břízy","lat":49.3448442,"lon":15.4800239,"elevationM":583},{"id":"node:11549123206","kind":"peak","name":"Špilberk","lat":49.3513819,"lon":15.4770636,"elevationM":566},{"id":"node:11549123207","kind":"peak","name":"Půvold","lat":49.3416277,"lon":15.4782989,"elevationM":592},{"id":"node:11564570585","kind":"peak","name":"Shnilý kopec","lat":49.603227,"lon":15.8420526,"elevationM":614},{"id":"node:11564570586","kind":"peak","name":"Malolosenický kopec","lat":49.5988574,"lon":15.8275047,"elevationM":612},{"id":"node:11578997286","kind":"peak","name":"Za Vrškem","lat":49.2038453,"lon":15.3175214,"elevationM":736},{"id":"node:11579620707","kind":"peak","name":"Krupička","lat":49.7806401,"lon":15.173749,"elevationM":487},{"id":"node:11584015623","kind":"peak","name":"Bukovec","lat":49.4340156,"lon":15.9924949,"elevationM":580},{"id":"node:11591717542","kind":"peak","name":"Polanka","lat":49.1298633,"lon":15.5734244,"elevationM":626},{"id":"node:11591717544","kind":"peak","name":"Třebětický vrch","lat":49.0519208,"lon":15.5017119,"elevationM":608},{"id":"node:11591717547","kind":"peak","name":"Dobrohošťský vrch","lat":49.0696348,"lon":15.4938889,"elevationM":584},{"id":"node:11591717548","kind":"peak","name":"Zadní hora","lat":49.0703338,"lon":15.5032696,"elevationM":609},{"id":"node:11591717549","kind":"peak","name":"Zelená hora","lat":49.0795282,"lon":15.5115542,"elevationM":620},{"id":"node:11591717550","kind":"peak","name":"Bába","lat":49.0939982,"lon":15.5223825,"elevationM":666},{"id":"node:11591717551","kind":"peak","name":"Divizna","lat":49.1052737,"lon":15.5438813,"elevationM":639},{"id":"node:11591717553","kind":"peak","name":"Škříp","lat":49.112034,"lon":15.5921858,"elevationM":570},{"id":"node:11594494008","kind":"peak","name":"Ostrážka","lat":49.1376771,"lon":15.5263333,"elevationM":600},{"id":"node:11594494009","kind":"peak","name":"Ostrý vrch","lat":49.1332538,"lon":15.5375592,"elevationM":543},{"id":"node:11594494010","kind":"peak","name":"Kopec","lat":49.12633,"lon":15.5241794,"elevationM":549},{"id":"node:11594494011","kind":"peak","name":"Žár","lat":49.1196066,"lon":15.4964382,"elevationM":542},{"id":"node:11594494012","kind":"peak","name":"Hříšický kopec","lat":49.1066908,"lon":15.4811649,"elevationM":522},{"id":"node:11594494013","kind":"peak","name":"Chlumec","lat":49.0471924,"lon":15.450688,"elevationM":518},{"id":"node:11594494014","kind":"peak","name":"Panglus","lat":49.0365829,"lon":15.4765357,"elevationM":563},{"id":"node:11594494015","kind":"peak","name":"Kybina","lat":49.0920406,"lon":15.5580714,"elevationM":554},{"id":"node:11594494016","kind":"peak","name":"Silniční vrch","lat":49.0409501,"lon":15.5069486,"elevationM":534},{"id":"node:11594504558","kind":"peak","name":"Suchý kopec","lat":49.2920616,"lon":15.2805909,"elevationM":701},{"id":"node:11594504559","kind":"peak","name":"Čejkův kopec","lat":49.2966963,"lon":15.273682,"elevationM":710},{"id":"node:11594524497","kind":"peak","name":"V kopečku","lat":49.1791651,"lon":15.5570843,"elevationM":634},{"id":"node:11594524498","kind":"peak","name":"Pařezitá","lat":49.1805467,"lon":15.5418582,"elevationM":618},{"id":"node:11594524499","kind":"peak","name":"Vápovická hora","lat":49.1657552,"lon":15.5550942,"elevationM":629},{"id":"node:11594524500","kind":"peak","name":"Křástov","lat":49.1596747,"lon":15.5524124,"elevationM":594},{"id":"node:11594529319","kind":"peak","name":"Májovec","lat":49.2347128,"lon":15.4954162,"elevationM":631},{"id":"node:11594529320","kind":"peak","name":"Homolka","lat":49.2315258,"lon":15.48227,"elevationM":650},{"id":"node:11594530839","kind":"peak","name":"Veselský vrch","lat":49.2111258,"lon":15.5637259,"elevationM":712},{"id":"node:11594530840","kind":"peak","name":"Reminský vrch","lat":49.2056818,"lon":15.5496925,"elevationM":675},{"id":"node:11594550561","kind":"peak","name":"Hložkův kopec","lat":49.2932848,"lon":15.2934003,"elevationM":669},{"id":"node:11594649950","kind":"peak","name":"Liščí hora","lat":49.2807147,"lon":15.6531958,"elevationM":620},{"id":"node:11594664774","kind":"peak","name":"Borový vrch","lat":49.3489472,"lon":15.7170111,"elevationM":572},{"id":"node:11594664777","kind":"peak","name":"Na kopci","lat":49.3198238,"lon":15.7365025,"elevationM":541},{"id":"node:11594664779","kind":"peak","name":"Pavlice","lat":49.3287245,"lon":15.732208,"elevationM":551},{"id":"node:11594664780","kind":"peak","name":"Na vršku","lat":49.323456,"lon":15.7074204,"elevationM":546},{"id":"node:11594664781","kind":"peak","name":"Strážnice","lat":49.3134415,"lon":15.7009225,"elevationM":605},{"id":"node:11594776723","kind":"peak","name":"Bílá hora","lat":49.3433091,"lon":15.7677992,"elevationM":659},{"id":"node:11597424863","kind":"peak","name":"Člověčí hlava","lat":49.3405287,"lon":15.7925891,"elevationM":642},{"id":"node:11597424864","kind":"peak","name":"Vrchy","lat":49.3596786,"lon":15.789558,"elevationM":604},{"id":"node:11597424865","kind":"peak","name":"Markův vrch","lat":49.366678,"lon":15.7474274,"elevationM":564},{"id":"node:11597424866","kind":"peak","name":"Strážka","lat":49.3575684,"lon":15.7677307,"elevationM":618},{"id":"node:11672395271","kind":"peak","name":"Holubka","lat":49.3450055,"lon":15.8126004,"elevationM":604},{"id":"node:11681338166","kind":"peak","name":"Skalky","lat":49.2650723,"lon":15.6556575,"elevationM":620},{"id":"node:11747561808","kind":"peak","name":"Jámy","lat":49.5386983,"lon":15.4760394,"elevationM":588},{"id":"node:11792407166","kind":"peak","name":"Miskovický vrch","lat":49.9613027,"lon":15.2111337,"elevationM":406},{"id":"node:11792407167","kind":"peak","name":"Dračí skála","lat":49.8640744,"lon":15.0890481,"elevationM":516},{"id":"node:11805706883","kind":"peak","name":"Na kopci","lat":49.992285,"lon":15.7858479,"elevationM":275},{"id":"node:11830193303","kind":"peak","name":"Sádek","lat":49.4618717,"lon":15.8302871,"elevationM":698},{"id":"node:11830193304","kind":"peak","name":"Havlina","lat":49.4502872,"lon":15.8478525,"elevationM":707},{"id":"node:11830193305","kind":"peak","name":"Skálek","lat":49.4228864,"lon":15.7608291,"elevationM":626},{"id":"node:11830193312","kind":"peak","name":"Řehořovský vrch","lat":49.3929311,"lon":15.7856611,"elevationM":645},{"id":"node:11840608456","kind":"peak","name":"Bradlo","lat":49.1524454,"lon":15.3624972,"elevationM":672},{"id":"node:11980504670","kind":"peak","name":"Háj","lat":49.1179988,"lon":15.3836886,"elevationM":564},{"id":"node:11980507485","kind":"peak","name":"Přední radlický vrch","lat":49.1130017,"lon":15.3218278,"elevationM":659},{"id":"node:11980514781","kind":"peak","name":"Zadní radlický vrch","lat":49.1203962,"lon":15.3127161,"elevationM":668},{"id":"node:12041388717","kind":"peak","name":"Kudla","lat":49.1620052,"lon":15.3159041,"elevationM":671},{"id":"node:12053036572","kind":"peak","name":"Kamenný vrch","lat":49.7875762,"lon":15.8390816,"elevationM":586},{"id":"node:12115275760","kind":"peak","name":"Český kopeček","lat":49.618006,"lon":15.9918274,"elevationM":763},{"id":"node:12154931141","kind":"peak","name":"Svatý Vít","lat":49.0823167,"lon":15.7930215,"elevationM":559},{"id":"node:12154931144","kind":"peak","name":"Lukovská hora","lat":49.0733988,"lon":15.8015352,"elevationM":529},{"id":"node:12222440760","kind":"peak","name":"Schillerův kámen","lat":49.0179364,"lon":15.0087109,"elevationM":494},{"id":"node:12222440761","kind":"peak","name":"Danielův kopec","lat":49.1189222,"lon":15.0865348,"elevationM":600},{"id":"node:12222440763","kind":"peak","name":"Ratmírovský vrch","lat":49.1482983,"lon":15.1244066,"elevationM":582},{"id":"node:12222440765","kind":"peak","name":"U hrušky","lat":49.203545,"lon":15.1364977,"elevationM":572},{"id":"node:12222440774","kind":"peak","name":"Jedlí","lat":49.2824688,"lon":15.2030422,"elevationM":653},{"id":"node:12222440775","kind":"peak","name":"Vrchy","lat":49.2692949,"lon":15.1145498,"elevationM":614},{"id":"node:12222440777","kind":"peak","name":"Perky","lat":49.2923366,"lon":15.1503814,"elevationM":654},{"id":"node:12222440778","kind":"peak","name":"Pelecký kopec","lat":49.3149084,"lon":15.128586,"elevationM":719},{"id":"node:12222440780","kind":"peak","name":"Sběhovka","lat":49.3402088,"lon":15.1379631,"elevationM":700},{"id":"node:12222440782","kind":"peak","name":"Troják","lat":49.3374294,"lon":15.1556535,"elevationM":704},{"id":"node:12222440784","kind":"peak","name":"Heřmanský kopec","lat":49.3471437,"lon":15.1552757,"elevationM":673},{"id":"node:12222440785","kind":"peak","name":"Smrče","lat":49.3374487,"lon":15.0869665,"elevationM":647},{"id":"node:12222440787","kind":"peak","name":"Na skalkách","lat":49.3325057,"lon":15.0045911,"elevationM":659},{"id":"node:12231163430","kind":"peak","name":"Ohrada","lat":49.5460587,"lon":15.4370183,"elevationM":595},{"id":"node:12231163431","kind":"peak","name":"Smetánka","lat":49.5587227,"lon":15.3927446,"elevationM":558},{"id":"node:12231163440","kind":"peak","name":"Vršek","lat":49.6214297,"lon":15.4494097,"elevationM":497},{"id":"node:12231618728","kind":"peak","name":"Kostelík","lat":49.2581408,"lon":15.0526956,"elevationM":605},{"id":"node:12242073570","kind":"peak","name":"Jordán","lat":49.7601809,"lon":15.0793161,"elevationM":487},{"id":"node:12242073572","kind":"peak","name":"Klenka","lat":49.7668413,"lon":15.0410414,"elevationM":471},{"id":"node:12242073585","kind":"peak","name":"Vlčí skála","lat":49.9779501,"lon":15.4960988,"elevationM":325},{"id":"node:12350496098","kind":"peak","name":"Krahulovský kopec","lat":49.2250287,"lon":15.8067157,"elevationM":505},{"id":"node:12350527908","kind":"peak","name":"Pístovec","lat":49.2738481,"lon":15.691498,"elevationM":614},{"id":"node:12350529386","kind":"peak","name":"Prosekaná","lat":49.2840201,"lon":15.7020747,"elevationM":655},{"id":"node:12350549245","kind":"peak","name":"Hliniště","lat":49.2616571,"lon":15.7042984,"elevationM":655},{"id":"node:12350549246","kind":"peak","name":"Salátův kopec","lat":49.255617,"lon":15.7211944,"elevationM":661},{"id":"node:12350549247","kind":"peak","name":"Kamenný vrch","lat":49.248972,"lon":15.7200411,"elevationM":635},{"id":"node:12381934148","kind":"peak","name":"Stříbrný kopec","lat":49.2257779,"lon":15.914787,"elevationM":461},{"id":"node:12384212114","kind":"peak","name":"Kozí hlava","lat":49.1778333,"lon":15.999059,"elevationM":496},{"id":"node:12397618156","kind":"peak","name":"Vráž","lat":49.0357495,"lon":15.6278512,"elevationM":576},{"id":"node:12397618157","kind":"peak","name":"Špičák","lat":49.04412,"lon":15.6217261,"elevationM":575},{"id":"node:12397618158","kind":"peak","name":"Holubice","lat":49.0494507,"lon":15.6140468,"elevationM":595},{"id":"node:12397618159","kind":"peak","name":"Inženýrský kopec","lat":49.0456084,"lon":15.5987713,"elevationM":602},{"id":"node:12397618160","kind":"peak","name":"Modrácký kopec","lat":49.0371329,"lon":15.5868099,"elevationM":573},{"id":"node:12397618161","kind":"peak","name":"Javorní hora","lat":49.0277532,"lon":15.5827389,"elevationM":554},{"id":"node:12397618162","kind":"peak","name":"Javor","lat":49.0314622,"lon":15.5774763,"elevationM":544},{"id":"node:12397754966","kind":"peak","name":"Sochořina","lat":49.0540787,"lon":15.5877016,"elevationM":526},{"id":"node:12399652381","kind":"peak","name":"Malý vrch","lat":49.1614607,"lon":15.3312286,"elevationM":717},{"id":"node:12409242926","kind":"peak","name":"Zahradníkův kopec","lat":49.4644891,"lon":15.641058,"elevationM":509},{"id":"node:12413119883","kind":"peak","name":"Lipoltická skála","lat":49.9898641,"lon":15.5734361,"elevationM":299},{"id":"node:12475638229","kind":"peak","name":"Radostovický kopec","lat":49.6280458,"lon":15.412053,"elevationM":566},{"id":"node:12480627207","kind":"peak","name":"Zadní hora","lat":49.1930736,"lon":15.7919859,"elevationM":634},{"id":"node:12486363464","kind":"peak","name":"Hradiště","lat":49.7360112,"lon":15.8823974,"elevationM":882},{"id":"node:12487166050","kind":"peak","name":"Vránův kopec","lat":49.5354699,"lon":15.388139,"elevationM":628},{"id":"node:12519195639","kind":"peak","name":"Hůra","lat":49.7493917,"lon":15.1425131,"elevationM":460},{"id":"node:12520347701","kind":"peak","name":"Klučovská hora","lat":49.1701651,"lon":15.9248654,"elevationM":595},{"id":"node:12520347703","kind":"peak","name":"Záhoří","lat":49.1750654,"lon":15.9315058,"elevationM":590},{"id":"node:12584450855","kind":"peak","name":"Tři smrky","lat":49.3866464,"lon":15.6279511,"elevationM":590},{"id":"node:12592503915","kind":"peak","name":"Plesný","lat":49.8213188,"lon":15.7876269,"elevationM":611},{"id":"node:12606496791","kind":"peak","name":"Vlčí hora","lat":49.2779277,"lon":15.7348269,"elevationM":574},{"id":"node:12606555468","kind":"peak","name":"Jelení hlava","lat":49.2818283,"lon":15.8673585,"elevationM":616},{"id":"node:12606575673","kind":"peak","name":"Kopaniny","lat":49.3404599,"lon":15.9451488,"elevationM":531},{"id":"node:12615378242","kind":"peak","name":"Strážná hora","lat":49.2097399,"lon":15.87321,"elevationM":484},{"id":"node:12615475704","kind":"peak","name":"Houska","lat":49.473286,"lon":15.1445433,"elevationM":626},{"id":"node:12615483095","kind":"peak","name":"Hůra","lat":49.5719352,"lon":15.1350131,"elevationM":545},{"id":"node:12615483096","kind":"peak","name":"Šanořín","lat":49.5746895,"lon":15.1508063,"elevationM":543},{"id":"node:12615483097","kind":"peak","name":"Podivický vrch","lat":49.6092176,"lon":15.2942066,"elevationM":638},{"id":"node:12615483098","kind":"peak","name":"Vlčí hrdlo","lat":49.6085161,"lon":15.3975123,"elevationM":528},{"id":"node:12615483099","kind":"peak","name":"Limpí","lat":49.581024,"lon":15.3904102,"elevationM":501},{"id":"node:12615483100","kind":"peak","name":"Rapotice","lat":49.5838163,"lon":15.3203149,"elevationM":631},{"id":"node:12615492501","kind":"peak","name":"Zaječí vrch","lat":49.5757468,"lon":15.2279453,"elevationM":496},{"id":"node:12615492502","kind":"peak","name":"Strážník","lat":49.5091988,"lon":15.2380728,"elevationM":552},{"id":"node:12615492503","kind":"peak","name":"Ptáček","lat":49.5222518,"lon":15.3038922,"elevationM":572},{"id":"node:12615492504","kind":"peak","name":"Havlův kopec","lat":49.5364631,"lon":15.3260087,"elevationM":633},{"id":"node:12615494119","kind":"peak","name":"Čertova skála","lat":49.5000784,"lon":15.1334766,"elevationM":611},{"id":"node:12615494120","kind":"peak","name":"Mašovický vrch","lat":49.4987336,"lon":15.1313737,"elevationM":616},{"id":"node:12618175601","kind":"peak","name":"Štenice","lat":49.5607577,"lon":15.8810528,"elevationM":617},{"id":"node:12620570823","kind":"peak","name":"Zaječí vrch","lat":49.5298405,"lon":15.1426051,"elevationM":516},{"id":"node:12620570825","kind":"peak","name":"Vystrkov","lat":49.5427366,"lon":15.1144152,"elevationM":563},{"id":"node:12620570826","kind":"peak","name":"Radějov","lat":49.5397252,"lon":15.0999311,"elevationM":577},{"id":"node:12620570827","kind":"peak","name":"Na Skalce","lat":49.5287786,"lon":15.1139933,"elevationM":536},{"id":"node:12656050611","kind":"peak","name":"Stráž","lat":49.651797,"lon":15.2263282,"elevationM":493},{"id":"node:12696035372","kind":"peak","name":"Pfafenberk","lat":49.6111082,"lon":15.6622699,"elevationM":523},{"id":"node:12829741544","kind":"peak","name":"Hvížďův vrch","lat":49.452576,"lon":15.4307255,"elevationM":656},{"id":"node:12836816116","kind":"peak","name":"Holý vrch","lat":49.1295882,"lon":15.3540484,"elevationM":625},{"id":"node:13022702166","kind":"peak","name":"Vlčí hůra","lat":49.641211,"lon":15.2851327,"elevationM":636},{"id":"node:13047770564","kind":"peak","name":"Vojtův vrch","lat":49.1213401,"lon":15.4286775,"elevationM":537},{"id":"node:13047774616","kind":"peak","name":"Kohoutek","lat":49.0929465,"lon":15.4263341,"elevationM":513},{"id":"node:13047791247","kind":"peak","name":"Havlova hora","lat":49.0874571,"lon":15.2711124,"elevationM":680},{"id":"node:13047791812","kind":"peak","name":"Šibeniční","lat":49.0751754,"lon":15.4459091,"elevationM":509},{"id":"node:13047794109","kind":"peak","name":"Plec","lat":49.0824743,"lon":15.3327672,"elevationM":608},{"id":"node:13047804091","kind":"peak","name":"Hvozdec","lat":49.055793,"lon":15.3306752,"elevationM":555},{"id":"node:13047810524","kind":"peak","name":"Skalka","lat":49.0803138,"lon":15.277493,"elevationM":682},{"id":"node:13070570378","kind":"peak","name":"Kamenný vrch","lat":49.1149584,"lon":15.1541154,"elevationM":614},{"id":"node:13070570379","kind":"peak","name":"Vrchy","lat":49.1308352,"lon":15.152913,"elevationM":598},{"id":"node:13070571017","kind":"peak","name":"Vlčický kopec","lat":49.1521618,"lon":15.163216,"elevationM":574},{"id":"node:13070571022","kind":"peak","name":"Kámen","lat":49.172006,"lon":15.2329085,"elevationM":644},{"id":"node:13070571034","kind":"peak","name":"Křížový vrch","lat":49.046132,"lon":15.1436974,"elevationM":705},{"id":"node:13070571077","kind":"peak","name":"Komora","lat":49.1588153,"lon":15.0984697,"elevationM":559},{"id":"node:13070571104","kind":"peak","name":"Lískovec","lat":49.119297,"lon":15.0520263,"elevationM":562},{"id":"node:13144184670","kind":"peak","name":"Hora","lat":49.1017702,"lon":15.2787648,"elevationM":676},{"id":"node:13144277633","kind":"peak","name":"Suchdolský vrch","lat":49.1218614,"lon":15.2542653,"elevationM":714},{"id":"node:13147911362","kind":"peak","name":"Bukovec","lat":49.0918122,"lon":15.3076065,"elevationM":597},{"id":"node:13147942563","kind":"peak","name":"Lísek","lat":49.1399774,"lon":15.3480493,"elevationM":619},{"id":"node:13147954885","kind":"peak","name":"Řečický vrch","lat":49.1418691,"lon":15.3532376,"elevationM":639},{"id":"node:13147973642","kind":"peak","name":"Pahorek","lat":49.1448734,"lon":15.3489545,"elevationM":642},{"id":"node:13147996542","kind":"peak","name":"Cizkrajovský vrch","lat":49.0583869,"lon":15.3482111,"elevationM":563},{"id":"node:13151181030","kind":"peak","name":"Stropinský vrch","lat":49.9943132,"lon":15.8662238,"elevationM":259},{"id":"node:13204185966","kind":"peak","name":"Skládka","lat":49.0766172,"lon":15.4765467,"elevationM":524},{"id":"node:13380687044","kind":"peak","name":"Šeberovec","lat":49.2759836,"lon":15.0147951,"elevationM":null},{"id":"node:13459963367","kind":"peak","name":"Světka","lat":49.5850677,"lon":15.8647837,"elevationM":660},{"id":"node:13459963368","kind":"peak","name":"Holý kopec","lat":49.5845561,"lon":15.8732713,"elevationM":666},{"id":"node:13634038570","kind":"peak","name":"Brtnický vrch","lat":49.3015054,"lon":15.6475679,"elevationM":648},{"id":"node:13678342204","kind":"peak","name":"Nádavek","lat":49.334363,"lon":15.2141436,"elevationM":701},{"id":"node:13678342205","kind":"peak","name":"Bukový kopec","lat":49.3302594,"lon":15.211132,"elevationM":703},{"id":"node:13678342206","kind":"peak","name":"Kamenitý kopec","lat":49.3266943,"lon":15.2153979,"elevationM":711},{"id":"node:13678342210","kind":"peak","name":"Vlasákův kopec","lat":49.3139147,"lon":15.2849912,"elevationM":669},{"id":"node:13678342211","kind":"peak","name":"Dílce","lat":49.3252585,"lon":15.2872202,"elevationM":689},{"id":"node:13678342212","kind":"peak","name":"Číhalka","lat":49.3640737,"lon":15.269017,"elevationM":674},{"id":"node:13684220097","kind":"peak","name":"Žákův vršek","lat":49.5064695,"lon":15.3484031,"elevationM":592},{"id":"node:13698422824","kind":"peak","name":"Za Strážkou","lat":49.3439553,"lon":15.6934962,"elevationM":573},{"id":"node:13720644391","kind":"peak","name":"V Kopečku","lat":49.4635854,"lon":15.8915268,"elevationM":664}]}