{"tileKey":"la_p7_lo_p125","version":"v1-1775891056926","entries":[{"id":"node:332018881","kind":"peak","name":"Mount Sinakawan","lat":7.747222,"lon":125.371944,"elevationM":null},{"id":"node:332018922","kind":"peak","name":"Mount Takulanao","lat":7.5866409,"lon":125.35633,"elevationM":650},{"id":"node:332019043","kind":"peak","name":"Mount Malambo","lat":7.4912311,"lon":125.2566363,"elevationM":1360},{"id":"node:332019065","kind":"peak","name":"Mount Merui","lat":7.559444,"lon":125.267222,"elevationM":1270},{"id":"node:332019066","kind":"peak","name":"Mount Binasalan","lat":7.6672273,"lon":125.3947596,"elevationM":720},{"id":"node:332019075","kind":"peak","name":"Mount Ebid","lat":7.3725113,"lon":125.3540915,"elevationM":670},{"id":"node:332019159","kind":"peak","name":"Mount Simud","lat":7.4661198,"lon":125.333174,"elevationM":710},{"id":"node:332019455","kind":"peak","name":"Mount Kulapu","lat":7.3685516,"lon":125.3490214,"elevationM":630},{"id":"node:332019498","kind":"peak","name":"Mount Miganangan","lat":7.831389,"lon":125.368889,"elevationM":595},{"id":"node:332019508","kind":"peak","name":"Mount Waranaktaha","lat":7.727222,"lon":125.375278,"elevationM":702},{"id":"node:332019509","kind":"peak","name":"Mount Kipangko","lat":7.646111,"lon":125.385833,"elevationM":700},{"id":"node:332019510","kind":"peak","name":"Mount Simsiman","lat":7.5770944,"lon":125.3472435,"elevationM":500},{"id":"node:332019511","kind":"peak","name":"Mount Pitalong","lat":7.5202688,"lon":125.346029,"elevationM":850},{"id":"node:332019529","kind":"peak","name":"Mount Kilatan","lat":7.712222,"lon":125.386667,"elevationM":625},{"id":"node:332019639","kind":"peak","name":"Mount Dinalag","lat":7.4786908,"lon":125.3491781,"elevationM":480},{"id":"node:332019754","kind":"peak","name":"Mount Libuan","lat":7.778889,"lon":125.391944,"elevationM":584},{"id":"node:332019755","kind":"peak","name":"Mount Alimutos","lat":7.7475,"lon":125.398611,"elevationM":767},{"id":"node:332019929","kind":"peak","name":"Mount Kinawagan","lat":7.6730321,"lon":125.3696844,"elevationM":650},{"id":"node:332019943","kind":"peak","name":"Mount Banbanon","lat":7.8185138,"lon":125.8275723,"elevationM":370},{"id":"node:332019958","kind":"peak","name":"Mount Tiadatngan","lat":7.116667,"lon":125.966667,"elevationM":null},{"id":"node:332019973","kind":"peak","name":"Mount Caunabayan","lat":7.8447071,"lon":125.7426829,"elevationM":170},{"id":"node:332020089","kind":"peak","name":"Mount Saldab","lat":7.4872633,"lon":125.3648776,"elevationM":980},{"id":"node:332020110","kind":"peak","name":"Mount Malapangi","lat":7.5503646,"lon":125.340059,"elevationM":670},{"id":"node:332020118","kind":"peak","name":"Mount Salalayan","lat":7.650833,"lon":125.365278,"elevationM":550},{"id":"node:332020120","kind":"peak","name":"Mount Manalapan","lat":7.703333,"lon":125.364444,"elevationM":804},{"id":"node:332020451","kind":"peak","name":"Mount Unapan","lat":7.220899,"lon":125.309173,"elevationM":1090},{"id":"node:332020483","kind":"volcano","name":"Mount Talomo","lat":7.0409686,"lon":125.3169015,"elevationM":2674},{"id":"node:332020485","kind":"peak","name":"Mount Tangkulan","lat":7.765556,"lon":125.229444,"elevationM":1670},{"id":"node:332020496","kind":"peak","name":"Mount Tianlud","lat":7.4806337,"lon":125.1505472,"elevationM":450},{"id":"node:332020502","kind":"peak","name":"Mount Tipolog","lat":7.1604095,"lon":125.3357727,"elevationM":1380},{"id":"node:332020548","kind":"peak","name":"Mount Talemo","lat":7.6668589,"lon":125.3215505,"elevationM":1050},{"id":"node:332020815","kind":"peak","name":"Mount Tamusan","lat":7.748889,"lon":125.385556,"elevationM":null},{"id":"node:332020816","kind":"peak","name":"Mount Bulo","lat":7.748889,"lon":125.3775,"elevationM":null},{"id":"node:332020821","kind":"peak","name":"Mount Indang","lat":7.564444,"lon":125.350556,"elevationM":730},{"id":"node:332020822","kind":"peak","name":"Mount Pinaguglongan","lat":7.5581642,"lon":125.3427784,"elevationM":400},{"id":"node:332020853","kind":"peak","name":"Mount Iliyan","lat":7.4973934,"lon":125.3541877,"elevationM":610},{"id":"node:332021023","kind":"peak","name":"Mount Nilayapan","lat":7.701667,"lon":125.379722,"elevationM":696},{"id":"node:332021024","kind":"peak","name":"Mount Kasalumayakon","lat":7.5474069,"lon":125.3564739,"elevationM":420},{"id":"node:332021149","kind":"peak","name":"Mount Ampawid","lat":7.877222,"lon":125.673889,"elevationM":844},{"id":"node:332021177","kind":"peak","name":"Mount Pamapko","lat":7.6837098,"lon":125.3668823,"elevationM":750},{"id":"node:332021178","kind":"peak","name":"Mount Tampulong","lat":7.5706783,"lon":125.2968787,"elevationM":570},{"id":"node:332021179","kind":"peak","name":"Mount Libe","lat":7.658731,"lon":125.3941904,"elevationM":810},{"id":"node:332021375","kind":"peak","name":"Mount Pangalay-ayan","lat":7.623056,"lon":125.386667,"elevationM":740},{"id":"node:332021376","kind":"peak","name":"Mount Gaitan","lat":7.6192898,"lon":125.362273,"elevationM":610},{"id":"node:332021377","kind":"peak","name":"Mount Bato","lat":7.773333,"lon":125.386389,"elevationM":null},{"id":"node:332021380","kind":"peak","name":"Mount Butong","lat":7.7538326,"lon":125.0705579,"elevationM":470},{"id":"node:332021382","kind":"peak","name":"Mount Gakit","lat":7.5739437,"lon":125.3406096,"elevationM":500},{"id":"node:332021408","kind":"peak","name":"Mount Kibubay","lat":7.4231211,"lon":125.3609174,"elevationM":710},{"id":"node:332021409","kind":"peak","name":"Mount Agusan","lat":7.3546104,"lon":125.3244246,"elevationM":540},{"id":"node:332021462","kind":"peak","name":"Mount Kibundo","lat":7.623333,"lon":125.268056,"elevationM":1205},{"id":"node:332021476","kind":"volcano","name":"Musuan Peak","lat":7.8769831,"lon":125.0696915,"elevationM":646},{"id":"node:332021544","kind":"peak","name":"Mount Suwaon","lat":7.741389,"lon":125.601111,"elevationM":593},{"id":"node:332021546","kind":"peak","name":"Mount Kilalom","lat":7.714167,"lon":125.3775,"elevationM":null},{"id":"node:332021548","kind":"peak","name":"Mount Cabuling","lat":7.6589608,"lon":125.364722,"elevationM":540},{"id":"node:332021622","kind":"peak","name":"Mount Kiokong","lat":7.666667,"lon":125.15,"elevationM":null},{"id":"node:332021623","kind":"peak","name":"Mount Luwit","lat":7.3611323,"lon":125.3440723,"elevationM":740},{"id":"node:332021775","kind":"peak","name":"Mount Olagusan","lat":7.8918217,"lon":125.9543065,"elevationM":584},{"id":"node:760196289","kind":"peak","name":"Puting Bato","lat":7.0661825,"lon":125.7682443,"elevationM":510},{"id":"node:767188868","kind":"peak","name":"Mount Tinanan","lat":7.1738796,"lon":125.2176404,"elevationM":1810},{"id":"node:5654707136","kind":"peak","name":"Mount Megatong","lat":7.5885859,"lon":125.5493518,"elevationM":450},{"id":"node:6034077071","kind":"peak","name":"Mount Nangalid","lat":7.4927976,"lon":125.281078,"elevationM":1140},{"id":"node:6224226684","kind":"peak","name":"Mundo Hill","lat":7.3965334,"lon":125.297758,"elevationM":800},{"id":"node:6346343966","kind":"peak","name":"Sumalili Peak","lat":7.4989911,"lon":125.2248592,"elevationM":1210},{"id":"node:6346541579","kind":"peak","name":"Mount Boldong","lat":7.4952176,"lon":125.2251291,"elevationM":1200},{"id":"node:6446054943","kind":"peak","name":"Malapangi Peak","lat":7.3669385,"lon":125.410451,"elevationM":1120},{"id":"node:6447936199","kind":"peak","name":"Mount Sinaka","lat":7.3679148,"lon":125.227763,"elevationM":1470},{"id":"node:6466936479","kind":"peak","name":"Mount Libungan","lat":7.2493985,"lon":125.4334563,"elevationM":350},{"id":"node:6466936481","kind":"peak","name":"Binaton Peak","lat":7.3614241,"lon":125.410856,"elevationM":1100},{"id":"node:6829632757","kind":"peak","name":"Pungco Hill","lat":7.4746568,"lon":125.4700222,"elevationM":null},{"id":"node:6883335895","kind":"peak","name":"Anggas Peak","lat":7.1250278,"lon":125.7686117,"elevationM":480},{"id":"node:7670834491","kind":"peak","name":"Andrew N. Nelson Hill","lat":7.9780141,"lon":125.0247337,"elevationM":700},{"id":"node:8149083405","kind":"peak","name":"Mount Tulayas","lat":7.5027539,"lon":125.5636722,"elevationM":200},{"id":"node:8176526482","kind":"peak","name":"Mount Bankilan","lat":7.509769,"lon":125.3099513,"elevationM":890},{"id":"node:8189004317","kind":"peak","name":"Mount Kabongkon","lat":7.6802008,"lon":125.4875886,"elevationM":1150},{"id":"node:8189004342","kind":"peak","name":"Mount Kibonaan","lat":7.656227,"lon":125.4633898,"elevationM":1205},{"id":"node:8189004349","kind":"peak","name":"Mount Samuan","lat":7.6997643,"lon":125.4114032,"elevationM":840},{"id":"node:8195039113","kind":"peak","name":"Mount Misimolun","lat":7.6657721,"lon":125.5060208,"elevationM":1115},{"id":"node:8467338623","kind":"peak","name":"Viper's Peak","lat":7.0379368,"lon":125.4463707,"elevationM":285},{"id":"node:9467459634","kind":"peak","name":"Mount Dinagsaan","lat":7.0524004,"lon":125.9833574,"elevationM":760},{"id":"node:10113632954","kind":"peak","name":"Mount Lipadas","lat":7.0158376,"lon":125.3203878,"elevationM":2620},{"id":"node:10863908264","kind":"peak","name":"Bugtong Mangga","lat":7.4444766,"lon":125.5495235,"elevationM":180},{"id":"node:11351292389","kind":"peak","name":"Mary Hill","lat":7.0229747,"lon":125.4847562,"elevationM":50},{"id":"node:11401051759","kind":"peak","name":"Mount Monoy","lat":7.1968743,"lon":125.4150798,"elevationM":450},{"id":"node:11757579783","kind":"peak","name":"Fernandez Peak","lat":7.0583578,"lon":125.7737079,"elevationM":370},{"id":"node:12264919801","kind":"peak","name":"Layag Peak","lat":7.0430582,"lon":125.4446555,"elevationM":310},{"id":"node:12706417873","kind":"peak","name":"Mount Hago","lat":7.5608545,"lon":125.8990368,"elevationM":360},{"id":"node:12790570066","kind":"peak","name":"Censio's Peak","lat":7.9213504,"lon":125.2932881,"elevationM":570}]}