{"tileKey":"la_p29_lo_m100","version":"v1-1775891056926","entries":[{"id":"node:356699403","kind":"peak","name":"Bald Mountain","lat":29.5132863,"lon":-99.5889385,"elevationM":574},{"id":"node:356700178","kind":"peak","name":"Big Hill","lat":29.9821594,"lon":-99.0117039,"elevationM":580},{"id":"node:356701518","kind":"peak","name":"Caprock Mountain","lat":29.681895,"lon":-99.962365,"elevationM":695},{"id":"node:356701938","kind":"peak","name":"Chalk Hill","lat":29.7477233,"lon":-99.4694916,"elevationM":670},{"id":"node:356701942","kind":"peak","name":"Chalk Mountain","lat":29.6927249,"lon":-99.2450402,"elevationM":601},{"id":"node:356702112","kind":"peak","name":"Chimney Hill","lat":29.5368965,"lon":-99.0416997,"elevationM":393},{"id":"node:356702395","kind":"peak","name":"Coffin Mountain","lat":29.5538406,"lon":-99.6800532,"elevationM":514},{"id":"node:356703551","kind":"peak","name":"Crown Mountain","lat":29.6693925,"lon":-99.9739563,"elevationM":617},{"id":"node:356704711","kind":"peak","name":"Devils Backbone Mountain","lat":29.5299527,"lon":-99.7592224,"elevationM":549},{"id":"node:356705536","kind":"peak","name":"Fall Hill","lat":29.89744,"lon":-99.0783708,"elevationM":530},{"id":"node:356705802","kind":"peak","name":"Flag Mountain","lat":29.5418962,"lon":-99.4717126,"elevationM":594},{"id":"node:356705805","kind":"peak","name":"Flag Mountain","lat":29.622449,"lon":-99.2417065,"elevationM":604},{"id":"node:356706603","kind":"peak","name":"Gobbler Knob","lat":29.687405,"lon":-99.9334389,"elevationM":670},{"id":"node:356707251","kind":"peak","name":"Gunsight Mountain","lat":29.680503,"lon":-99.3119866,"elevationM":590},{"id":"node:356708250","kind":"peak","name":"Holy Mountain","lat":29.5149524,"lon":-99.4253223,"elevationM":504},{"id":"node:356708450","kind":"peak","name":"Housetop Mountain","lat":29.7360567,"lon":-99.9853468,"elevationM":707},{"id":"node:356708747","kind":"peak","name":"Iron Top Mountain","lat":29.7080023,"lon":-99.3033754,"elevationM":584},{"id":"node:356710354","kind":"peak","name":"Lone Tree Hill","lat":29.0533002,"lon":-99.5756057,"elevationM":264},{"id":"node:356710448","kind":"peak","name":"Lookout Mountain","lat":29.8935512,"lon":-99.0897599,"elevationM":542},{"id":"node:356711202","kind":"peak","name":"Meridian Mountain","lat":29.7280018,"lon":-99.7208907,"elevationM":707},{"id":"node:356712504","kind":"peak","name":"Mule Mountain","lat":29.5888397,"lon":-99.8920069,"elevationM":602},{"id":"node:356713975","kind":"peak","name":"One Horn Mountain","lat":29.5746728,"lon":-99.1230914,"elevationM":499},{"id":"node:356714207","kind":"peak","name":"Panther Hill","lat":29.6796698,"lon":-99.5500496,"elevationM":491},{"id":"node:356718798","kind":"peak","name":"Pikes Peak","lat":29.9482711,"lon":-99.1228169,"elevationM":557},{"id":"node:356719426","kind":"peak","name":"Rawhide Mountains","lat":29.6043948,"lon":-99.9645103,"elevationM":527},{"id":"node:356720378","kind":"peak","name":"Round Mountain","lat":29.5688395,"lon":-99.3105971,"elevationM":546},{"id":"node:356720381","kind":"peak","name":"Round Mountain","lat":29.7380014,"lon":-99.3569882,"elevationM":648},{"id":"node:356720439","kind":"peak","name":"Rugh Hill","lat":29.712169,"lon":-99.0792019,"elevationM":385},{"id":"node:356720474","kind":"peak","name":"Saathoff Mountain","lat":29.5732839,"lon":-99.3147638,"elevationM":601},{"id":"node:356720510","kind":"peak","name":"Saddleback Mountain","lat":29.6424485,"lon":-99.2900413,"elevationM":523},{"id":"node:356723806","kind":"peak","name":"Seco Mountain","lat":29.6791142,"lon":-99.3844887,"elevationM":629},{"id":"node:356723830","kind":"peak","name":"Sentry Mountain","lat":29.6668924,"lon":-99.4294899,"elevationM":577},{"id":"node:356724319","kind":"peak","name":"Soto Mountain","lat":29.698558,"lon":-99.2839303,"elevationM":594},{"id":"node:356724636","kind":"peak","name":"Split Mountain","lat":29.5838391,"lon":-99.3178196,"elevationM":547},{"id":"node:356724647","kind":"peak","name":"Split Mountain","lat":29.5980055,"lon":-99.3764324,"elevationM":604},{"id":"node:356725049","kind":"peak","name":"Sugarloaf Mountain","lat":29.6760586,"lon":-99.2561516,"elevationM":577},{"id":"node:356725443","kind":"peak","name":"Taylor Mountain","lat":29.7260572,"lon":-99.5272712,"elevationM":654},{"id":"node:356725608","kind":"peak","name":"Texas Mountain","lat":29.597172,"lon":-99.29143,"elevationM":596},{"id":"node:356725674","kind":"peak","name":"The Shut-In","lat":29.4980092,"lon":-99.7103313,"elevationM":412},{"id":"node:356725918","kind":"peak","name":"Town Mountain","lat":29.7030026,"lon":-99.0922577,"elevationM":532},{"id":"node:356726320","kind":"peak","name":"Twin Sisters","lat":29.9724373,"lon":-99.0492046,"elevationM":533},{"id":"node:356726696","kind":"peak","name":"Mount Verde","lat":29.9018842,"lon":-99.1050381,"elevationM":574},{"id":"node:356727158","kind":"peak","name":"Wernette Mountain","lat":29.6618926,"lon":-99.5078256,"elevationM":647},{"id":"node:356727428","kind":"peak","name":"White Bluff","lat":29.8802176,"lon":-99.3439331,"elevationM":545},{"id":"node:356728821","kind":"peak","name":"Batesville Hill","lat":29.0302452,"lon":-99.7169991,"elevationM":290},{"id":"node:356729537","kind":"peak","name":"Black Mountain","lat":29.3071807,"lon":-99.7158878,"elevationM":388},{"id":"node:356729598","kind":"peak","name":"Blue Mountain","lat":29.3035696,"lon":-99.6675529,"elevationM":386},{"id":"node:356730531","kind":"peak","name":"Cantrell Mountain","lat":29.2013505,"lon":-99.9761738,"elevationM":391},{"id":"node:356733288","kind":"peak","name":"Duffys Mountain","lat":29.8335536,"lon":-99.0792032,"elevationM":580},{"id":"node:356733566","kind":"peak","name":"Echo Mountain","lat":29.7716108,"lon":-99.9781248,"elevationM":626},{"id":"node:356734438","kind":"peak","name":"Fohn Hill","lat":29.2671806,"lon":-99.2280945,"elevationM":311},{"id":"node:356736693","kind":"peak","name":"Hog Pen Mountain","lat":29.8129978,"lon":-99.994237,"elevationM":657},{"id":"node:356737267","kind":"volcano","name":"Inge Mountain","lat":29.1813513,"lon":-99.7656118,"elevationM":309},{"id":"node:356737299","kind":"peak","name":"Irishman Hill","lat":29.174962,"lon":-99.4142115,"elevationM":291},{"id":"node:356738643","kind":"peak","name":"Langford Mountain","lat":29.81661,"lon":-99.0089232,"elevationM":562},{"id":"node:356740441","kind":"peak","name":"Mount Medina","lat":29.8285536,"lon":-99.1261489,"elevationM":596},{"id":"node:356741384","kind":"peak","name":"Nanny Trap Mountain","lat":29.854664,"lon":-99.0450359,"elevationM":564},{"id":"node:356742105","kind":"peak","name":"Nueces Hill","lat":29.2085725,"lon":-99.9306169,"elevationM":360},{"id":"node:356742266","kind":"peak","name":"Obi Hill","lat":29.2332939,"lon":-99.965618,"elevationM":358},{"id":"node:356743138","kind":"peak","name":"Pilot Knob","lat":29.2282934,"lon":-99.4283789,"elevationM":294},{"id":"node:356743441","kind":"peak","name":"Polly Peak","lat":29.7757782,"lon":-99.0114226,"elevationM":554},{"id":"node:356743933","kind":"peak","name":"Red Hill","lat":29.2005161,"lon":-99.1794815,"elevationM":266},{"id":"node:356744577","kind":"peak","name":"Rocky Hill","lat":29.180518,"lon":-99.8156133,"elevationM":298},{"id":"node:356744705","kind":"peak","name":"Round Top","lat":29.8688301,"lon":-99.0597587,"elevationM":611},{"id":"node:356745914","kind":"peak","name":"Sand Mountain","lat":29.0135788,"lon":-99.9170049,"elevationM":263},{"id":"node:356746046","kind":"peak","name":"Schmidt Hill","lat":29.3705118,"lon":-99.0039204,"elevationM":316},{"id":"node:356746203","kind":"peak","name":"Sevenmile Hill","lat":29.2771816,"lon":-99.8675594,"elevationM":325},{"id":"node:356746842","kind":"peak","name":"State Mountain","lat":29.84522,"lon":-99.0294799,"elevationM":594},{"id":"node:356747119","kind":"peak","name":"Sugarloaf Hill","lat":29.8488307,"lon":-99.0939261,"elevationM":573},{"id":"node:356747133","kind":"peak","name":"Sulphur Mountain","lat":29.1771846,"lon":-99.9814516,"elevationM":335},{"id":"node:356747185","kind":"peak","name":"Sunset Mountain","lat":29.8404978,"lon":-99.070592,"elevationM":592},{"id":"node:356747589","kind":"peak","name":"Tom Nunn Hill","lat":29.1641295,"lon":-99.9231165,"elevationM":307},{"id":"node:356747712","kind":"peak","name":"Turkey Peak","lat":29.7738329,"lon":-99.99757,"elevationM":648},{"id":"node:356748149","kind":"peak","name":"Wagon Top","lat":29.1096867,"lon":-99.9967297,"elevationM":274},{"id":"node:356748521","kind":"peak","name":"Weymiller Butte","lat":29.1519077,"lon":-99.9436726,"elevationM":305},{"id":"node:356749171","kind":"peak","name":"Big Mountain","lat":29.2613487,"lon":-99.748389,"elevationM":347},{"id":"node:356749181","kind":"peak","name":"Black Hill","lat":29.3830123,"lon":-99.8022794,"elevationM":405},{"id":"node:356749491","kind":"peak","name":"Davenport Hill","lat":29.4638435,"lon":-99.7920012,"elevationM":535},{"id":"node:356749516","kind":"peak","name":"Double Knobs","lat":29.4749545,"lon":-99.967564,"elevationM":572},{"id":"node:356749587","kind":"peak","name":"Flag Mountain","lat":29.4107894,"lon":-99.7836676,"elevationM":455},{"id":"node:356749673","kind":"peak","name":"Green Mountain","lat":29.3957898,"lon":-99.8092242,"elevationM":442},{"id":"node:356750421","kind":"peak","name":"Ringtail Mountain","lat":29.4746761,"lon":-99.5675489,"elevationM":416},{"id":"node:356750674","kind":"peak","name":"Sinks Hill","lat":29.4868982,"lon":-99.6236618,"elevationM":465},{"id":"node:356750720","kind":"peak","name":"Sycamore Mountain","lat":29.4696768,"lon":-99.9408962,"elevationM":562},{"id":"node:3023629095","kind":"peak","name":"Ol' Baldy","lat":29.5754558,"lon":-99.7299382,"elevationM":null},{"id":"node:5891897052","kind":"peak","name":"Edwards Peak","lat":29.8884676,"lon":-99.2297374,"elevationM":666},{"id":"node:11369435875","kind":"peak","name":"Traprock Hill","lat":29.2857383,"lon":-99.6566802,"elevationM":null},{"id":"node:12980079205","kind":"peak","name":"Guadalupe","lat":29.9164979,"lon":-99.5862358,"elevationM":740}]}