{"tileKey":"la_p18_lo_p145","version":"v1-1775891056926","entries":[{"id":"node:358021374","kind":"peak","name":"Bandeera","lat":18.1302778,"lon":145.7638889,"elevationM":26},{"id":"node:358021441","kind":"peak","name":"Kutake Yashi","lat":18.0613889,"lon":145.7313889,"elevationM":206},{"id":"node:358021469","kind":"peak","name":"Maru Mountain","lat":18.0919444,"lon":145.7569444,"elevationM":154},{"id":"node:1914665997","kind":"volcano","name":"Mount Agrihan","lat":18.777839,"lon":145.6806579,"elevationM":965},{"id":"node:11388020095","kind":"peak","name":"Togari Mountain","lat":18.0880583,"lon":145.7495653,"elevationM":null},{"id":"node:11388020097","kind":"peak","name":"Mount Pagan","lat":18.1428337,"lon":145.7869516,"elevationM":null}]}