{"tileKey":"la_p31_lo_m107","version":"v1-1775891056926","entries":[{"id":"node:356698794","kind":"peak","name":"Anthonys Nose","lat":31.9595469,"lon":-106.4986003,"elevationM":2081},{"id":"node:356713261","kind":"peak","name":"North Franklin Mountain","lat":31.9028762,"lon":-106.4936356,"elevationM":2186},{"id":"node:356728713","kind":"peak","name":"Backbone Hill","lat":31.7012239,"lon":-106.0624753,"elevationM":1287},{"id":"node:356730288","kind":"peak","name":"Caisson Hill","lat":31.7706646,"lon":-106.3816512,"elevationM":1174},{"id":"node:356731862","kind":"peak","name":"Comanche Peak","lat":31.7967743,"lon":-106.4824872,"elevationM":1593},{"id":"node:356732608","kind":"peak","name":"Crazycat Mountain","lat":31.7948298,"lon":-106.4947097,"elevationM":1392},{"id":"node:356733849","kind":"peak","name":"Engineer Hill","lat":31.7767754,"lon":-106.3991517,"elevationM":1171},{"id":"node:356734285","kind":"peak","name":"Flag Hill","lat":31.8134403,"lon":-106.4980433,"elevationM":1378},{"id":"node:356734569","kind":"peak","name":"Mount Franklin","lat":31.8320508,"lon":-106.49221,"elevationM":1870},{"id":"node:356735145","kind":"peak","name":"Gold Hill","lat":31.7795525,"lon":-106.4780425,"elevationM":1182},{"id":"node:356735933","kind":"peak","name":"Hag Hill","lat":31.7837195,"lon":-106.407763,"elevationM":1187},{"id":"node:356736941","kind":"peak","name":"Horse Hill","lat":31.6953909,"lon":-106.0435859,"elevationM":1281},{"id":"node:356743806","kind":"peak","name":"Ranger Peak","lat":31.8051073,"lon":-106.4830429,"elevationM":1711},{"id":"node:356746644","kind":"peak","name":"South Franklin Mountain","lat":31.8645499,"lon":-106.4908214,"elevationM":2070},{"id":"node:356747123","kind":"peak","name":"Sugarloaf Mountain","lat":31.8292734,"lon":-106.4680427,"elevationM":1593},{"id":"node:356751470","kind":"peak","name":"Indian Peak","lat":31.9064931,"lon":-106.4849882,"elevationM":1985},{"id":"node:357607588","kind":"peak","name":"Sierra de Cristo Rey","lat":31.7872309,"lon":-106.5458123,"elevationM":1400},{"id":"node:369152798","kind":"volcano","name":"Kilbourne Hole","lat":31.9716592,"lon":-106.9632159,"elevationM":1204},{"id":"node:1217252893","kind":"peak","name":"The Mammoth","lat":31.8651186,"lon":-106.4961075,"elevationM":1982},{"id":"node:2799457876","kind":"peak","name":"Cerro El Picacho","lat":31.5192298,"lon":-106.7257959,"elevationM":null},{"id":"node:2799457898","kind":"peak","name":"Cerro El Coyote","lat":31.5691833,"lon":-106.6779687,"elevationM":null},{"id":"node:2799458017","kind":"peak","name":"Cerro La Cruz","lat":31.5184385,"lon":-106.7058832,"elevationM":null},{"id":"node:2799458018","kind":"peak","name":"Cerro El Mesudo","lat":31.5163707,"lon":-106.6851117,"elevationM":null},{"id":"node:2799474772","kind":"volcano","name":"C. Volcán El Potrillo","lat":31.764935,"lon":-106.999284,"elevationM":1280},{"id":"node:2912125761","kind":"peak","name":"Cerro Bola","lat":31.6708542,"lon":-106.5192537,"elevationM":1750},{"id":"node:2912140233","kind":"peak","name":"Sierra Presidio","lat":31.4047347,"lon":-106.4191555,"elevationM":1660},{"id":"node:2912140234","kind":"peak","name":"C. El Javali","lat":31.3781426,"lon":-106.3867163,"elevationM":1520},{"id":"node:3094906505","kind":"peak","name":"Asfixia","lat":31.6820421,"lon":-106.5585933,"elevationM":null},{"id":"node:3110095473","kind":"peak","name":"Sierra la Rancheria","lat":31.0271772,"lon":-106.3573234,"elevationM":2120},{"id":"node:3491504453","kind":"peak","name":"Point 5150","lat":31.8505666,"lon":-106.5046177,"elevationM":null},{"id":"node:4097811536","kind":"peak","name":"Las Felipas","lat":31.1455123,"lon":-106.4952511,"elevationM":null},{"id":"node:4097820302","kind":"peak","name":"Sierra las Conchas","lat":31.0929651,"lon":-106.5281549,"elevationM":1550},{"id":"node:4097820324","kind":"peak","name":"Cerro Las Higueras Sierra las Candelarias","lat":31.0062082,"lon":-106.540148,"elevationM":2130},{"id":"node:4105948972","kind":"peak","name":"C. Sapello","lat":31.491638,"lon":-106.6262193,"elevationM":1390},{"id":"node:4995250540","kind":"peak","name":"C. Banco del Carnicero","lat":31.0214085,"lon":-106.6111113,"elevationM":1360},{"id":"node:5010505345","kind":"peak","name":"C. Del Yeso","lat":31.3881478,"lon":-106.625862,"elevationM":1310},{"id":"node:5024836247","kind":"peak","name":"Loma El Gato","lat":31.2357768,"lon":-106.5737967,"elevationM":1300},{"id":"node:5024852761","kind":"peak","name":"C. El Contrabando","lat":31.2512401,"lon":-106.2782401,"elevationM":1760},{"id":"node:5024866259","kind":"peak","name":"C. La Boquilla","lat":31.3463035,"lon":-106.2633727,"elevationM":1400},{"id":"node:5024917903","kind":"peak","name":"C. La Morita","lat":31.1833231,"lon":-106.5377818,"elevationM":1330},{"id":"node:5025046268","kind":"peak","name":"Cerros El Aguila","lat":31.1520398,"lon":-106.3050924,"elevationM":1570},{"id":"node:5025046269","kind":"peak","name":"Cerros El Sabinoso","lat":31.2352587,"lon":-106.3157159,"elevationM":1550},{"id":"node:5025092596","kind":"peak","name":"Lomas El Llanto","lat":31.1722719,"lon":-106.3914001,"elevationM":1370},{"id":"node:5025203007","kind":"peak","name":"Sierra los Muertos","lat":31.1033177,"lon":-106.9359155,"elevationM":1370},{"id":"node:5025221977","kind":"peak","name":"Sierra la Amargosa","lat":31.0089317,"lon":-106.8923334,"elevationM":1280},{"id":"node:5366630488","kind":"peak","name":"El Aguila","lat":31.6936885,"lon":-106.5118993,"elevationM":1500},{"id":"node:5381272092","kind":"peak","name":"C. La Cruz","lat":31.2116012,"lon":-106.576368,"elevationM":1310},{"id":"node:7264107174","kind":"peak","name":"Loma Sapello","lat":31.4814748,"lon":-106.6089981,"elevationM":1250},{"id":"node:10043280759","kind":"peak","name":"La Tortola","lat":31.0733134,"lon":-106.6117584,"elevationM":1270},{"id":"node:11033684767","kind":"peak","name":"Cerro de la Biblia","lat":31.7041918,"lon":-106.5205267,"elevationM":null},{"id":"node:11369435909","kind":"peak","name":"Castner Range","lat":31.9012156,"lon":-106.4677655,"elevationM":null},{"id":"node:11447699946","kind":"peak","name":"Cerrito Castejón","lat":31.7079937,"lon":-106.5835834,"elevationM":1380},{"id":"node:11694873200","kind":"peak","name":"Cerro de la Cruz","lat":31.7050211,"lon":-106.5079403,"elevationM":1400},{"id":"node:12387500405","kind":"peak","name":"Asfixia","lat":31.6814885,"lon":-106.5592098,"elevationM":null},{"id":"node:12401404242","kind":"peak","name":"Cima Real","lat":31.7024222,"lon":-106.5054502,"elevationM":null},{"id":"node:12878020990","kind":"volcano","name":"Hunt's Hole","lat":31.9237009,"lon":-106.9679976,"elevationM":null}]}