{"tileKey":"la_p6_lo_m6","version":"v1-1775891056926","entries":[{"id":"node:11770965531","kind":"peak","name":"Mont Assanou Oka","lat":6.9586281,"lon":-5.311589,"elevationM":370},{"id":"node:11872800901","kind":"peak","name":"Mont Dié Oka","lat":6.7293832,"lon":-5.0852663,"elevationM":340},{"id":"node:11872925896","kind":"peak","name":"Mont Soiena","lat":6.8421973,"lon":-5.0132561,"elevationM":420},{"id":"node:11902384968","kind":"peak","name":"Monts Kokoumbo","lat":6.5828276,"lon":-5.2309431,"elevationM":520},{"id":"node:12230602214","kind":"peak","name":"Monts Aléboumba","lat":6.5442471,"lon":-5.1186418,"elevationM":450},{"id":"node:13397530000","kind":"peak","name":"Mont Kounyé","lat":6.8214862,"lon":-5.0104952,"elevationM":null},{"id":"node:13397531081","kind":"peak","name":"Monts Kokoumbo","lat":6.5749158,"lon":-5.2530099,"elevationM":null},{"id":"node:13430229788","kind":"peak","name":"Zao Oka","lat":6.5976641,"lon":-5.0642933,"elevationM":null}]}