{"tileKey":"la_p39_lo_p43","version":"v1-1775891056926","entries":[{"id":"node:838803772","kind":"peak","name":"Sarıçiçek Dağı","lat":39.333496,"lon":43.6439301,"elevationM":3214},{"id":"node:883963518","kind":"volcano","name":"Tendürek Dağı","lat":39.354844,"lon":43.8669939,"elevationM":3584},{"id":"node:1389176813","kind":"peak","name":"Biçen Tepesi","lat":39.8068313,"lon":43.6522388,"elevationM":2810},{"id":"node:1389176815","kind":"peak","name":"Zordağı","lat":39.7180486,"lon":43.9236666,"elevationM":3190},{"id":"node:1946104411","kind":"peak","name":"Eşik Tepe","lat":39.7546904,"lon":43.7779713,"elevationM":2524},{"id":"node:1946104413","kind":"peak","name":"Gözüdağı Tepesi","lat":39.7172161,"lon":43.5191715,"elevationM":2787},{"id":"node:2284818563","kind":"peak","name":"Murat Tepesi","lat":39.1380762,"lon":43.513279,"elevationM":2612},{"id":"node:2292497941","kind":"peak","name":"Taşteker Tepesi","lat":39.602678,"lon":43.5160824,"elevationM":2154},{"id":"node:2292610068","kind":"peak","name":"Ala Dağlar","lat":39.3030891,"lon":43.6098595,"elevationM":3228},{"id":"node:2292610076","kind":"peak","name":"Arı Dağı","lat":39.698486,"lon":43.657448,"elevationM":2934},{"id":"node:2292610080","kind":"peak","name":"Attepesi","lat":39.2367976,"lon":43.7889514,"elevationM":2451},{"id":"node:2292610099","kind":"peak","name":"Biçare Tepesi","lat":39.6580932,"lon":43.5981238,"elevationM":2574},{"id":"node:2292610101","kind":"peak","name":"Bozburundağı Tepesi","lat":39.5867008,"lon":43.948004,"elevationM":2041},{"id":"node:2292610124","kind":"peak","name":"Gövük Tepe","lat":39.5161593,"lon":43.7605431,"elevationM":2402},{"id":"node:2292610126","kind":"peak","name":"Gül Tepe","lat":39.2711384,"lon":43.6231799,"elevationM":3152},{"id":"node:2292610127","kind":"peak","name":"Gülebakan Tepesi","lat":39.0850011,"lon":43.8829731,"elevationM":2274},{"id":"node:2292610128","kind":"peak","name":"Gülizar Tepesi","lat":39.3860899,"lon":43.8085818,"elevationM":3041},{"id":"node:2292610137","kind":"peak","name":"Hakim Tepesi","lat":39.5290238,"lon":43.9334539,"elevationM":1942},{"id":"node:2292610141","kind":"peak","name":"Hüdavendigar Dağı","lat":39.3402558,"lon":43.4468277,"elevationM":3513},{"id":"node:2292610142","kind":"peak","name":"Kaldırımlı Tepe","lat":39.6356652,"lon":43.8854398,"elevationM":1861},{"id":"node:2292610154","kind":"peak","name":"Kavga Tepesi","lat":39.5294793,"lon":43.5782458,"elevationM":2271},{"id":"node:2292610157","kind":"peak","name":"Kazağa Tepesi","lat":39.434704,"lon":43.5291932,"elevationM":2572},{"id":"node:2292610158","kind":"peak","name":"Kesiktaş Tepesi","lat":39.4365131,"lon":43.6522288,"elevationM":2255},{"id":"node:2292610163","kind":"peak","name":"Kurt Tepesi","lat":39.5554318,"lon":43.8318775,"elevationM":1968},{"id":"node:2292610170","kind":"peak","name":"Köse Dağı","lat":39.158792,"lon":43.8054949,"elevationM":2646},{"id":"node:2292610171","kind":"volcano","name":"Küçük Tendürek Tepesi","lat":39.365079,"lon":43.9212686,"elevationM":null},{"id":"node:2292610173","kind":"peak","name":"Kırkamber Tepesi","lat":39.24636,"lon":43.5364709,"elevationM":3419},{"id":"node:2292610179","kind":"peak","name":"Nişangah Tepesi","lat":39.3075886,"lon":43.6045447,"elevationM":3350},{"id":"node:2292610187","kind":"peak","name":"Pala Tepesi","lat":39.6099627,"lon":43.6112404,"elevationM":2073},{"id":"node:2292610206","kind":"peak","name":"Sivri Tepe","lat":39.1870359,"lon":43.7720212,"elevationM":2458},{"id":"node:2292610213","kind":"peak","name":"Susuz Tepe","lat":39.0166555,"lon":43.8648354,"elevationM":2761},{"id":"node:2292610214","kind":"peak","name":"Susuz Tepe","lat":39.4751025,"lon":43.8158073,"elevationM":2372},{"id":"node:2292610218","kind":"peak","name":"Tabya Tepesi","lat":39.6724987,"lon":43.7757898,"elevationM":2133},{"id":"node:2292610231","kind":"peak","name":"Velibey Tepesi","lat":39.2097845,"lon":43.5244809,"elevationM":3213},{"id":"node:2292610241","kind":"peak","name":"Yağlı Tepe","lat":39.3689208,"lon":43.6712495,"elevationM":2975},{"id":"node:2292610261","kind":"peak","name":"Ziyaret Tepesi","lat":39.1118068,"lon":43.9630671,"elevationM":2141},{"id":"node:2292610263","kind":"peak","name":"Ziyaret Tepesi","lat":39.5619084,"lon":43.6979428,"elevationM":2215},{"id":"node:2293222284","kind":"peak","name":"Simokalesi Tepesi","lat":39.9919836,"lon":43.0638414,"elevationM":2877},{"id":"node:2296675515","kind":"peak","name":"Akçadağ","lat":39.0263117,"lon":43.6269724,"elevationM":2924},{"id":"node:2296675526","kind":"peak","name":"Bemraz Dağı","lat":39.175516,"lon":43.8187073,"elevationM":2690},{"id":"node:2296675527","kind":"peak","name":"Bemraz Dağı","lat":39.2140085,"lon":43.8637395,"elevationM":2567},{"id":"node:2694888414","kind":"volcano","name":"Girekol Yanardağı","lat":39.1987815,"lon":43.1823764,"elevationM":2323},{"id":"node:3656459406","kind":"peak","name":"Kavuk Tepesi","lat":39.5356463,"lon":43.7484289,"elevationM":2363},{"id":"node:8251415469","kind":"peak","name":"Zernaki Tepe","lat":39.0582877,"lon":43.3499747,"elevationM":1885},{"id":"node:8661458959","kind":"peak","name":"Koçbaşı","lat":39.4074173,"lon":43.3437252,"elevationM":3485},{"id":"node:8661459017","kind":"peak","name":"Zor Dağı","lat":39.7242206,"lon":43.9040279,"elevationM":3205},{"id":"node:9241318096","kind":"peak","name":"Boz Tepe","lat":39.5120866,"lon":43.7479448,"elevationM":2260},{"id":"node:9241318097","kind":"peak","name":"Çobantaşı Tepesi","lat":39.5071533,"lon":43.7772131,"elevationM":2341},{"id":"node:12454428316","kind":"peak","name":"Demler Tepe","lat":39.6315891,"lon":43.0182338,"elevationM":null}]}