{"tileKey":"la_p43_lo_p27","version":"v1-1775891056926","entries":[{"id":"node:1238094141","kind":"peak","name":"Байряка","lat":43.2619761,"lon":27.8313975,"elevationM":313},{"id":"node:1238094163","kind":"peak","name":"Орман табия","lat":43.2436474,"lon":27.9027968,"elevationM":303},{"id":"node:1238094186","kind":"peak","name":"Пейчовата могила","lat":43.3217945,"lon":27.9929117,"elevationM":248},{"id":"node:1238094205","kind":"peak","name":"Маница табия","lat":43.2465067,"lon":27.938829,"elevationM":338},{"id":"node:1238094290","kind":"peak","name":"Аладжа тарлъ табия","lat":43.2535045,"lon":27.9309257,"elevationM":337},{"id":"node:1238094519","kind":"peak","name":"Армудтабия","lat":43.2629716,"lon":27.908714,"elevationM":343},{"id":"node:1238094991","kind":"peak","name":"Команлъка","lat":43.2912242,"lon":27.8250187,"elevationM":356},{"id":"node:1238095039","kind":"peak","name":"Каракаштепе","lat":43.2385425,"lon":27.9651323,"elevationM":247},{"id":"node:1238095148","kind":"peak","name":"Коджатепе","lat":43.2329945,"lon":27.9728709,"elevationM":202},{"id":"node:1238095323","kind":"peak","name":"Калето","lat":43.3291102,"lon":27.8909425,"elevationM":279},{"id":"node:1238095437","kind":"peak","name":"Клисебаир","lat":43.2271688,"lon":27.8019802,"elevationM":87},{"id":"node:1238095483","kind":"peak","name":"Дядо Жекова табия","lat":43.2526099,"lon":27.8978226,"elevationM":337},{"id":"node:1263989916","kind":"peak","name":"Таушан тепе","lat":43.2533981,"lon":27.7650395,"elevationM":161},{"id":"node:1264000466","kind":"peak","name":"Сиври тепе","lat":43.25822,"lon":27.755115,"elevationM":254},{"id":"node:2020387692","kind":"peak","name":"Девебаир","lat":43.3473922,"lon":27.8461551,"elevationM":323},{"id":"node:2020387693","kind":"peak","name":"Пирамидата","lat":43.3445935,"lon":27.8039706,"elevationM":364},{"id":"node:2885872639","kind":"peak","name":"Двете Могили","lat":43.2820768,"lon":27.1270772,"elevationM":430},{"id":"node:2885872640","kind":"peak","name":"Могилата","lat":43.2820644,"lon":27.1802048,"elevationM":374},{"id":"node:2887260915","kind":"peak","name":"Градето","lat":43.2626618,"lon":27.2833289,"elevationM":341},{"id":"node:2887260916","kind":"peak","name":"Дюза","lat":43.2699445,"lon":27.2765768,"elevationM":358},{"id":"node:2887260917","kind":"peak","name":"Калето","lat":43.2416813,"lon":27.3771363,"elevationM":294},{"id":"node:2887260918","kind":"peak","name":"Сараите","lat":43.2819135,"lon":27.2423457,"elevationM":363},{"id":"node:2887260919","kind":"peak","name":"Тудорица","lat":43.2358423,"lon":27.360652,"elevationM":136},{"id":"node:3017622080","kind":"peak","name":"Курттепе","lat":43.2759897,"lon":27.6277183,"elevationM":285},{"id":"node:3193635395","kind":"peak","name":"Дооря","lat":43.0937176,"lon":27.3775813,"elevationM":355},{"id":"node:3554728772","kind":"peak","name":"Равнището","lat":43.259408,"lon":27.1603224,"elevationM":350},{"id":"node:5708521489","kind":"peak","name":"Араптабия","lat":43.1579917,"lon":27.9032487,"elevationM":230},{"id":"node:7264574276","kind":"peak","name":"Калето","lat":43.2782187,"lon":27.8208916,"elevationM":343},{"id":"node:8158564766","kind":"peak","name":"изгрев Ташлъ тепе","lat":43.2316726,"lon":27.9575429,"elevationM":307},{"id":"node:10959395573","kind":"peak","name":"Tufani","lat":43.9827063,"lon":27.9939903,"elevationM":null},{"id":"node:11463823561","kind":"peak","name":"Калина могила","lat":43.1966745,"lon":27.3732707,"elevationM":263},{"id":"node:11878822536","kind":"peak","name":"Ламбуржата","lat":43.2669207,"lon":27.7117159,"elevationM":341},{"id":"node:12943651056","kind":"peak","name":"Карасолук","lat":43.3642815,"lon":27.9588725,"elevationM":294},{"id":"node:13589721163","kind":"peak","name":"Аскаданбаир","lat":43.2561356,"lon":27.7828052,"elevationM":169},{"id":"node:13589721164","kind":"peak","name":"Черната могила","lat":43.2583723,"lon":27.7715043,"elevationM":187}]}