{"tileKey":"la_p36_lo_p70","version":"v1-1775891056926","entries":[{"id":"node:310518540","kind":"peak","name":"کوه بندکا","lat":36.1792744,"lon":70.9833542,"elevationM":6812},{"id":"node:4386666811","kind":"peak","name":"کوه سر اوشنوگان","lat":36.328276,"lon":70.534984,"elevationM":null},{"id":"node:4386769869","kind":"peak","name":"شائین در","lat":36.578954,"lon":70.598547,"elevationM":null},{"id":"node:4386769870","kind":"peak","name":"سر جو","lat":36.594533,"lon":70.605581,"elevationM":null},{"id":"node:4386769871","kind":"peak","name":"سربند سغی","lat":36.627229,"lon":70.640148,"elevationM":null},{"id":"node:4386804166","kind":"peak","name":"کوه اسکی","lat":36.210518,"lon":70.591594,"elevationM":null},{"id":"node:4386804167","kind":"peak","name":"کوه سر چپ دره","lat":36.2350184,"lon":70.5184604,"elevationM":null},{"id":"node:4386804170","kind":"peak","name":"نقره آو","lat":36.615723,"lon":70.954954,"elevationM":null},{"id":"node:4386804172","kind":"peak","name":"سر فوراو","lat":36.2313385,"lon":70.5582354,"elevationM":null},{"id":"node:4387125798","kind":"peak","name":"کوه کما لنگ","lat":36.854305,"lon":70.734468,"elevationM":null},{"id":"node:4423888273","kind":"peak","name":"کوه مندا","lat":36.3041079,"lon":70.438657,"elevationM":null},{"id":"node:5585780467","kind":"peak","name":"Kōh-e Kamar-e Ayshān","lat":36.2855591,"lon":70.0971349,"elevationM":4162},{"id":"node:5585780468","kind":"peak","name":"Kōh-e Bādnishīn;د بدخشان غر","lat":36.2727098,"lon":70.0933916,"elevationM":4407},{"id":"node:6612264155","kind":"peak","name":"قلعه سرخ","lat":36.1423704,"lon":70.9844328,"elevationM":6171},{"id":"node:6612711943","kind":"peak","name":"Pīr Yakhhā-ye Darah Sakhī","lat":36.2300525,"lon":70.9663597,"elevationM":6414}]}