{"tileKey":"la_p16_lo_p27","version":"v1-1775891056926","entries":[{"id":"node:7731289278","kind":"peak","name":"Jebel El Muksam","lat":16.242342,"lon":27.004286,"elevationM":null},{"id":"node:7731291758","kind":"peak","name":"Jebel El Jihaf","lat":16.974877,"lon":27.175176,"elevationM":null},{"id":"node:7731291759","kind":"peak","name":"Jebel Beit en Nahas","lat":16.706329,"lon":27.665392,"elevationM":null},{"id":"node:7731291764","kind":"peak","name":"Jebel Dawaybil","lat":16.284737,"lon":27.592215,"elevationM":null},{"id":"node:7731291765","kind":"peak","name":"Jebel Khatimai","lat":16.0255052,"lon":27.2695136,"elevationM":null},{"id":"node:7731291766","kind":"peak","name":"Jebel Naqaqir","lat":16.312073,"lon":27.63512,"elevationM":null},{"id":"node:7731291769","kind":"peak","name":"Qureinat es Saiyal","lat":16.667434,"lon":27.453574,"elevationM":null},{"id":"node:9754764617","kind":"peak","name":"Jebel Naqaqir","lat":16.3332466,"lon":27.6099812,"elevationM":null},{"id":"node:9754764618","kind":"peak","name":"Jebel Dawaibil","lat":16.3038196,"lon":27.6018345,"elevationM":null},{"id":"node:9754764619","kind":"peak","name":"Jebel Abu Gefani","lat":16.1703525,"lon":27.637558,"elevationM":null},{"id":"node:9754764620","kind":"peak","name":"Jebel 'Ugul","lat":16.2377925,"lon":27.4700596,"elevationM":null},{"id":"node:9757781005","kind":"peak","name":"Qureinat es Saiyal","lat":16.6864409,"lon":27.4302199,"elevationM":null},{"id":"node:9757781006","kind":"peak","name":"Jebel el Jihaf","lat":16.9288264,"lon":27.1287612,"elevationM":null},{"id":"node:9757818283","kind":"peak","name":"Jebel Beit en Nahas","lat":16.7214839,"lon":27.705729,"elevationM":null},{"id":"node:12681188233","kind":"peak","name":"Ras Tageru","lat":16.999717,"lon":27.0049874,"elevationM":null},{"id":"node:12685104495","kind":"peak","name":"Jebel Shauwafat Abu 'Atshan","lat":16.0000075,"lon":27.555389,"elevationM":null}]}