{"tileKey":"la_p36_lo_m120","version":"v1-1775891056926","entries":[{"id":"node:358761581","kind":"peak","name":"Bear Mountain","lat":36.5966149,"lon":-119.046774,"elevationM":1220},{"id":"node:358762157","kind":"peak","name":"Blue Mountain","lat":36.5510597,"lon":-119.0759408,"elevationM":970},{"id":"node:358762372","kind":"peak","name":"Branford Mountain","lat":36.9516151,"lon":-119.2909566,"elevationM":1089},{"id":"node:358762825","kind":"peak","name":"Buttonwillow Peak","lat":36.6485596,"lon":-119.1634465,"elevationM":690},{"id":"node:358762835","kind":"peak","name":"Buzzard Roost","lat":36.5824482,"lon":-119.0417735,"elevationM":900},{"id":"node:358762979","kind":"peak","name":"Campbell Mountain","lat":36.6957833,"lon":-119.4220698,"elevationM":527},{"id":"node:358763267","kind":"peak","name":"Cats Head Mountain","lat":36.958837,"lon":-119.25151,"elevationM":1051},{"id":"node:358763731","kind":"peak","name":"Cliff Peak","lat":36.5566159,"lon":-119.1712225,"elevationM":580},{"id":"node:358764115","kind":"peak","name":"Corn Jack Peak","lat":36.6391153,"lon":-119.1595572,"elevationM":704},{"id":"node:358764477","kind":"peak","name":"Davis Mountain","lat":36.9916152,"lon":-119.3040134,"elevationM":1104},{"id":"node:358765044","kind":"peak","name":"Eagle Peak","lat":36.9399483,"lon":-119.2773448,"elevationM":981},{"id":"node:358765407","kind":"peak","name":"Ellis Mountain","lat":36.5441151,"lon":-119.021494,"elevationM":754},{"id":"node:358766596","kind":"peak","name":"Goat Hill","lat":36.6174481,"lon":-119.0545526,"elevationM":723},{"id":"node:358766667","kind":"peak","name":"Goldstein Peak","lat":36.6291153,"lon":-119.1590015,"elevationM":857},{"id":"node:358766750","kind":"peak","name":"Granite Hill","lat":36.6877274,"lon":-119.3609558,"elevationM":244},{"id":"node:358766809","kind":"peak","name":"Grapevine Peak","lat":36.5632821,"lon":-119.1214985,"elevationM":580},{"id":"node:358766874","kind":"peak","name":"Green Mountain","lat":36.9710605,"lon":-119.4076289,"elevationM":944},{"id":"node:358767024","kind":"peak","name":"Hacker Mountain","lat":36.9152263,"lon":-119.2942896,"elevationM":717},{"id":"node:358767623","kind":"peak","name":"Hog Mountain","lat":36.885782,"lon":-119.3131789,"elevationM":957},{"id":"node:358768364","kind":"peak","name":"Jesse Morrow Mountain","lat":36.7360608,"lon":-119.4081809,"elevationM":640},{"id":"node:358768499","kind":"peak","name":"Jorgensen Point","lat":36.7035591,"lon":-119.1401135,"elevationM":733},{"id":"node:358768694","kind":"peak","name":"Keys Mountain","lat":36.953839,"lon":-119.4820765,"elevationM":597},{"id":"node:358772250","kind":"peak","name":"Owens Mountain","lat":36.9299499,"lon":-119.6412513,"elevationM":487},{"id":"node:358772253","kind":"peak","name":"Owl Mountain","lat":36.881615,"lon":-119.2609543,"elevationM":651},{"id":"node:358773310","kind":"peak","name":"Red Mountain","lat":36.512449,"lon":-119.0951073,"elevationM":703},{"id":"node:358773313","kind":"peak","name":"Red Mountain","lat":36.8627273,"lon":-119.3995714,"elevationM":730},{"id":"node:358773316","kind":"peak","name":"Red Mountain","lat":36.9607828,"lon":-119.4145735,"elevationM":844},{"id":"node:358773874","kind":"peak","name":"Round Mountain","lat":36.8188393,"lon":-119.5101313,"elevationM":263},{"id":"node:358773980","kind":"peak","name":"Ruth Hill","lat":36.7305037,"lon":-119.1940051,"elevationM":782},{"id":"node:358774775","kind":"peak","name":"Sawyer Peak","lat":36.5974489,"lon":-119.17039,"elevationM":726},{"id":"node:358775432","kind":"peak","name":"Smith Mountain","lat":36.5818944,"lon":-119.3465087,"elevationM":311},{"id":"node:358776703","kind":"peak","name":"Sugarloaf","lat":36.5635596,"lon":-119.0678852,"elevationM":809},{"id":"node:358777489","kind":"peak","name":"Tucker Mountain","lat":36.6388377,"lon":-119.2095591,"elevationM":790},{"id":"node:358778913","kind":"peak","name":"Wildcat Mountain","lat":36.883283,"lon":-119.4304064,"elevationM":669},{"id":"node:358779796","kind":"peak","name":"Antelope Mountain","lat":36.4321715,"lon":-119.0753833,"elevationM":473},{"id":"node:358780112","kind":"peak","name":"Bacon Hill","lat":36.4518942,"lon":-119.1806657,"elevationM":192},{"id":"node:358780119","kind":"peak","name":"Badger Hill","lat":36.3052278,"lon":-119.0912163,"elevationM":344},{"id":"node:358781714","kind":"peak","name":"Castle Rock","lat":36.423005,"lon":-119.0898284,"elevationM":162},{"id":"node:358782882","kind":"peak","name":"Davis Mountain","lat":36.4671711,"lon":-119.0428823,"elevationM":720},{"id":"node:358787693","kind":"peak","name":"Limekiln Hill","lat":36.4066158,"lon":-119.0039914,"elevationM":296},{"id":"node:358787896","kind":"peak","name":"Lindsay Peak","lat":36.2446724,"lon":-119.0601033,"elevationM":406},{"id":"node:358788043","kind":"peak","name":"Lone Oak Mountain","lat":36.4568937,"lon":-119.1023292,"elevationM":336},{"id":"node:358789963","kind":"peak","name":"Oat Knob","lat":36.4835599,"lon":-119.030382,"elevationM":564},{"id":"node:358791255","kind":"peak","name":"Rocky Hill","lat":36.2871723,"lon":-119.0853825,"elevationM":472},{"id":"node:358791258","kind":"peak","name":"Rocky Hills","lat":36.2052283,"lon":-119.0062121,"elevationM":396},{"id":"node:358792427","kind":"peak","name":"Sentinel Butte","lat":36.4468938,"lon":-119.1106627,"elevationM":217},{"id":"node:358793700","kind":"peak","name":"Twin Buttes","lat":36.4252278,"lon":-119.1962217,"elevationM":192},{"id":"node:358794926","kind":"peak","name":"Wutchumna Hill","lat":36.3877271,"lon":-119.0328812,"elevationM":278},{"id":"node:358795158","kind":"peak","name":"Baker Mountain","lat":36.7105036,"lon":-119.1445582,"elevationM":864},{"id":"node:358796703","kind":"peak","name":"Bald Mountain","lat":36.7660591,"lon":-119.2037283,"elevationM":1070},{"id":"node:358796807","kind":"peak","name":"Bear Mountain","lat":36.746893,"lon":-119.280675,"elevationM":1022},{"id":"node:358797474","kind":"peak","name":"Dalton Mountain","lat":36.7746704,"lon":-119.240952,"elevationM":1063},{"id":"node:358798064","kind":"peak","name":"Harmon Peak","lat":36.7852267,"lon":-119.3251225,"elevationM":667},{"id":"node:358798213","kind":"peak","name":"Hughes Mountain","lat":36.8405045,"lon":-119.333457,"elevationM":722},{"id":"node:358798272","kind":"peak","name":"Indian Hill","lat":36.6341147,"lon":-119.0595532,"elevationM":837},{"id":"node:358798674","kind":"peak","name":"Luckett Mountain","lat":36.8102257,"lon":-119.1937285,"elevationM":955},{"id":"node:358798968","kind":"peak","name":"Oat Mountain","lat":36.8493922,"lon":-119.1881732,"elevationM":1274},{"id":"node:358799042","kind":"peak","name":"Patterson Mountain","lat":36.9743907,"lon":-119.0570585,"elevationM":2479},{"id":"node:358800010","kind":"peak","name":"Sontag Point","lat":36.7468109,"lon":-119.0764547,"elevationM":1296},{"id":"node:358800398","kind":"peak","name":"Tivy Mountain","lat":36.8005048,"lon":-119.3590131,"elevationM":865},{"id":"node:358802679","kind":"peak","name":"Mount Sampson","lat":36.7668918,"lon":-119.0967798,"elevationM":1447},{"id":"node:358805969","kind":"peak","name":"Ash Spring Mountain","lat":36.5918927,"lon":-119.0692748,"elevationM":1089},{"id":"node:358806030","kind":"peak","name":"Barris Hill","lat":36.5582835,"lon":-119.3520641,"elevationM":126},{"id":"node:358806308","kind":"peak","name":"Curtis Mountain","lat":36.5946716,"lon":-119.2562268,"elevationM":400},{"id":"node:358806685","kind":"peak","name":"Kirkman Hill","lat":36.7674505,"lon":-119.4973521,"elevationM":162},{"id":"node:358806863","kind":"peak","name":"Mitchell Peak","lat":36.6819893,"lon":-119.0746921,"elevationM":1072},{"id":"node:358807003","kind":"peak","name":"Mount Olive","lat":36.6271721,"lon":-119.3673439,"elevationM":127},{"id":"node:358807027","kind":"peak","name":"Owl Peak","lat":36.5721708,"lon":-119.0956643,"elevationM":732},{"id":"node:358807444","kind":"peak","name":"Stokes Mountain","lat":36.5180052,"lon":-119.1976116,"elevationM":606},{"id":"node:358807452","kind":"peak","name":"Stony Point","lat":36.8377278,"lon":-119.4545734,"elevationM":356},{"id":"node:358807687","kind":"peak","name":"Washapie Mountain","lat":36.6582817,"lon":-119.1570575,"elevationM":739},{"id":"node:358808378","kind":"peak","name":"Murry Hill","lat":36.0641188,"lon":-119.0053786,"elevationM":166},{"id":"node:358822559","kind":"peak","name":"Johnson Point","lat":36.7013365,"lon":-119.0687218,"elevationM":914},{"id":"node:11360427107","kind":"peak","name":"Steve Barton Point","lat":36.40399,"lon":-119.0306036,"elevationM":262},{"id":"node:11360427114","kind":"peak","name":"Stephenson Hill","lat":36.870907,"lon":-119.464143,"elevationM":null},{"id":"node:11705772090","kind":"peak","name":"929","lat":36.95452,"lon":-119.6780473,"elevationM":null},{"id":"node:11802493202","kind":"peak","name":"Coulthard","lat":36.95832,"lon":-119.752624,"elevationM":176},{"id":"node:13037627639","kind":"peak","name":"Glossers Pilar","lat":36.9891356,"lon":-119.643656,"elevationM":null}]}