{"tileKey":"la_p62_lo_p151","version":"v1-1775891056926","entries":[{"id":"node:9019539108","kind":"peak","name":"Мрачная","lat":62.0450276,"lon":151.8959991,"elevationM":1275},{"id":"node:9024049469","kind":"peak","name":"Премудрость","lat":62.0522479,"lon":151.4263821,"elevationM":1573},{"id":"node:10600811933","kind":"peak","name":"Грозовая","lat":62.513548,"lon":151.5546464,"elevationM":1179},{"id":"node:10607524321","kind":"peak","name":"Столовая","lat":62.410359,"lon":151.2093574,"elevationM":1445},{"id":"node:10614188053","kind":"peak","name":"Сторожевая","lat":62.6148905,"lon":151.171523,"elevationM":1140},{"id":"node:10614188056","kind":"peak","name":"Юбилейная","lat":62.536281,"lon":151.045404,"elevationM":1038}]}