{"tileKey":"la_p44_lo_p33","version":"v1-1775891056926","entries":[{"id":"node:526266489","kind":"peak","name":"Тепе-Кермен","lat":44.7152499,"lon":33.9306355,"elevationM":544},{"id":"node:1002981384","kind":"peak","name":"Кая-Баю","lat":44.538394,"lon":33.7526399,"elevationM":434},{"id":"node:1020082722","kind":"peak","name":"Ильяс-Кая","lat":44.4058534,"lon":33.738207,"elevationM":682},{"id":"node:1020089193","kind":"peak","name":"Кокия-Кая","lat":44.4272427,"lon":33.6571147,"elevationM":559},{"id":"node:1111459658","kind":"peak","name":"Эгиз-Оба","lat":44.7310367,"lon":33.8178788,"elevationM":158},{"id":"node:1132776362","kind":"peak","name":"Челяби-Яурн-Бели","lat":44.4056343,"lon":33.7682016,"elevationM":657},{"id":"node:1398954751","kind":"peak","name":"Таш-Кобан","lat":44.7400401,"lon":33.7654857,"elevationM":268},{"id":"node:1404438104","kind":"peak","name":"Куш-Кая","lat":44.4254791,"lon":33.6804598,"elevationM":664},{"id":"node:1465088393","kind":"peak","name":"Курбан-Кая","lat":44.6670971,"lon":33.8413032,"elevationM":null},{"id":"node:1867164895","kind":"peak","name":"Дорт-Куль","lat":44.8932679,"lon":33.743954,"elevationM":116},{"id":"node:1867164903","kind":"peak","name":"Кара-Оба курган","lat":44.8809315,"lon":33.7341112,"elevationM":null},{"id":"node:2136527309","kind":"peak","name":"Азаз-Баир","lat":44.5900494,"lon":33.8154397,"elevationM":495},{"id":"node:2140354839","kind":"peak","name":"Кая-Баш","lat":44.6313455,"lon":33.7469675,"elevationM":256},{"id":"node:2173410601","kind":"peak","name":"Кошка","lat":44.4039005,"lon":33.9935584,"elevationM":254},{"id":"node:2173438309","kind":"peak","name":"Эшен-Тепе","lat":44.6301465,"lon":33.9039668,"elevationM":376},{"id":"node:2175193110","kind":"peak","name":"Сююрю-Кая","lat":44.51912,"lon":33.9766373,"elevationM":820},{"id":"node:2187350513","kind":"peak","name":"Ат-Баш","lat":44.4386162,"lon":33.9831781,"elevationM":1196},{"id":"node:2187353623","kind":"peak","name":"Спирады","lat":44.4327542,"lon":33.9476939,"elevationM":1029},{"id":"node:2187361855","kind":"peak","name":"Морчека","lat":44.4233879,"lon":33.9255306,"elevationM":981},{"id":"node:2187382685","kind":"peak","name":"Кильсе-Бурун","lat":44.4116403,"lon":33.8267796,"elevationM":712},{"id":"node:2196002036","kind":"peak","name":"Монастырская","lat":44.4688247,"lon":33.7861497,"elevationM":307},{"id":"node:2196002037","kind":"peak","name":"Фундуклы-Боер","lat":44.4784896,"lon":33.8156138,"elevationM":306},{"id":"node:2196379149","kind":"peak","name":"Бешик-Тау","lat":44.7291886,"lon":33.9157377,"elevationM":511},{"id":"node:2196468094","kind":"peak","name":"Шулдан-Бурун","lat":44.5888566,"lon":33.7797837,"elevationM":538},{"id":"node:2196596760","kind":"peak","name":"Бахыр-Бели","lat":44.4874978,"lon":33.6740118,"elevationM":510},{"id":"node:2367784687","kind":"peak","name":"Форосский Кант","lat":44.4060486,"lon":33.8047132,"elevationM":630},{"id":"node:2367784692","kind":"peak","name":"Кастропольская","lat":44.4246899,"lon":33.903228,"elevationM":955},{"id":"node:2367784695","kind":"peak","name":"Куба-Кая","lat":44.4183976,"lon":33.8424267,"elevationM":662},{"id":"node:2367784699","kind":"peak","name":"Мердвен-Каясы","lat":44.4235003,"lon":33.8718493,"elevationM":856},{"id":"node:2367784702","kind":"peak","name":"Мшатка-Каясы","lat":44.4075508,"lon":33.8112363,"elevationM":651},{"id":"node:2367836799","kind":"peak","name":"Биюк-Исар","lat":44.4191705,"lon":33.9520876,"elevationM":733},{"id":"node:2367836800","kind":"peak","name":"Пселя-Кая","lat":44.4168719,"lon":33.9303822,"elevationM":611},{"id":"node:2413742223","kind":"peak","name":"Кала-Фатлар","lat":44.4666737,"lon":33.6512318,"elevationM":558},{"id":"node:2417381207","kind":"peak","name":"Кызыл-Кая","lat":44.4040977,"lon":33.7883512,"elevationM":412},{"id":"node:2533690421","kind":"peak","name":"Аю-Тешик","lat":44.4986882,"lon":33.9629149,"elevationM":1031},{"id":"node:2533690428","kind":"peak","name":"Вилля-Бурун","lat":44.4816158,"lon":33.9399083,"elevationM":1126},{"id":"node:2533690430","kind":"peak","name":"Козюткан-Топчан","lat":44.4948004,"lon":33.9555062,"elevationM":1028},{"id":"node:2533690433","kind":"peak","name":"Курлю-Баир","lat":44.5027522,"lon":33.912551,"elevationM":752},{"id":"node:2533690437","kind":"peak","name":"Куртлер-Богаз","lat":44.5233837,"lon":33.9383753,"elevationM":1016},{"id":"node:2533690444","kind":"peak","name":"Сандык-Баир","lat":44.4987432,"lon":33.9033824,"elevationM":715},{"id":"node:2533690448","kind":"peak","name":"Сюндюрлю-Каясы","lat":44.5063913,"lon":33.8905863,"elevationM":790},{"id":"node:2533690451","kind":"peak","name":"Топшанар","lat":44.5025077,"lon":33.9319183,"elevationM":977},{"id":"node:2533690455","kind":"peak","name":"Ялпах-Кая","lat":44.535516,"lon":33.9211854,"elevationM":864},{"id":"node:2533690458","kind":"peak","name":"Яны-Кыл","lat":44.4785654,"lon":33.9253676,"elevationM":1096},{"id":"node:2533690599","kind":"peak","name":"Седам-Кая","lat":44.5240208,"lon":33.9561351,"elevationM":1026},{"id":"node:2634194181","kind":"peak","name":"Исар-Кая","lat":44.4232878,"lon":33.8563863,"elevationM":600},{"id":"node:2634194182","kind":"peak","name":"Мердвен-Кая","lat":44.4216441,"lon":33.8515982,"elevationM":688},{"id":"node:2634321954","kind":"peak","name":"Мачу","lat":44.5374771,"lon":33.839676,"elevationM":734},{"id":"node:2634463693","kind":"peak","name":"Аждер-Канат","lat":44.4304413,"lon":33.7198529,"elevationM":586},{"id":"node:2634463694","kind":"peak","name":"Каланых-Кая","lat":44.4316178,"lon":33.7374646,"elevationM":627},{"id":"node:2664019870","kind":"peak","name":"Курушлюк","lat":44.662996,"lon":33.8840625,"elevationM":597},{"id":"node:2783347272","kind":"peak","name":"Чуфут-Кале","lat":44.7323124,"lon":33.9332069,"elevationM":565},{"id":"node:2783347273","kind":"peak","name":"Кыз-Куле-Бурун","lat":44.7065512,"lon":33.9198203,"elevationM":null},{"id":"node:2783533283","kind":"peak","name":"Каслибаш","lat":44.6566227,"lon":33.8810374,"elevationM":null},{"id":"node:2783533288","kind":"peak","name":"Чимша-Боир","lat":44.6118795,"lon":33.7921812,"elevationM":null},{"id":"node:2789961565","kind":"peak","name":"Хлама","lat":44.5314449,"lon":33.7822387,"elevationM":588},{"id":"node:3001974067","kind":"peak","name":"Давульджи","lat":44.545924,"lon":33.7943475,"elevationM":580},{"id":"node:3001974068","kind":"peak","name":"Сарпаха","lat":44.4861532,"lon":33.9278649,"elevationM":1065},{"id":"node:3049357113","kind":"peak","name":"Баллы-Коба","lat":44.7161197,"lon":33.8968553,"elevationM":null},{"id":"node:3049357115","kind":"peak","name":"Казан-Кая","lat":44.7226205,"lon":33.9066598,"elevationM":null},{"id":"node:3049357116","kind":"peak","name":"Караул-Тепе","lat":44.7054029,"lon":33.8963699,"elevationM":null},{"id":"node:3055843426","kind":"peak","name":"Топшан","lat":44.6490665,"lon":33.7984623,"elevationM":271},{"id":"node:3055843613","kind":"peak","name":"Пугу-Кая","lat":44.6701787,"lon":33.8378503,"elevationM":379},{"id":"node:3082867810","kind":"peak","name":"Гасфорта","lat":44.5329377,"lon":33.6672528,"elevationM":217},{"id":"node:3083519516","kind":"peak","name":"Аскети","lat":44.492446,"lon":33.6202535,"elevationM":362},{"id":"node:3083646791","kind":"peak","name":"Пска-Баир","lat":44.4365784,"lon":33.7604724,"elevationM":309},{"id":"node:3102562102","kind":"peak","name":"Ай-Тодор-Бурун","lat":44.5296147,"lon":33.7094187,"elevationM":null},{"id":"node:3102562106","kind":"peak","name":"Мырза-Баир","lat":44.5425688,"lon":33.7123643,"elevationM":244},{"id":"node:3102562107","kind":"peak","name":"Тепе-Баш","lat":44.532848,"lon":33.7136881,"elevationM":162},{"id":"node:3102562108","kind":"peak","name":"Чирка-Баир","lat":44.5131748,"lon":33.7039915,"elevationM":488},{"id":"node:3102562109","kind":"peak","name":"Чирка-Каясы","lat":44.529204,"lon":33.6941698,"elevationM":250},{"id":"node:3102875794","kind":"peak","name":"Ирита-Кая","lat":44.531377,"lon":33.8756658,"elevationM":777},{"id":"node:3102875800","kind":"peak","name":"Сандык-Кая","lat":44.5318135,"lon":33.9014205,"elevationM":837},{"id":"node:3102875801","kind":"peak","name":"Тарпан-Баир","lat":44.4526269,"lon":33.9106499,"elevationM":1094},{"id":"node:3102875803","kind":"peak","name":"Чуваш-Кой","lat":44.4590167,"lon":33.8969261,"elevationM":1051},{"id":"node:3114654959","kind":"peak","name":"Балчик-Кая","lat":44.4264161,"lon":33.8942412,"elevationM":945},{"id":"node:3135589293","kind":"peak","name":"Горная Высота","lat":44.5216869,"lon":33.549724,"elevationM":272},{"id":"node:3137380314","kind":"peak","name":"Яных-Сырт","lat":44.757878,"lon":33.9414558,"elevationM":548},{"id":"node:3137380315","kind":"peak","name":"Беш-Кош","lat":44.7494705,"lon":33.9345409,"elevationM":537},{"id":"node:3137380316","kind":"peak","name":"Биюк-Чарыш","lat":44.7700821,"lon":33.944996,"elevationM":524},{"id":"node:3137380317","kind":"peak","name":"Кременная","lat":44.7739274,"lon":33.9731849,"elevationM":451},{"id":"node:3137380318","kind":"peak","name":"Левый Мендер","lat":44.7616807,"lon":33.9744949,"elevationM":445},{"id":"node:3137380319","kind":"peak","name":"Правый Мендер","lat":44.7654321,"lon":33.9787057,"elevationM":443},{"id":"node:3137454011","kind":"peak","name":"Большой Пит","lat":44.7863498,"lon":33.9529662,"elevationM":null},{"id":"node:3137454013","kind":"peak","name":"Шелудивая","lat":44.7577138,"lon":33.9995617,"elevationM":507},{"id":"node:3137454014","kind":"peak","name":"Керт-Мелик","lat":44.7892319,"lon":33.9644499,"elevationM":null},{"id":"node:3137454015","kind":"peak","name":"Малый Пит","lat":44.7887477,"lon":33.9562738,"elevationM":null},{"id":"node:3137463630","kind":"peak","name":"Сель-Бухра","lat":44.7374378,"lon":33.9948486,"elevationM":658},{"id":"node:3139589229","kind":"peak","name":"Орбака","lat":44.5434702,"lon":33.8204293,"elevationM":708},{"id":"node:3161488488","kind":"peak","name":"Арфен-Чаир-Бурун","lat":44.4522097,"lon":33.6697209,"elevationM":596},{"id":"node:3161488489","kind":"peak","name":"Кара-Кыз-Чаир-Бурун","lat":44.4590027,"lon":33.6658329,"elevationM":577},{"id":"node:3161488490","kind":"peak","name":"Кильсе-Бурун","lat":44.4666942,"lon":33.6630654,"elevationM":null},{"id":"node:3161488491","kind":"peak","name":"Малташ-Бурун","lat":44.4445525,"lon":33.6783159,"elevationM":611},{"id":"node:3161488493","kind":"peak","name":"Чамлы-Баир","lat":44.4825206,"lon":33.6906998,"elevationM":370},{"id":"node:3161491853","kind":"peak","name":"Кокия-Бель","lat":44.4366452,"lon":33.6973383,"elevationM":684},{"id":"node:3163711680","kind":"peak","name":"Баш-Кая","lat":44.6399598,"lon":33.7765126,"elevationM":214},{"id":"node:3163711682","kind":"peak","name":"Трапа","lat":44.6454385,"lon":33.7990641,"elevationM":297},{"id":"node:3163711683","kind":"peak","name":"Холм Канробера","lat":44.5221589,"lon":33.6346828,"elevationM":166},{"id":"node:3163711684","kind":"peak","name":"Чобан-Кая","lat":44.6490357,"lon":33.7928394,"elevationM":null},{"id":"node:3185452844","kind":"peak","name":"Ак-Яр-Баир","lat":44.5732751,"lon":33.8698476,"elevationM":743},{"id":"node:3185452845","kind":"peak","name":"Бабулган","lat":44.5592763,"lon":33.8356069,"elevationM":664},{"id":"node:3185452846","kind":"peak","name":"Белая","lat":44.5692068,"lon":33.8007637,"elevationM":443},{"id":"node:3185452847","kind":"peak","name":"Ванна","lat":44.5603059,"lon":33.8609036,"elevationM":563},{"id":"node:3185452848","kind":"peak","name":"Илька","lat":44.5621981,"lon":33.8464984,"elevationM":731},{"id":"node:3185452849","kind":"peak","name":"Каладжи","lat":44.5514488,"lon":33.8264132,"elevationM":683},{"id":"node:3185452850","kind":"peak","name":"Кариши-Баир","lat":44.5734048,"lon":33.7870727,"elevationM":null},{"id":"node:3185452851","kind":"peak","name":"Кая-Баш","lat":44.5594396,"lon":33.8461025,"elevationM":736},{"id":"node:3185452852","kind":"peak","name":"Килиса","lat":44.5508005,"lon":33.8117583,"elevationM":563},{"id":"node:3185452853","kind":"peak","name":"Коба-Кая","lat":44.5696819,"lon":33.8699115,"elevationM":704},{"id":"node:3185452854","kind":"peak","name":"Орта-Сырт","lat":44.5688876,"lon":33.8540462,"elevationM":682},{"id":"node:3185452855","kind":"peak","name":"Хареиз-Баир","lat":44.557829,"lon":33.8057438,"elevationM":null},{"id":"node:3185452856","kind":"peak","name":"Эки-Тепе","lat":44.57245,"lon":33.7689773,"elevationM":null},{"id":"node:3185452857","kind":"peak","name":"Янджу-Баир","lat":44.5773722,"lon":33.8765575,"elevationM":674},{"id":"node:3185464459","kind":"peak","name":"Памнук-Кая","lat":44.6007012,"lon":33.8812899,"elevationM":378},{"id":"node:3185517370","kind":"peak","name":"Телеграфная","lat":44.544086,"lon":33.6665087,"elevationM":96},{"id":"node:3198071695","kind":"peak","name":"Курт-Кая","lat":44.4688745,"lon":33.8672288,"elevationM":573},{"id":"node:3198071696","kind":"peak","name":"Толак-Баир","lat":44.4667402,"lon":33.8978124,"elevationM":887},{"id":"node:3198071697","kind":"peak","name":"Юзумнык-Даг","lat":44.4831423,"lon":33.8722716,"elevationM":557},{"id":"node:3198088967","kind":"peak","name":"Бюзюка","lat":44.4356539,"lon":33.8801869,"elevationM":922},{"id":"node:3198088968","kind":"peak","name":"Кара-Даг","lat":44.452022,"lon":33.8607542,"elevationM":727},{"id":"node:3198088970","kind":"peak","name":"Сахарка","lat":44.4303797,"lon":33.9295963,"elevationM":1024},{"id":"node:3198088971","kind":"peak","name":"Тез-Баир","lat":44.433728,"lon":33.9199723,"elevationM":1012},{"id":"node:3198088972","kind":"peak","name":"Чамны-Даг","lat":44.4390689,"lon":33.8660698,"elevationM":779},{"id":"node:3209239987","kind":"peak","name":"Караул","lat":44.5356876,"lon":33.8705128,"elevationM":761},{"id":"node:3217318566","kind":"peak","name":"Анастасин-Тепеси","lat":44.653734,"lon":33.9746389,"elevationM":629},{"id":"node:3217318567","kind":"peak","name":"Караул-Оба","lat":44.6417831,"lon":33.9657883,"elevationM":671},{"id":"node:3217318568","kind":"peak","name":"Кая-Тепе","lat":44.6583104,"lon":33.9831683,"elevationM":639},{"id":"node:3217318569","kind":"peak","name":"Коль-Бурун","lat":44.6231837,"lon":33.9513952,"elevationM":765},{"id":"node:3217318570","kind":"peak","name":"Крепость","lat":44.6297268,"lon":33.9496229,"elevationM":667},{"id":"node:3217318571","kind":"peak","name":"Святого Ильи","lat":44.6692503,"lon":33.9605343,"elevationM":605},{"id":"node:3217318572","kind":"peak","name":"Татар-Ялга","lat":44.6613391,"lon":33.9467599,"elevationM":null},{"id":"node:3217318573","kind":"peak","name":"Чуку","lat":44.6268516,"lon":33.9417973,"elevationM":757},{"id":"node:3217377834","kind":"peak","name":"Агджи-Мемет","lat":44.5969761,"lon":33.9410203,"elevationM":325},{"id":"node:3217377835","kind":"peak","name":"Алабатская","lat":44.6403778,"lon":33.9318182,"elevationM":541},{"id":"node:3217377836","kind":"peak","name":"Кара-Кору","lat":44.5948123,"lon":33.9572155,"elevationM":336},{"id":"node:3217377837","kind":"peak","name":"Каратлых","lat":44.6178596,"lon":33.9034511,"elevationM":462},{"id":"node:3217377838","kind":"peak","name":"Кюндум-Баиры","lat":44.6350629,"lon":33.8932476,"elevationM":348},{"id":"node:3217377839","kind":"peak","name":"Сююр-Тепе","lat":44.6110252,"lon":33.9872966,"elevationM":621},{"id":"node:3217377841","kind":"peak","name":"Чаклы-Баир","lat":44.6042051,"lon":33.9151064,"elevationM":315},{"id":"node:3217377842","kind":"peak","name":"Чутхырган","lat":44.645091,"lon":33.9209045,"elevationM":524},{"id":"node:3240851048","kind":"peak","name":"Чуплак-Сырт","lat":44.6104091,"lon":33.7698734,"elevationM":null},{"id":"node:3240855602","kind":"peak","name":"Баллы-Коба","lat":44.609187,"lon":33.7640154,"elevationM":402},{"id":"node:3240880134","kind":"peak","name":"Эгерек-Сырт","lat":44.6137621,"lon":33.7756997,"elevationM":381},{"id":"node:3240929093","kind":"peak","name":"Зыбук-Тепе","lat":44.5666095,"lon":33.7438243,"elevationM":451},{"id":"node:3262434029","kind":"peak","name":"Караман","lat":44.5303092,"lon":33.8682736,"elevationM":695},{"id":"node:3262434030","kind":"peak","name":"Карамид","lat":44.5260405,"lon":33.87299,"elevationM":638},{"id":"node:3262434031","kind":"peak","name":"Кильсе-Баир","lat":44.512508,"lon":33.839296,"elevationM":466},{"id":"node:3262434032","kind":"peak","name":"Бечку","lat":44.5358365,"lon":33.8585732,"elevationM":798},{"id":"node:3268971817","kind":"peak","name":"Кызыл-Бурун","lat":44.6910681,"lon":33.8775612,"elevationM":null},{"id":"node:3268971819","kind":"peak","name":"Узун-Сырт","lat":44.6859615,"lon":33.8563603,"elevationM":374},{"id":"node:3384071570","kind":"peak","name":"Сюрень-Тау","lat":44.6683017,"lon":33.8268211,"elevationM":316},{"id":"node:3384071571","kind":"peak","name":"Шулдан-Кая","lat":44.5935963,"lon":33.7668796,"elevationM":487},{"id":"node:3384071572","kind":"peak","name":"Кафка-Тепе","lat":44.5906045,"lon":33.7628772,"elevationM":454},{"id":"node:3384071573","kind":"peak","name":"Чилтер-Кая","lat":44.5934772,"lon":33.7549594,"elevationM":484},{"id":"node:3384071574","kind":"peak","name":"Аламнык","lat":44.5314679,"lon":33.7191787,"elevationM":144},{"id":"node:3384071575","kind":"peak","name":"Бал-Куба","lat":44.5327987,"lon":33.735111,"elevationM":222},{"id":"node:3442522923","kind":"peak","name":"Высокий Бугор","lat":44.7154717,"lon":33.9886861,"elevationM":536},{"id":"node:3450756431","kind":"peak","name":"Асаране-Бурун","lat":44.4988167,"lon":33.7694117,"elevationM":512},{"id":"node:3450756433","kind":"peak","name":"Кара-Джагул","lat":44.4967159,"lon":33.7552791,"elevationM":614},{"id":"node:3450756434","kind":"peak","name":"Кизил-Кая","lat":44.4999718,"lon":33.7844821,"elevationM":396},{"id":"node:3450756435","kind":"peak","name":"Кучук-Тюз","lat":44.5008246,"lon":33.7489632,"elevationM":582},{"id":"node:3450756436","kind":"peak","name":"Лысая","lat":44.5022181,"lon":33.7258293,"elevationM":572},{"id":"node:3450756437","kind":"peak","name":"Оксек-Кая","lat":44.5162345,"lon":33.7724473,"elevationM":585},{"id":"node:3450756438","kind":"peak","name":"Самналых","lat":44.4894398,"lon":33.773929,"elevationM":578},{"id":"node:3450756439","kind":"peak","name":"Эли","lat":44.5139409,"lon":33.7801675,"elevationM":594},{"id":"node:3450756441","kind":"peak","name":"Самна-Баир","lat":44.4694406,"lon":33.750738,"elevationM":366},{"id":"node:3450756442","kind":"peak","name":"Али-Баир","lat":44.4744653,"lon":33.7743231,"elevationM":364},{"id":"node:3450756443","kind":"peak","name":"Биюк-Коль-Бурун","lat":44.4744347,"lon":33.7272006,"elevationM":569},{"id":"node:3450756444","kind":"peak","name":"Паша-Бурун","lat":44.4781816,"lon":33.7489684,"elevationM":472},{"id":"node:3450757970","kind":"peak","name":"Устра-Баир","lat":44.5222097,"lon":33.7601105,"elevationM":458},{"id":"node:3498754698","kind":"peak","name":"Бечко-Кая","lat":44.5319686,"lon":33.8581497,"elevationM":784},{"id":"node:3555821759","kind":"peak","name":"Карагач","lat":44.4956332,"lon":33.9994313,"elevationM":1142},{"id":"node:3565253604","kind":"peak","name":"Измолос","lat":44.4239365,"lon":33.9703226,"elevationM":717},{"id":"node:3565253605","kind":"peak","name":"Хыр","lat":44.4169941,"lon":33.9659667,"elevationM":651},{"id":"node:3626704421","kind":"peak","name":"Чуку-Баир","lat":44.4760946,"lon":33.8980076,"elevationM":null},{"id":"node:3626704422","kind":"peak","name":"Койназ-Барбаш","lat":44.4800925,"lon":33.9070878,"elevationM":812},{"id":"node:3657478575","kind":"peak","name":"Биюк-Синор","lat":44.4305721,"lon":33.8095631,"elevationM":738},{"id":"node:3657478576","kind":"peak","name":"Кучук-Синор","lat":44.4250279,"lon":33.8039747,"elevationM":661},{"id":"node:3657478577","kind":"peak","name":"Орлиное гнездо","lat":44.419945,"lon":33.7931332,"elevationM":703},{"id":"node:3657478578","kind":"peak","name":"Хуба-Кая","lat":44.4105765,"lon":33.7876872,"elevationM":663},{"id":"node:3657552956","kind":"peak","name":"Анахлы-Бель","lat":44.4319931,"lon":33.8442323,"elevationM":681},{"id":"node:3657552957","kind":"peak","name":"Календы-Баир","lat":44.4387178,"lon":33.832524,"elevationM":715},{"id":"node:3657552958","kind":"peak","name":"Пилау-Тепе","lat":44.42605,"lon":33.8413569,"elevationM":656},{"id":"node:3657552959","kind":"peak","name":"Самнык-Баир","lat":44.4260913,"lon":33.8299289,"elevationM":594},{"id":"node:3657552961","kind":"peak","name":"Хазанджик","lat":44.4466773,"lon":33.8432311,"elevationM":668},{"id":"node:3657552962","kind":"peak","name":"Эчки-Сынар","lat":44.4446978,"lon":33.8041781,"elevationM":454},{"id":"node:3657594045","kind":"peak","name":"Биюк-Тюз","lat":44.5055146,"lon":33.7250236,"elevationM":567},{"id":"node:3657594046","kind":"peak","name":"Кутур-Кая","lat":44.4472545,"lon":33.7339378,"elevationM":477},{"id":"node:3657594047","kind":"peak","name":"Кучук-Коль-Бурун","lat":44.4805916,"lon":33.7322929,"elevationM":531},{"id":"node:3657594048","kind":"peak","name":"Мачук","lat":44.4086233,"lon":33.7485154,"elevationM":610},{"id":"node:3657594049","kind":"peak","name":"Тубака-Баир","lat":44.4871993,"lon":33.7418441,"elevationM":413},{"id":"node:3687072550","kind":"peak","name":"Святого Ильи","lat":44.5103598,"lon":33.6027517,"elevationM":null},{"id":"node:3687072619","kind":"peak","name":"Лысая","lat":44.4985366,"lon":33.6323689,"elevationM":null},{"id":"node:3758231164","kind":"peak","name":"Джилек","lat":44.5594592,"lon":33.7818729,"elevationM":477},{"id":"node:3816110111","kind":"peak","name":"Тубака","lat":44.5020637,"lon":33.7074275,"elevationM":562},{"id":"node:3816110112","kind":"peak","name":"Шаан-Кая","lat":44.4996456,"lon":33.6986084,"elevationM":529},{"id":"node:3849167731","kind":"peak","name":"Богар","lat":44.6392024,"lon":33.820112,"elevationM":null},{"id":"node:3849167733","kind":"peak","name":"Узун-Тарла","lat":44.6280357,"lon":33.7926496,"elevationM":289},{"id":"node:3896416874","kind":"peak","name":"Сары-Кая","lat":44.5065522,"lon":33.9621194,"elevationM":831},{"id":"node:3896416875","kind":"peak","name":"Врис","lat":44.5021116,"lon":33.9570045,"elevationM":982},{"id":"node:3909291899","kind":"peak","name":"Самналых-Бурун","lat":44.4367255,"lon":33.6588279,"elevationM":581},{"id":"node:3929953543","kind":"peak","name":"Белая","lat":44.7068902,"lon":33.9794198,"elevationM":503},{"id":"node:3929953545","kind":"peak","name":"Чайкина Гора","lat":44.7112042,"lon":33.9823509,"elevationM":null},{"id":"node:3978338791","kind":"peak","name":"Френдаг","lat":44.4794694,"lon":33.8019572,"elevationM":323},{"id":"node:3999274933","kind":"peak","name":"Деликли-Бурун","lat":44.4099834,"lon":33.7312735,"elevationM":550},{"id":"node:4071237917","kind":"peak","name":"Калая-Бурун","lat":44.68731,"lon":33.8791711,"elevationM":null},{"id":"node:4071276514","kind":"peak","name":"Аметын-Даг","lat":44.551451,"lon":33.8928874,"elevationM":367},{"id":"node:4071276515","kind":"peak","name":"Кучка-Тапшанар","lat":44.5177114,"lon":33.875714,"elevationM":589},{"id":"node:4114847389","kind":"peak","name":"Лук-Баир","lat":44.5520513,"lon":33.9423654,"elevationM":382},{"id":"node:4147515179","kind":"peak","name":"Панеа","lat":44.4016909,"lon":33.9993766,"elevationM":70},{"id":"node:4463962611","kind":"peak","name":"Крепостная","lat":44.4971429,"lon":33.6061342,"elevationM":null},{"id":"node:4494850678","kind":"peak","name":"Высота 421","lat":44.494798,"lon":33.6391515,"elevationM":428},{"id":"node:4645148588","kind":"peak","name":"Холм Каткарта","lat":44.5675355,"lon":33.5603142,"elevationM":null},{"id":"node:4724502069","kind":"peak","name":"Самналых-Баир","lat":44.5015615,"lon":33.8740364,"elevationM":null},{"id":"node:4775015904","kind":"peak","name":"Треугольник","lat":44.4234733,"lon":33.9163271,"elevationM":980},{"id":"node:4798540577","kind":"peak","name":"Высота Микрюкова","lat":44.5883917,"lon":33.5736186,"elevationM":null},{"id":"node:4945767032","kind":"peak","name":"Устен-Тепе","lat":44.5829995,"lon":33.7293672,"elevationM":276},{"id":"node:4945767033","kind":"peak","name":"Сильген-Топе","lat":44.5856281,"lon":33.7252688,"elevationM":253},{"id":"node:4945767034","kind":"peak","name":"Муузлар","lat":44.5831829,"lon":33.7199902,"elevationM":287},{"id":"node:5008761791","kind":"peak","name":"Ай-Юри","lat":44.4052681,"lon":33.8274746,"elevationM":null},{"id":"node:5072894964","kind":"peak","name":"Таз-Оба","lat":44.6668067,"lon":33.7830135,"elevationM":141},{"id":"node:5112897723","kind":"peak","name":"Форос","lat":44.4025235,"lon":33.777439,"elevationM":639},{"id":"node:5120292025","kind":"peak","name":"Геофизик","lat":44.7772334,"lon":33.9363029,"elevationM":null},{"id":"node:5139032922","kind":"peak","name":"Трапеция","lat":44.6528595,"lon":33.6450164,"elevationM":null},{"id":"node:5139032923","kind":"peak","name":"Таучик-Баир","lat":44.6565868,"lon":33.6425442,"elevationM":null},{"id":"node:5270465045","kind":"peak","name":"Кара-Кыр","lat":44.813372,"lon":33.7328985,"elevationM":142},{"id":"node:5270465103","kind":"peak","name":"Кайметь-Оба","lat":44.8189261,"lon":33.6323543,"elevationM":85},{"id":"node:5323194696","kind":"peak","name":"Кымыр-Кая","lat":44.6697306,"lon":33.6855413,"elevationM":214},{"id":"node:5323194697","kind":"peak","name":"Кая-Баш","lat":44.6502514,"lon":33.6905684,"elevationM":258},{"id":"node:5323194708","kind":"peak","name":"Кери","lat":44.6376436,"lon":33.7243436,"elevationM":null},{"id":"node:5323194709","kind":"peak","name":"Яйда-Баш","lat":44.6255793,"lon":33.710669,"elevationM":337},{"id":"node:5323194784","kind":"peak","name":"Сахарная Головка","lat":44.5883737,"lon":33.6308348,"elevationM":172},{"id":"node:5401286261","kind":"peak","name":"Шабурла-Кая","lat":44.4239666,"lon":33.7377108,"elevationM":545},{"id":"node:5875626329","kind":"peak","name":"Малый Кильсе-Бурун","lat":44.4106389,"lon":33.8190597,"elevationM":600},{"id":"node:5875635247","kind":"peak","name":"Башня Западная","lat":44.4140002,"lon":33.8306718,"elevationM":600},{"id":"node:5875636617","kind":"peak","name":"Башня Центральная","lat":44.4142222,"lon":33.8313667,"elevationM":610},{"id":"node:5875638116","kind":"peak","name":"Башня Восточная","lat":44.4145895,"lon":33.8313478,"elevationM":580},{"id":"node:5895536197","kind":"peak","name":"Борсук-Бурун","lat":44.4639644,"lon":33.9214512,"elevationM":1101},{"id":"node:5911659321","kind":"peak","name":"Бюзюка Западная","lat":44.4372185,"lon":33.8731333,"elevationM":814},{"id":"node:5912602017","kind":"peak","name":"Беш-Текне","lat":44.4356865,"lon":33.967595,"elevationM":1020},{"id":"node:5923272288","kind":"peak","name":"Кучук-Текне-Бель","lat":44.4148859,"lon":33.7472259,"elevationM":597},{"id":"node:5928531928","kind":"peak","name":"Сыгын-Бурун","lat":44.5333437,"lon":33.7066218,"elevationM":null},{"id":"node:6113444354","kind":"peak","name":"Чардаклык","lat":44.6093132,"lon":33.8236964,"elevationM":577},{"id":"node:6113444355","kind":"peak","name":"Катырша-Баир","lat":44.6060096,"lon":33.8119912,"elevationM":560},{"id":"node:6224733142","kind":"peak","name":"Отарья-Каясы","lat":44.5423574,"lon":33.825464,"elevationM":null},{"id":"node:6244892590","kind":"peak","name":"Орта-Алан","lat":44.5774005,"lon":33.6923861,"elevationM":204},{"id":"node:6244892633","kind":"peak","name":"Тепе-Чарыш","lat":44.5779508,"lon":33.7116337,"elevationM":273},{"id":"node:6244892634","kind":"peak","name":"Чамхалых-Бурун","lat":44.5758415,"lon":33.7203455,"elevationM":273},{"id":"node:6379064767","kind":"peak","name":"Кукуман-Баир","lat":44.4268769,"lon":33.76634,"elevationM":307},{"id":"node:6602539408","kind":"peak","name":"Коккоз-Бойка","lat":44.5269712,"lon":33.9942656,"elevationM":806},{"id":"node:7041673820","kind":"peak","name":"Кара-Тепе","lat":44.5308812,"lon":33.9261065,"elevationM":936},{"id":"node:7305865260","kind":"peak","name":"Памбук-Кая","lat":44.5331744,"lon":33.8868818,"elevationM":756},{"id":"node:7305865261","kind":"peak","name":"Сырымлар","lat":44.5557807,"lon":33.8537015,"elevationM":573},{"id":"node:7923272524","kind":"peak","name":"Куняшлы-Баир","lat":44.4437291,"lon":33.9368342,"elevationM":1096},{"id":"node:7923272525","kind":"peak","name":"Счаны-Герик","lat":44.4483481,"lon":33.9505262,"elevationM":1096},{"id":"node:8238336662","kind":"peak","name":"Утюг","lat":44.6270507,"lon":33.8502054,"elevationM":null},{"id":"node:9449933332","kind":"peak","name":"Кату-Тепе","lat":44.6324816,"lon":33.9663933,"elevationM":580},{"id":"node:9449933342","kind":"peak","name":"Чукур-Тепе","lat":44.6454926,"lon":33.9464345,"elevationM":420},{"id":"node:9449933351","kind":"peak","name":"Окурка","lat":44.6264503,"lon":33.9846759,"elevationM":617},{"id":"node:9594230030","kind":"peak","name":"Янган-Тау","lat":44.6722437,"lon":33.6163721,"elevationM":null},{"id":"node:9595210241","kind":"peak","name":"Кара-Коба","lat":44.5967772,"lon":33.6577856,"elevationM":280},{"id":"node:9595657801","kind":"peak","name":"Яйла-Баш","lat":44.650312,"lon":33.7276447,"elevationM":280},{"id":"node:9595704631","kind":"peak","name":"Той-Тепе","lat":44.6257357,"lon":33.7269149,"elevationM":null},{"id":"node:9595704632","kind":"peak","name":"Орта-Тепе","lat":44.6283282,"lon":33.731078,"elevationM":231},{"id":"node:9595737351","kind":"peak","name":"Ташлык","lat":44.611434,"lon":33.7200482,"elevationM":371},{"id":"node:9596825503","kind":"peak","name":"Топечик","lat":44.6033771,"lon":33.7260368,"elevationM":null},{"id":"node:9652042879","kind":"peak","name":"Чакыллар-Тепе","lat":44.6222125,"lon":33.9244818,"elevationM":526},{"id":"node:9725520567","kind":"peak","name":"Белая Горка","lat":44.6922854,"lon":33.9563788,"elevationM":378},{"id":"node:9725520603","kind":"peak","name":"Бостанлых","lat":44.6862099,"lon":33.9334829,"elevationM":349},{"id":"node:10086803017","kind":"peak","name":"Шагин-Кая","lat":44.4800613,"lon":33.6972598,"elevationM":345},{"id":"node:10239761216","kind":"peak","name":"Гора Кара-Баир","lat":44.4120561,"lon":33.9519887,"elevationM":null},{"id":"node:10577331932","kind":"peak","name":"Шуль-Тепе","lat":44.5853606,"lon":33.7797176,"elevationM":485},{"id":"node:10776123736","kind":"peak","name":"Орта-Кая","lat":44.5137979,"lon":33.6794337,"elevationM":213},{"id":"node:11909416761","kind":"peak","name":"Свадебная 2А","lat":44.4024102,"lon":33.7699524,"elevationM":null},{"id":"node:13057042705","kind":"peak","name":"Аледин-Акай-Кая","lat":44.6786563,"lon":33.8543531,"elevationM":418},{"id":"node:13093223513","kind":"peak","name":"Экилер","lat":44.596159,"lon":33.9795454,"elevationM":395},{"id":"node:13093223514","kind":"peak","name":"Текнечик-Тепе","lat":44.6129946,"lon":33.9555192,"elevationM":463},{"id":"node:13095222247","kind":"peak","name":"Кочек-Баир","lat":44.6103926,"lon":33.9814026,"elevationM":592},{"id":"node:13540203823","kind":"peak","name":"Гора Янгыз-Кая","lat":44.7977034,"lon":33.9713043,"elevationM":null},{"id":"node:13540209946","kind":"peak","name":"Гора Топ-Коба","lat":44.7947318,"lon":33.967871,"elevationM":null}]}