{"tileKey":"la_p52_lo_m7","version":"v1-1775891056926","entries":[{"id":"node:315637702","kind":"peak","name":"Vinegar Hill","lat":52.5016961,"lon":-6.5531745,"elevationM":110},{"id":"node:332372525","kind":"peak","name":"Cloghernagh","lat":52.9677335,"lon":-6.4269516,"elevationM":800},{"id":"node:332372529","kind":"peak","name":"Mount Leinster","lat":52.6181583,"lon":-6.7803436,"elevationM":794},{"id":"node:332372534","kind":"peak","name":"Corrigasleggaun","lat":52.9606232,"lon":-6.4412623,"elevationM":795},{"id":"node:332372554","kind":"peak","name":"Slievemaan","lat":52.9588242,"lon":-6.4865289,"elevationM":760},{"id":"node:332372575","kind":"peak","name":"Blackstairs Mountain","lat":52.5489347,"lon":-6.8058623,"elevationM":732},{"id":"node:332372611","kind":"peak","name":"Benleagh","lat":52.9882829,"lon":-6.4537375,"elevationM":689},{"id":"node:332372665","kind":"peak","name":"Camenabologue SE Top","lat":52.9994238,"lon":-6.4566954,"elevationM":663},{"id":"node:332372679","kind":"peak","name":"Croaghanmoira","lat":52.918384,"lon":-6.3665439,"elevationM":662},{"id":"node:332372682","kind":"peak","name":"Ballineddan Mountain","lat":52.9588498,"lon":-6.508886,"elevationM":652},{"id":"node:332372685","kind":"peak","name":"Keadeen Mountain","lat":52.9505091,"lon":-6.5814985,"elevationM":653},{"id":"node:332372689","kind":"peak","name":"Lugduff","lat":52.9987088,"lon":-6.4037116,"elevationM":653},{"id":"node:332372692","kind":"peak","name":"Mullacor","lat":52.9851267,"lon":-6.3738383,"elevationM":661},{"id":"node:332372695","kind":"peak","name":"Moats of Craan","lat":52.6201695,"lon":-6.7540242,"elevationM":657},{"id":"node:332372720","kind":"peak","name":"Lugduff SE Top","lat":52.9941958,"lon":-6.3903169,"elevationM":638},{"id":"node:332372789","kind":"peak","name":"Croghan Kinsella","lat":52.7954699,"lon":-6.3240829,"elevationM":606},{"id":"node:332372882","kind":"peak","name":"Knockroe","lat":52.5922474,"lon":-6.7914998,"elevationM":539},{"id":"node:332372893","kind":"peak","name":"Ballycurragh Hill","lat":52.8815594,"lon":-6.4309452,"elevationM":536},{"id":"node:332372897","kind":"peak","name":"Slieve Maan","lat":52.9319522,"lon":-6.3920506,"elevationM":548},{"id":"node:332372917","kind":"peak","name":"Slievebawn","lat":52.6389124,"lon":-6.809545,"elevationM":525},{"id":"node:332372941","kind":"peak","name":"Ballinacor Mountain","lat":52.9193461,"lon":-6.3383076,"elevationM":529},{"id":"node:332372949","kind":"peak","name":"White Mountain","lat":52.5068622,"lon":-6.8432054,"elevationM":509},{"id":"node:332372958","kind":"peak","name":"Carrickashane Mountain","lat":52.9142073,"lon":-6.397911,"elevationM":508},{"id":"node:332372960","kind":"peak","name":"Brandon Hill","lat":52.5098317,"lon":-6.9741338,"elevationM":515},{"id":"node:332373066","kind":"peak","name":"Carrigalachan","lat":52.5305055,"lon":-6.8367384,"elevationM":463},{"id":"node:332373099","kind":"peak","name":"Derrybawn Mountain","lat":52.9982782,"lon":-6.3340999,"elevationM":476},{"id":"node:332373100","kind":"peak","name":"Kirikee Mountain","lat":52.9597324,"lon":-6.3053536,"elevationM":475},{"id":"node:332373136","kind":"peak","name":"Ballyteige","lat":52.9004349,"lon":-6.4223072,"elevationM":447},{"id":"node:332373137","kind":"peak","name":"Slievebaun","lat":52.5326183,"lon":-6.8000637,"elevationM":444},{"id":"node:332373178","kind":"peak","name":"Carriglinneen Mountain","lat":52.9595602,"lon":-6.3368335,"elevationM":457},{"id":"node:332373181","kind":"peak","name":"Annagh Hill","lat":52.7525485,"lon":-6.3708311,"elevationM":454},{"id":"node:332373183","kind":"peak","name":"Trooperstown Hill","lat":52.9954014,"lon":-6.2640604,"elevationM":430},{"id":"node:332373189","kind":"peak","name":"Ballycumber Hill","lat":52.8241014,"lon":-6.4756641,"elevationM":431},{"id":"node:332373256","kind":"peak","name":"Stookeen","lat":52.7570634,"lon":-6.6006046,"elevationM":420},{"id":"node:332373257","kind":"peak","name":"Slieveboy","lat":52.6562311,"lon":-6.4894501,"elevationM":420},{"id":"node:332373270","kind":"peak","name":"Slievefoore","lat":52.7918457,"lon":-6.2882645,"elevationM":414},{"id":"node:332373280","kind":"peak","name":"Greenoge","lat":52.6585366,"lon":-6.7256905,"elevationM":425},{"id":"node:332373287","kind":"peak","name":"Moneyteige North","lat":52.821531,"lon":-6.2995436,"elevationM":427},{"id":"node:332373293","kind":"peak","name":"Fananierin","lat":52.941019,"lon":-6.3470815,"elevationM":426},{"id":"node:332373363","kind":"peak","name":"Spinans Hill","lat":52.9677212,"lon":-6.6323551,"elevationM":409},{"id":"node:332373400","kind":"peak","name":"Lakeen","lat":52.7823848,"lon":-6.5536852,"elevationM":357},{"id":"node:332373428","kind":"peak","name":"Preban Hill","lat":52.8526988,"lon":-6.3885015,"elevationM":389},{"id":"node:332373433","kind":"peak","name":"Carrick Mountain","lat":52.9835126,"lon":-6.1654555,"elevationM":381},{"id":"node:332373434","kind":"peak","name":"Baltinglass Hill","lat":52.947322,"lon":-6.6840677,"elevationM":382},{"id":"node:332373441","kind":"peak","name":"Cushbawn","lat":52.8864651,"lon":-6.3061356,"elevationM":400},{"id":"node:332373442","kind":"peak","name":"Spinans Hill SE Top","lat":52.9632392,"lon":-6.6160561,"elevationM":400},{"id":"node:332373445","kind":"peak","name":"Muskeagh Hill","lat":52.7989674,"lon":-6.5007083,"elevationM":397},{"id":"node:332373465","kind":"peak","name":"Tinoran Hill","lat":52.9591974,"lon":-6.7322293,"elevationM":312},{"id":"node:332373474","kind":"peak","name":"Gibbet Hill","lat":52.6754152,"lon":-6.6009386,"elevationM":315},{"id":"node:332373507","kind":"peak","name":"Seskin","lat":52.7971651,"lon":-6.5782642,"elevationM":344},{"id":"node:332373518","kind":"peak","name":"Carrickbyrne Hill","lat":52.370186,"lon":-6.7816135,"elevationM":286},{"id":"node:332373519","kind":"peak","name":"Carrigroe Hill","lat":52.5886201,"lon":-6.3880991,"elevationM":284},{"id":"node:332373527","kind":"peak","name":"Collon Hill","lat":52.9203071,"lon":-6.0652318,"elevationM":290},{"id":"node:332373547","kind":"peak","name":"Tara Hill","lat":52.6990761,"lon":-6.2177415,"elevationM":305},{"id":"node:332373565","kind":"peak","name":"Slievecoiltia","lat":52.3392098,"lon":-6.9326535,"elevationM":322},{"id":"node:332373568","kind":"peak","name":"Barranisky","lat":52.8478201,"lon":-6.1356966,"elevationM":280},{"id":"node:794885435","kind":"peak","name":"Ballyminaun Hill","lat":52.6465488,"lon":-6.3074936,"elevationM":null},{"id":"node:794886251","kind":"peak","name":"Boley Hill","lat":52.5999742,"lon":-6.3493634,"elevationM":163},{"id":"node:1198833713","kind":"peak","name":"Moneystown Hill","lat":52.9991594,"lon":-6.2237194,"elevationM":423},{"id":"node:1264272199","kind":"peak","name":"Lugnaquilla","lat":52.9671501,"lon":-6.4646289,"elevationM":925},{"id":"node:1347656970","kind":"peak","name":"Garryhoe","lat":52.8223346,"lon":-6.4532301,"elevationM":451},{"id":"node:1404515425","kind":"peak","name":"Carrawaystick","lat":52.9517219,"lon":-6.4140512,"elevationM":728},{"id":"node:1472385521","kind":"peak","name":"Milshoge Rock","lat":52.6111068,"lon":-6.4099701,"elevationM":81},{"id":"node:1472477821","kind":"peak","name":"Banoge Hill","lat":52.6516239,"lon":-6.2776157,"elevationM":87},{"id":"node:1472477839","kind":"peak","name":"Carriganeagh Rock","lat":52.6504078,"lon":-6.2911212,"elevationM":null},{"id":"node:1474424646","kind":"peak","name":"Oulart Hill","lat":52.5159352,"lon":-6.3996362,"elevationM":180},{"id":"node:1478361020","kind":"peak","name":"Ask Hill","lat":52.7009157,"lon":-6.2529485,"elevationM":164},{"id":"node:1481776041","kind":"peak","name":"Monalee Hill","lat":52.7743331,"lon":-6.3345917,"elevationM":370},{"id":"node:1481776275","kind":"peak","name":"Ballythomas Hill","lat":52.7702975,"lon":-6.3549469,"elevationM":339},{"id":"node:1494593933","kind":"peak","name":"Laraheen Hill","lat":52.723069,"lon":-6.3166395,"elevationM":183},{"id":"node:1494714600","kind":"peak","name":"Gorey Hill","lat":52.670934,"lon":-6.3141964,"elevationM":127},{"id":"node:1494739838","kind":"peak","name":"Craan Hill","lat":52.7051841,"lon":-6.3906898,"elevationM":193},{"id":"node:1506801008","kind":"peak","name":"71","lat":52.4340908,"lon":-6.3538949,"elevationM":null},{"id":"node:1541380056","kind":"peak","name":"Slievegower","lat":52.6726435,"lon":-6.4519042,"elevationM":309},{"id":"node:1560744012","kind":"peak","name":"Ballynultagh Hill","lat":52.7761187,"lon":-6.536653,"elevationM":324},{"id":"node:1565461172","kind":"peak","name":"Moylisha Hill","lat":52.7477874,"lon":-6.6232737,"elevationM":332},{"id":"node:1595618007","kind":"peak","name":"Eagle Hill","lat":52.8537129,"lon":-6.5586526,"elevationM":349},{"id":"node:1595618254","kind":"peak","name":"Lybagh","lat":52.9460586,"lon":-6.4785306,"elevationM":683},{"id":"node:1595618622","kind":"peak","name":"Toorboy Mountain","lat":52.9402504,"lon":-6.504519,"elevationM":395},{"id":"node:1595623037","kind":"peak","name":"Camarahill","lat":52.9743158,"lon":-6.5163163,"elevationM":477},{"id":"node:1595624129","kind":"peak","name":"Leoh Mountain","lat":52.9961064,"lon":-6.4939146,"elevationM":516},{"id":"node:1595626461","kind":"peak","name":"Coolgarrow Mountain","lat":52.8994877,"lon":-6.3741786,"elevationM":417},{"id":"node:1596131223","kind":"peak","name":"Caran","lat":52.9340605,"lon":-6.3210032,"elevationM":289},{"id":"node:1622870449","kind":"peak","name":"Ballycumber Hill","lat":52.8434394,"lon":-6.4671767,"elevationM":453},{"id":"node:1622887497","kind":"peak","name":"Slieveroe","lat":52.8518995,"lon":-6.4439557,"elevationM":377},{"id":"node:1622887508","kind":"peak","name":"Urelands Hill","lat":52.7336882,"lon":-6.6168745,"elevationM":340},{"id":"node:1629728457","kind":"peak","name":"Davis Hill","lat":52.8354938,"lon":-6.577718,"elevationM":189},{"id":"node:1858575696","kind":"peak","name":"Carrigroe","lat":52.5196176,"lon":-6.8324416,"elevationM":495},{"id":"node:1953242038","kind":"peak","name":"Slievereagh","lat":52.9489649,"lon":-6.546875,"elevationM":527},{"id":"node:2007230486","kind":"peak","name":"Slieveboy","lat":52.925769,"lon":-6.4790834,"elevationM":446},{"id":"node:2007230487","kind":"peak","name":"Blackrock","lat":52.9232226,"lon":-6.4651337,"elevationM":492},{"id":"node:2030391906","kind":"peak","name":"Clorogue Beg","lat":52.5965886,"lon":-6.7514979,"elevationM":378},{"id":"node:2107203091","kind":"peak","name":"Bree Hill","lat":52.4400311,"lon":-6.6261546,"elevationM":155},{"id":"node:2122930875","kind":"peak","name":"Ballycronigan Rock","lat":52.4998431,"lon":-6.851954,"elevationM":443},{"id":"node:2122930886","kind":"peak","name":"Branbeg","lat":52.4979406,"lon":-6.8539086,"elevationM":null},{"id":"node:2122930892","kind":"peak","name":"Bran Poceagh","lat":52.5050592,"lon":-6.8459707,"elevationM":489},{"id":"node:2347400033","kind":"peak","name":"Raheennahoon Hill","lat":52.4163683,"lon":-6.6590545,"elevationM":154},{"id":"node:2424070618","kind":"peak","name":"Camaross Hill","lat":52.3812426,"lon":-6.7011382,"elevationM":183},{"id":"node:2434318024","kind":"peak","name":"Carrickmastia Hill","lat":52.4134813,"lon":-6.7491992,"elevationM":166},{"id":"node:2441890203","kind":"peak","name":"Lacken Hill","lat":52.3999692,"lon":-6.8841063,"elevationM":192},{"id":"node:2467951537","kind":"peak","name":"Slievemweel","lat":52.8632639,"lon":-6.4366336,"elevationM":357},{"id":"node:2484199568","kind":"peak","name":"Corballis Hill","lat":52.9314103,"lon":-6.7768313,"elevationM":312},{"id":"node:2491265996","kind":"peak","name":"Green Hills","lat":52.9110759,"lon":-6.757064,"elevationM":null},{"id":"node:2491266012","kind":"peak","name":"Knockpatrick Hill","lat":52.912784,"lon":-6.789347,"elevationM":254},{"id":"node:2491286994","kind":"peak","name":"Ballyhook Hill","lat":52.9947582,"lon":-6.6876138,"elevationM":340},{"id":"node:2492703395","kind":"peak","name":"Ballinagappoge Mountain","lat":52.9048758,"lon":-6.3839759,"elevationM":null},{"id":"node:2495096742","kind":"peak","name":"Camlin Hill","lat":52.3699987,"lon":-6.9551274,"elevationM":96},{"id":"node:2496836412","kind":"peak","name":"Partridge Hill","lat":52.355547,"lon":-6.9674524,"elevationM":89},{"id":"node:2498573443","kind":"peak","name":"Constable Hill","lat":52.8521907,"lon":-6.5816738,"elevationM":284},{"id":"node:2711469620","kind":"peak","name":"Forth Mountain","lat":52.3161705,"lon":-6.5624567,"elevationM":237},{"id":"node:2714898101","kind":"peak","name":"Raven Rock","lat":52.3110612,"lon":-6.5729424,"elevationM":null},{"id":"node:2746512847","kind":"peak","name":"Carrickatinna Rock","lat":52.2974591,"lon":-6.5833494,"elevationM":null},{"id":"node:2746512849","kind":"peak","name":"Skeater Rock","lat":52.2993219,"lon":-6.5769341,"elevationM":null},{"id":"node:3040082951","kind":"peak","name":"Boot Hill","lat":52.9897291,"lon":-6.2473882,"elevationM":396},{"id":"node:3132115025","kind":"peak","name":"Carrickshinna Rock","lat":52.3202502,"lon":-6.565764,"elevationM":null},{"id":"node:3132115026","kind":"peak","name":"Clorane","lat":52.3126895,"lon":-6.569518,"elevationM":null},{"id":"node:3132115027","kind":"peak","name":"Drooping Rock","lat":52.315807,"lon":-6.5693149,"elevationM":null},{"id":"node:3132115028","kind":"peak","name":"Ravens Rocks","lat":52.3192834,"lon":-6.5682465,"elevationM":null},{"id":"node:3231253036","kind":"peak","name":"Castle Hill","lat":52.9610865,"lon":-6.2818537,"elevationM":404},{"id":"node:3302550797","kind":"peak","name":"Arklow Rock","lat":52.7694225,"lon":-6.1514419,"elevationM":null},{"id":"node:4301194256","kind":"peak","name":"Mullaghreelan","lat":52.9359454,"lon":-6.8734934,"elevationM":170},{"id":"node:5276200767","kind":"peak","name":"Tomduff Hill","lat":52.6283871,"lon":-6.8312066,"elevationM":null},{"id":"node:6396680192","kind":"peak","name":"Kilbrannish Hill","lat":52.6616317,"lon":-6.7508315,"elevationM":null},{"id":"node:6396680212","kind":"peak","name":"Scratoe","lat":52.6827374,"lon":-6.763727,"elevationM":267},{"id":"node:6396741711","kind":"peak","name":"John's Hill","lat":52.6532721,"lon":-6.7041608,"elevationM":null},{"id":"node:7022534470","kind":"peak","name":"Shernock Hill/Knocks Hill","lat":52.2075843,"lon":-6.3482634,"elevationM":null},{"id":"node:7026810912","kind":"peak","name":"The Chour / The Hill of the Chour","lat":52.1817946,"lon":-6.3896343,"elevationM":null},{"id":"node:7784580540","kind":"peak","name":"Carrigvahanagh","lat":52.4819602,"lon":-6.8618551,"elevationM":null},{"id":"node:7784580720","kind":"peak","name":"White Mountain","lat":52.4872626,"lon":-6.8363129,"elevationM":null},{"id":"node:7784580741","kind":"peak","name":"Dranagh Mountain","lat":52.4924157,"lon":-6.8734776,"elevationM":null},{"id":"node:8753851193","kind":"peak","name":"Croaghanmoira North Top","lat":52.9264159,"lon":-6.3732767,"elevationM":579},{"id":"node:8753889282","kind":"peak","name":"Slieve Maan North Top","lat":52.9386869,"lon":-6.3884104,"elevationM":546},{"id":"node:8753939268","kind":"peak","name":"Cloghnagaune","lat":52.9433737,"lon":-6.6235077,"elevationM":385},{"id":"node:8754005684","kind":"peak","name":"Carrig Mountain","lat":52.938369,"lon":-6.5767501,"elevationM":571},{"id":"node:8910017808","kind":"peak","name":"Black Rock Mountain","lat":52.6176388,"lon":-6.7279693,"elevationM":600},{"id":"node:8913700960","kind":"peak","name":"Croghan Kinsella East Top","lat":52.7988042,"lon":-6.3130966,"elevationM":562},{"id":"node:9002090933","kind":"peak","name":"Cullentragh Mountain","lat":52.9821251,"lon":-6.3446088,"elevationM":510},{"id":"node:9177061713","kind":"peak","name":"Scurlocksbush Hill","lat":52.4480848,"lon":-6.5321875,"elevationM":null},{"id":"node:9197323179","kind":"peak","name":"Knockmore","lat":52.5931134,"lon":-6.854903,"elevationM":228},{"id":"node:9320965545","kind":"peak","name":"Kilmichael Hill","lat":52.7091584,"lon":-6.375955,"elevationM":269},{"id":"node:9418416378","kind":"peak","name":"Carrickadee","lat":52.3159644,"lon":-6.5624264,"elevationM":null},{"id":"node:10594134058","kind":"peak","name":"The Brow","lat":52.9624627,"lon":-6.4684526,"elevationM":null},{"id":"node:12465240961","kind":"peak","name":"Bride's Hill","lat":52.9687408,"lon":-6.0091787,"elevationM":null},{"id":"node:12544223463","kind":"peak","name":"Cullentragh East Top","lat":52.9820389,"lon":-6.330716,"elevationM":467},{"id":"node:13114859534","kind":"peak","name":"Ballon Hill","lat":52.7392407,"lon":-6.775915,"elevationM":null},{"id":"node:13131939006","kind":"peak","name":"Croaghaun","lat":52.6636465,"lon":-6.7678737,"elevationM":456},{"id":"node:13413019726","kind":"peak","name":"Ballinastraw","lat":52.9629105,"lon":-6.2090286,"elevationM":284}]}