{"tileKey":"la_p44_lo_p26","version":"v1-1775891056926","entries":[{"id":"node:3645173197","kind":"peak","name":"Dealul Arsenalului","lat":44.4257478,"lon":26.0780368,"elevationM":null},{"id":"node:4253859217","kind":"peak","name":"Dealul Bucovel","lat":44.9862742,"lon":26.1525199,"elevationM":null},{"id":"node:6012954902","kind":"peak","name":"Dealul Sutter","lat":44.4188168,"lon":26.0930084,"elevationM":84},{"id":"node:6659859412","kind":"peak","name":"Movila Crângu","lat":44.4776096,"lon":26.5197313,"elevationM":null},{"id":"node:9680128587","kind":"peak","name":"Dealul Mitropoliei","lat":44.4243837,"lon":26.0976175,"elevationM":null},{"id":"node:10038786174","kind":"peak","name":"Dealul Piscului","lat":44.4060129,"lon":26.1107899,"elevationM":84},{"id":"node:10789636827","kind":"peak","name":"Colina Radu Vodă","lat":44.4239262,"lon":26.1075794,"elevationM":null},{"id":"node:10870035618","kind":"peak","name":"Dealul Filaret","lat":44.411014,"lon":26.0955647,"elevationM":null},{"id":"node:10931091346","kind":"peak","name":"Movila Raşii","lat":44.5322105,"lon":26.9170308,"elevationM":66},{"id":"node:10931091347","kind":"peak","name":"Movila Poşta","lat":44.7170447,"lon":26.6157437,"elevationM":51},{"id":"node:10931105452","kind":"peak","name":"La Meriseanca","lat":44.6202762,"lon":26.2563514,"elevationM":85},{"id":"node:10931105453","kind":"peak","name":"Creata","lat":44.5941187,"lon":26.2499411,"elevationM":84},{"id":"node:10931105456","kind":"peak","name":"Pod Pantelimon","lat":44.4511713,"lon":26.2340637,"elevationM":75},{"id":"node:10959742959","kind":"peak","name":"Dealul Cotrocenilor","lat":44.4322689,"lon":26.0624741,"elevationM":null}]}