{"tileKey":"la_p36_lo_p53","version":"v1-1775891056926","entries":[{"id":"node:6863493702","kind":"peak","name":"شاهدارکوه","lat":36.3137448,"lon":53.9779034,"elevationM":3240},{"id":"node:6908597250","kind":"peak","name":"فینسک","lat":36.0779944,"lon":53.4551857,"elevationM":2830},{"id":"node:6908602025","kind":"peak","name":"سر طلا","lat":36.0227995,"lon":53.4397952,"elevationM":2760},{"id":"node:6968502078","kind":"peak","name":"چلم کوه","lat":36.343382,"lon":53.7146847,"elevationM":2700},{"id":"node:6968620074","kind":"peak","name":"بادله کوه","lat":36.4028524,"lon":53.9682687,"elevationM":3200},{"id":"node:6975794992","kind":"peak","name":"فلاشبند","lat":36.1506536,"lon":53.9514815,"elevationM":2690},{"id":"node:7058726138","kind":"peak","name":"اچو ولکول","lat":36.2269973,"lon":53.1630504,"elevationM":1670},{"id":"node:7165080460","kind":"peak","name":"نیله کوه","lat":36.3593624,"lon":53.6830511,"elevationM":2550},{"id":"node:7168837360","kind":"peak","name":"نمازگاه","lat":36.0207466,"lon":53.3379615,"elevationM":2540},{"id":"node:7170548373","kind":"peak","name":"بایکُلوم","lat":36.43479,"lon":53.9433015,"elevationM":2800},{"id":"node:7170549611","kind":"peak","name":"وَلدوک","lat":36.4031159,"lon":53.9285679,"elevationM":2760},{"id":"node:7170574793","kind":"peak","name":"سُنکُلم","lat":36.4306469,"lon":53.9393,"elevationM":2800},{"id":"node:7178611458","kind":"peak","name":"سرخ کوه","lat":36.115222,"lon":53.9417267,"elevationM":2780},{"id":"node:8516080225","kind":"peak","name":"چهار نو","lat":36.0897715,"lon":53.6146533,"elevationM":2860},{"id":"node:8567791849","kind":"peak","name":"شاهدژ","lat":36.1704527,"lon":53.6336202,"elevationM":2800},{"id":"node:9051066801","kind":"peak","name":"سفید کوه","lat":36.189928,"lon":53.6727688,"elevationM":2610},{"id":"node:10139548468","kind":"peak","name":"وشوا کوه","lat":36.4127285,"lon":53.8514342,"elevationM":2600},{"id":"node:10269740333","kind":"peak","name":"سرخیل","lat":36.0297106,"lon":53.0873872,"elevationM":2240},{"id":"node:10756231004","kind":"peak","name":"شیت","lat":36.1574551,"lon":53.5859638,"elevationM":2500},{"id":"node:11145774085","kind":"peak","name":"داراب کوه","lat":36.309363,"lon":53.8823374,"elevationM":2850},{"id":"node:11360533034","kind":"peak","name":"گت رِز","lat":36.6432594,"lon":53.7999535,"elevationM":1597},{"id":"node:12459244672","kind":"peak","name":"قبله کوه","lat":36.1965858,"lon":53.4576412,"elevationM":1775},{"id":"node:12462386184","kind":"peak","name":"اِلوات کوه","lat":36.0962515,"lon":53.1133795,"elevationM":1900},{"id":"node:12462418107","kind":"peak","name":"نفته","lat":36.1216283,"lon":53.093,"elevationM":1480}]}