{"tileKey":"la_p16_lo_p45","version":"v1-1775891056926","entries":[{"id":"node:1226179559","kind":"peak","name":"جبل لبنة","lat":16.0507847,"lon":45.2611105,"elevationM":null},{"id":"node:1226179567","kind":"peak","name":"جبل لبنة","lat":16.0508249,"lon":45.2610467,"elevationM":null},{"id":"node:1226181588","kind":"peak","name":"جبل الصفقة","lat":16.221423,"lon":45.196032,"elevationM":null},{"id":"node:1226181596","kind":"peak","name":"جبل ذكامة","lat":16.193881,"lon":45.212611,"elevationM":null},{"id":"node:1226181608","kind":"peak","name":"جبل ذكامة","lat":16.1933622,"lon":45.211473,"elevationM":null},{"id":"node:1226181794","kind":"peak","name":"جبل خسفاء","lat":16.229458,"lon":45.268895,"elevationM":null},{"id":"node:1226181805","kind":"peak","name":"جبل خسفاء","lat":16.221881,"lon":45.264659,"elevationM":null},{"id":"node:1226181825","kind":"peak","name":"جبل العمود","lat":16.1947789,"lon":45.1340415,"elevationM":null},{"id":"node:1226181832","kind":"peak","name":"حجيلة","lat":16.25,"lon":45.233333,"elevationM":null},{"id":"node:1226181840","kind":"peak","name":"جبل شماخة","lat":16.2247903,"lon":45.1394571,"elevationM":1545},{"id":"node:1226182016","kind":"peak","name":"جبل اللوز","lat":16.182399,"lon":45.083485,"elevationM":null},{"id":"node:1226182017","kind":"peak","name":"جبل رواح","lat":16.1327619,"lon":45.0889754,"elevationM":1764},{"id":"node:1226182019","kind":"peak","name":"جبل لبنة العليا","lat":16.0871843,"lon":45.2283912,"elevationM":1210},{"id":"node:1226182020","kind":"peak","name":"جبل الجمرة","lat":16.149534,"lon":45.052982,"elevationM":1652},{"id":"node:1226182021","kind":"peak","name":"الزويرة","lat":16.1228119,"lon":45.0908334,"elevationM":1135},{"id":"node:1226182022","kind":"peak","name":"جبل الندر","lat":16.128056,"lon":45.154167,"elevationM":null},{"id":"node:1226998021","kind":"peak","name":"جبل صبرين","lat":16.436818,"lon":45.172718,"elevationM":null},{"id":"node:1226998051","kind":"peak","name":"كمبوشة","lat":16.464633,"lon":45.164179,"elevationM":null},{"id":"node:1226998071","kind":"peak","name":"جبل ضبع","lat":16.46825,"lon":45.148067,"elevationM":null},{"id":"node:1226998107","kind":"peak","name":"الطويلات","lat":16.440504,"lon":45.178555,"elevationM":null},{"id":"node:1227005995","kind":"peak","name":"عيينة","lat":16.865193,"lon":45.097021,"elevationM":null},{"id":"node:1227006171","kind":"peak","name":"الطويلة","lat":16.846737,"lon":45.229997,"elevationM":null},{"id":"node:1227006196","kind":"peak","name":"الوعر","lat":16.824531,"lon":45.048304,"elevationM":null},{"id":"node:1227014507","kind":"peak","name":"جبل المجرب","lat":16.500279,"lon":45.15373,"elevationM":null},{"id":"node:1227014663","kind":"peak","name":"جبل البرم","lat":16.616667,"lon":45.133333,"elevationM":null},{"id":"node:1227014789","kind":"peak","name":"محجوبة","lat":16.666667,"lon":45.166667,"elevationM":null},{"id":"node:1227014813","kind":"peak","name":"مشنع","lat":16.633333,"lon":45.05,"elevationM":null},{"id":"node:1227015391","kind":"peak","name":"الضعة","lat":16.428196,"lon":45.226333,"elevationM":null},{"id":"node:1227015406","kind":"peak","name":"الخليفين","lat":16.377136,"lon":45.057984,"elevationM":null},{"id":"node:1227015414","kind":"peak","name":"جبل الخرشة","lat":16.448045,"lon":45.066006,"elevationM":null},{"id":"node:1227015443","kind":"peak","name":"الضيوق","lat":16.409844,"lon":45.220508,"elevationM":null},{"id":"node:1227015466","kind":"peak","name":"السعراء","lat":16.482917,"lon":45.128434,"elevationM":null},{"id":"node:1227015493","kind":"peak","name":"ضيقة كحيل","lat":16.386592,"lon":45.200328,"elevationM":null},{"id":"node:1227015507","kind":"peak","name":"الخليفين","lat":16.3769066,"lon":45.0581896,"elevationM":null},{"id":"node:1227015535","kind":"peak","name":"جبل أحمر","lat":16.369368,"lon":45.064899,"elevationM":null},{"id":"node:1227016320","kind":"peak","name":"بليق","lat":16.499218,"lon":45.348706,"elevationM":null},{"id":"node:1227016349","kind":"peak","name":"المعو","lat":16.733333,"lon":45.333333,"elevationM":null},{"id":"node:1227016373","kind":"peak","name":"برق معقل","lat":16.396391,"lon":45.272532,"elevationM":null},{"id":"node:1227016380","kind":"peak","name":"جبل قيسين","lat":16.342747,"lon":45.348762,"elevationM":null},{"id":"node:1227016523","kind":"peak","name":"سود العظب","lat":16.449856,"lon":45.239696,"elevationM":null},{"id":"node:1227016616","kind":"peak","name":"حشة أم الخرمان","lat":16.383333,"lon":45.25,"elevationM":null},{"id":"node:1227016620","kind":"peak","name":"حزمة قريشمان","lat":16.450028,"lon":45.339922,"elevationM":null},{"id":"node:1227017672","kind":"peak","name":"جبل السعراء","lat":16.1019797,"lon":45.4129104,"elevationM":1321},{"id":"node:1227017680","kind":"peak","name":"جبال الدحيضة","lat":16.1540525,"lon":45.4931902,"elevationM":1209},{"id":"node:1227017682","kind":"peak","name":"جبال الشهلاء","lat":16.223319,"lon":45.49955,"elevationM":null},{"id":"node:1227017683","kind":"peak","name":"جبل النسرتين","lat":16.273082,"lon":45.425037,"elevationM":null},{"id":"node:1227017684","kind":"peak","name":"جبل أشقر القف","lat":16.328382,"lon":45.468082,"elevationM":null},{"id":"node:1227017685","kind":"peak","name":"الدحلات","lat":16.1730188,"lon":45.4329903,"elevationM":1210},{"id":"node:1227017689","kind":"peak","name":"جبال الشهلاء","lat":16.2235392,"lon":45.4995452,"elevationM":null},{"id":"node:1227169771","kind":"peak","name":"جبل قناو","lat":16.454887,"lon":45.474979,"elevationM":null},{"id":"node:6937224196","kind":"peak","name":"دحضة","lat":16.081199,"lon":45.573176,"elevationM":null},{"id":"node:8484112131","kind":"peak","name":"جبل عرفان","lat":16.2522402,"lon":45.7284367,"elevationM":null},{"id":"node:10735941346","kind":"peak","name":"جبل السك","lat":16.0217037,"lon":45.7851982,"elevationM":null},{"id":"node:10735976316","kind":"peak","name":"غراب","lat":16.0889359,"lon":45.7323532,"elevationM":null},{"id":"node:10739798667","kind":"peak","name":"قرن غراب","lat":16.0890846,"lon":45.7325745,"elevationM":null},{"id":"node:10739948066","kind":"peak","name":"جبل السك","lat":16.0212161,"lon":45.7861092,"elevationM":null},{"id":"node:10759989372","kind":"peak","name":"جبل السك","lat":16.0212601,"lon":45.7857558,"elevationM":null},{"id":"node:10760084517","kind":"peak","name":"رحيان","lat":16.0040667,"lon":45.7488673,"elevationM":null},{"id":"node:10800091234","kind":"peak","name":"فريدة الصبايق","lat":16.102913,"lon":45.7988743,"elevationM":null},{"id":"node:10800100267","kind":"peak","name":"قرن ابن عايض","lat":16.1068765,"lon":45.7099412,"elevationM":null},{"id":"node:10832549981","kind":"peak","name":"ضبع","lat":16.0231265,"lon":45.8588449,"elevationM":null}]}