{"tileKey":"la_p48_lo_p141","version":"v1-1775891056926","entries":[{"id":"node:3338705275","kind":"peak","name":"Стукамбис","lat":48.7440256,"lon":141.8545693,"elevationM":96},{"id":"node:5689320371","kind":"peak","name":"Ичара","lat":48.7288696,"lon":141.9590556,"elevationM":1022},{"id":"node:5689320372","kind":"peak","name":"Урюм","lat":48.7482454,"lon":141.9889297,"elevationM":782},{"id":"node:5689320373","kind":"peak","name":"Фиши","lat":48.740314,"lon":141.9654773,"elevationM":763},{"id":"node:6008903845","kind":"peak","name":"Кабанья","lat":48.7468139,"lon":141.8780865,"elevationM":307},{"id":"node:6008903846","kind":"peak","name":"Прибрежная","lat":48.7047803,"lon":141.8806074,"elevationM":245},{"id":"node:6008903847","kind":"peak","name":"Питерка","lat":48.6849898,"lon":141.8896741,"elevationM":241},{"id":"node:6008903848","kind":"peak","name":"Вязовка","lat":48.6769368,"lon":141.9143481,"elevationM":203},{"id":"node:6008903849","kind":"peak","name":"Звезда","lat":48.6633839,"lon":141.9574316,"elevationM":239},{"id":"node:6800746088","kind":"peak","name":"Окуневка","lat":48.5774384,"lon":141.990748,"elevationM":82},{"id":"node:6800746089","kind":"peak","name":"Березовка","lat":48.5987191,"lon":141.9919763,"elevationM":113},{"id":"node:6801296793","kind":"peak","name":"Дергач","lat":48.6375012,"lon":141.9931156,"elevationM":214},{"id":"node:6801296795","kind":"peak","name":"Котовск","lat":48.6728311,"lon":141.9917841,"elevationM":433},{"id":"node:6801296796","kind":"peak","name":"Челкар","lat":48.6742182,"lon":141.9687995,"elevationM":263},{"id":"node:8787411036","kind":"peak","name":"Новороссийск","lat":48.8030919,"lon":141.9779419,"elevationM":401}]}