{"tileKey":"la_p29_lo_p83","version":"v1-1775891056926","entries":[{"id":"node:575909762","kind":"peak","name":"Araniko Chuli","lat":29.1765931,"lon":83.6565907,"elevationM":6034},{"id":"node:2119337397","kind":"peak","name":"苟德木雪山","lat":29.410782,"lon":83.41643,"elevationM":null},{"id":"node:3574378517","kind":"peak","name":"Kyangkung Dula","lat":29.2176841,"lon":83.839776,"elevationM":6037},{"id":"node:3580083869","kind":"peak","name":"木斯塘雪山","lat":29.2362836,"lon":83.7027174,"elevationM":null},{"id":"node:3629580276","kind":"peak","name":"5215","lat":29.1594837,"lon":83.0359697,"elevationM":5215},{"id":"node:3703754582","kind":"peak","name":"坡拉东","lat":29.4503306,"lon":83.369737,"elevationM":5680},{"id":"node:3703754607","kind":"peak","name":"册尔嘎波特雪山","lat":29.580268,"lon":83.2307413,"elevationM":5690},{"id":"node:3703754635","kind":"peak","name":"Danphe Shail","lat":29.6720812,"lon":83.0083371,"elevationM":6103},{"id":"node:3922381340","kind":"peak","name":"Jhyarko Dingla","lat":29.1013393,"lon":83.0450101,"elevationM":5850},{"id":"node:3925094121","kind":"peak","name":"Chanmar Lek","lat":29.2355166,"lon":83.361154,"elevationM":6050},{"id":"node:3925094125","kind":"peak","name":"Kirphuk Lek","lat":29.2397652,"lon":83.3270134,"elevationM":5850},{"id":"node:3925860439","kind":"peak","name":"Buddha Ri","lat":29.1639733,"lon":83.197506,"elevationM":5370},{"id":"node:3928797970","kind":"peak","name":"Norbung Kang","lat":29.1202614,"lon":83.0735334,"elevationM":6085},{"id":"node:9201073305","kind":"peak","name":"扎那沃洛","lat":29.1809457,"lon":83.6070903,"elevationM":5897},{"id":"node:9201090722","kind":"peak","name":"曼塞尔","lat":29.3017429,"lon":83.8123561,"elevationM":6235},{"id":"node:9859423006","kind":"peak","name":"巴穷哈姆","lat":29.6826482,"lon":83.0079695,"elevationM":6529},{"id":"node:11744787413","kind":"peak","name":"4180","lat":29.2448487,"lon":83.9924557,"elevationM":null},{"id":"node:12023694785","kind":"peak","name":"4247","lat":29.1430516,"lon":83.8997124,"elevationM":null},{"id":"node:12037451117","kind":"peak","name":"3936","lat":29.0434167,"lon":83.9724812,"elevationM":null},{"id":"node:12569490298","kind":"peak","name":"Pawo Ri","lat":29.1428629,"lon":83.2329495,"elevationM":5155},{"id":"node:13043105642","kind":"peak","name":"括尔拉","lat":29.9042394,"lon":83.4209865,"elevationM":null},{"id":"node:13190842191","kind":"peak","name":"墨拉","lat":29.600889,"lon":83.2175043,"elevationM":null},{"id":"node:13190842192","kind":"peak","name":"惹嘎康日","lat":29.2916474,"lon":83.8102938,"elevationM":null},{"id":"node:13503680446","kind":"peak","name":"5410","lat":29.1741334,"lon":83.0979493,"elevationM":5410},{"id":"node:13505345982","kind":"peak","name":"Buddha Ri","lat":29.1735084,"lon":83.1916539,"elevationM":5167},{"id":"node:13506877285","kind":"peak","name":"Dho Ri","lat":29.1159569,"lon":83.1901788,"elevationM":4578}]}