{"tileKey":"la_p39_lo_p55","version":"v1-1775891056926","entries":[{"id":"node:7610600723","kind":"peak","name":"Uşakdag","lat":39.0486941,"lon":55.9630528,"elevationM":436},{"id":"node:7610643182","kind":"peak","name":"Äzzetdag","lat":39.006293,"lon":55.8276198,"elevationM":1006},{"id":"node:7610721039","kind":"peak","name":"Kürendag","lat":39.0155948,"lon":55.2995951,"elevationM":972},{"id":"node:13372939543","kind":"peak","name":"Garaganja","lat":39.0205618,"lon":55.9500485,"elevationM":803},{"id":"node:13372939544","kind":"peak","name":"Garajadag","lat":39.0542697,"lon":55.8619028,"elevationM":420},{"id":"node:13372939546","kind":"peak","name":"Ýylanly","lat":39.0929841,"lon":55.738717,"elevationM":634},{"id":"node:13372939547","kind":"peak","name":"Ýylanlydepe","lat":39.0783578,"lon":55.727347,"elevationM":702},{"id":"node:13372939551","kind":"peak","name":"Garamugta","lat":39.176971,"lon":55.6530122,"elevationM":625},{"id":"node:13372939553","kind":"peak","name":"Gazanjyk","lat":39.1970967,"lon":55.5376625,"elevationM":796},{"id":"node:13372939554","kind":"peak","name":"Küren","lat":39.0524487,"lon":55.1675026,"elevationM":972}]}