{"tileKey":"la_p46_lo_p138","version":"v1-1775891056926","entries":[{"id":"node:1743920643","kind":"peak","name":"Пея Западная","lat":46.7391262,"lon":138.0247585,"elevationM":748},{"id":"node:1743920645","kind":"peak","name":"Светлая","lat":46.7098905,"lon":138.1217839,"elevationM":754},{"id":"node:1743920647","kind":"peak","name":"Плоская","lat":46.7404059,"lon":138.1353643,"elevationM":null},{"id":"node:1743923734","kind":"peak","name":"Курган","lat":46.651487,"lon":138.1428476,"elevationM":755},{"id":"node:1743927922","kind":"peak","name":"Мыс","lat":46.6081703,"lon":138.1994664,"elevationM":420},{"id":"node:1743927923","kind":"peak","name":"Береговая","lat":46.6532457,"lon":138.3109727,"elevationM":593},{"id":"node:10183154072","kind":"peak","name":"Заметная","lat":46.532368,"lon":138.1636275,"elevationM":650},{"id":"node:10183158910","kind":"peak","name":"Перевальная","lat":46.4879731,"lon":138.1853636,"elevationM":523},{"id":"node:10187795448","kind":"peak","name":"Фунты","lat":46.5706243,"lon":138.205955,"elevationM":563},{"id":"node:10187851994","kind":"peak","name":"Развадина","lat":46.5328604,"lon":138.1141747,"elevationM":611},{"id":"node:10187864268","kind":"peak","name":"Осипова","lat":46.6042094,"lon":138.1189254,"elevationM":602},{"id":"node:10187893572","kind":"peak","name":"Бобкова","lat":46.4989413,"lon":138.0771675,"elevationM":946},{"id":"node:10244812329","kind":"peak","name":"Скалистая","lat":46.6988683,"lon":138.2775335,"elevationM":390},{"id":"node:10262568367","kind":"peak","name":"Мебвежъя","lat":46.7645334,"lon":138.3323443,"elevationM":496},{"id":"node:10567974084","kind":"peak","name":"Пея","lat":46.7646674,"lon":138.1334237,"elevationM":591},{"id":"node:10576576330","kind":"peak","name":"Высокая","lat":46.7911648,"lon":138.1678334,"elevationM":542},{"id":"node:10581742993","kind":"peak","name":"Крепостная","lat":46.9646479,"lon":138.0404033,"elevationM":1086},{"id":"node:11922260876","kind":"peak","name":"Кюмская","lat":46.9365775,"lon":138.4066824,"elevationM":772},{"id":"node:11942164980","kind":"peak","name":"Барачная","lat":46.9205535,"lon":138.3114426,"elevationM":482},{"id":"node:11942192005","kind":"peak","name":"Черепановская","lat":46.9498025,"lon":138.2755087,"elevationM":601},{"id":"node:11942197740","kind":"peak","name":"Черепановская","lat":46.9662499,"lon":138.2992812,"elevationM":622},{"id":"node:11942234884","kind":"peak","name":"Ягодная","lat":46.9863828,"lon":138.2738788,"elevationM":691}]}