{"tileKey":"la_p60_lo_p10","version":"v1-1775849605232","entries":[{"id":"node:61785540","kind":"peak","name":"Fjellsjøkampen","lat":60.4597031,"lon":10.9401775,"elevationM":812},{"id":"node:416154873","kind":"peak","name":"Prekestolen","lat":60.052075,"lon":10.940516,"elevationM":410},{"id":"node:429349470","kind":"peak","name":"Bjørgeberget","lat":60.9176736,"lon":10.9427522,"elevationM":499},{"id":"node:845768247","kind":"peak","name":"Glåmhaugen","lat":60.573674,"lon":10.513469,"elevationM":null},{"id":"node:847950150","kind":"peak","name":"Helgerenhøgda","lat":60.0668205,"lon":10.7266685,"elevationM":null},{"id":"node:847950181","kind":"peak","name":"Norskeperskallen","lat":60.0692891,"lon":10.7288221,"elevationM":null},{"id":"node:852014266","kind":"peak","name":"Helgehaugen","lat":60.2413673,"lon":10.5211623,"elevationM":null},{"id":"node:852014334","kind":"peak","name":"Lamannshaugen","lat":60.2401064,"lon":10.4885922,"elevationM":null},{"id":"node:852014471","kind":"peak","name":"Roenseterhøgda","lat":60.1967245,"lon":10.5436161,"elevationM":626},{"id":"node:852014482","kind":"peak","name":"Skinnskattberget","lat":60.1327676,"lon":10.6808443,"elevationM":550},{"id":"node:852014494","kind":"peak","name":"Spålshøgda","lat":60.153247,"lon":10.5217212,"elevationM":575},{"id":"node:852014596","kind":"peak","name":"Finnerudhøgda","lat":60.1584307,"lon":10.5302408,"elevationM":559},{"id":"node:852053106","kind":"peak","name":"Ringkollen","lat":60.1662978,"lon":10.4007347,"elevationM":702},{"id":"node:852053123","kind":"peak","name":"Kolleren","lat":60.2146807,"lon":10.5446081,"elevationM":null},{"id":"node:852079470","kind":"peak","name":"Rughaug","lat":60.1530515,"lon":10.4250787,"elevationM":null},{"id":"node:852079473","kind":"peak","name":"Oppkuven","lat":60.0901069,"lon":10.5204809,"elevationM":null},{"id":"node:852104875","kind":"peak","name":"Pershusfjellet","lat":60.186751,"lon":10.5063327,"elevationM":649},{"id":"node:852345433","kind":"peak","name":"Sandungskollen","lat":60.0993214,"lon":10.6250875,"elevationM":null},{"id":"node:852345444","kind":"peak","name":"Kikut","lat":60.0844687,"lon":10.6442445,"elevationM":612},{"id":"node:852345457","kind":"peak","name":"Søndre Karlshaug","lat":60.0829419,"lon":10.7967049,"elevationM":null},{"id":"node:852345465","kind":"peak","name":"Storhaugen","lat":60.1086561,"lon":10.7115481,"elevationM":520},{"id":"node:852345468","kind":"peak","name":"Myrtjernhøgda","lat":60.0695945,"lon":10.7011474,"elevationM":445},{"id":"node:852345487","kind":"peak","name":"Porthøgda","lat":60.0849541,"lon":10.6383726,"elevationM":null},{"id":"node:852345489","kind":"peak","name":"Fuglemyrhøgda","lat":60.0858673,"lon":10.7406578,"elevationM":457},{"id":"node:852345552","kind":"peak","name":"Langedalskollen","lat":60.0665445,"lon":10.7773258,"elevationM":486},{"id":"node:852345554","kind":"peak","name":"Varingskollen","lat":60.0933308,"lon":10.8360771,"elevationM":null},{"id":"node:852345575","kind":"peak","name":"Askehøgda","lat":60.0933824,"lon":10.6246332,"elevationM":605},{"id":"node:852345580","kind":"peak","name":"Barlindhøgda","lat":60.0979957,"lon":10.7003944,"elevationM":524},{"id":"node:852345592","kind":"peak","name":"Storbråtehaugen","lat":60.0714373,"lon":10.7975482,"elevationM":null},{"id":"node:852345600","kind":"peak","name":"Lønlihøgda","lat":60.1037787,"lon":10.7067598,"elevationM":516},{"id":"node:852345615","kind":"peak","name":"Klypegranhøgda","lat":60.1259601,"lon":10.6556298,"elevationM":465},{"id":"node:853970089","kind":"peak","name":"Grøttumsflaka","lat":60.0188211,"lon":10.6540072,"elevationM":null},{"id":"node:853970091","kind":"peak","name":"Høvreberget","lat":60.0485126,"lon":10.5730291,"elevationM":null},{"id":"node:853970112","kind":"peak","name":"Kleggemyråsen","lat":60.0412971,"lon":10.5707535,"elevationM":404},{"id":"node:853970120","kind":"peak","name":"Lyberget","lat":60.0562314,"lon":10.6969069,"elevationM":434},{"id":"node:853970126","kind":"peak","name":"Mørkreiås","lat":60.0462051,"lon":10.4670248,"elevationM":null},{"id":"node:853970130","kind":"peak","name":"Nordre Otertjernsås","lat":60.0441149,"lon":10.53612,"elevationM":534},{"id":"node:853970143","kind":"peak","name":"Laskerudåsen","lat":60.0575468,"lon":10.8202131,"elevationM":null},{"id":"node:853970149","kind":"peak","name":"Karidalsåsen","lat":60.0147871,"lon":10.4998849,"elevationM":455},{"id":"node:853970156","kind":"peak","name":"Seteråsen","lat":60.0279023,"lon":10.5231261,"elevationM":436},{"id":"node:853970168","kind":"peak","name":"Pinslihøgda","lat":60.0024342,"lon":10.6609703,"elevationM":418},{"id":"node:853970170","kind":"peak","name":"Moliksåsen","lat":60.0572934,"lon":10.5731619,"elevationM":null},{"id":"node:859319079","kind":"peak","name":"Midthytthøgda","lat":60.0593951,"lon":10.631066,"elevationM":478},{"id":"node:965222352","kind":"peak","name":"Brennberget","lat":60.0214496,"lon":10.8578113,"elevationM":441},{"id":"node:977802259","kind":"peak","name":"Askehøgda","lat":60.0910439,"lon":10.6259084,"elevationM":null},{"id":"node:1112462418","kind":"peak","name":"Gyrihaugen","lat":60.0954568,"lon":10.3819537,"elevationM":682},{"id":"node:1146456036","kind":"peak","name":"Marifjell","lat":60.3190477,"lon":10.9235737,"elevationM":720},{"id":"node:1165882223","kind":"peak","name":"Kjerkeberget","lat":60.135228,"lon":10.6190633,"elevationM":629},{"id":"node:1227217424","kind":"peak","name":"Øskjevallsbrenna","lat":60.0346054,"lon":10.3632345,"elevationM":null},{"id":"node:1274528429","kind":"peak","name":"Barlindåsen","lat":60.0112568,"lon":10.8216241,"elevationM":407},{"id":"node:1292354956","kind":"peak","name":"Svenballrudtoppen","lat":60.2779262,"lon":10.5697821,"elevationM":502},{"id":"node:1350790138","kind":"peak","name":"Geitåsen","lat":60.0209051,"lon":10.9979553,"elevationM":283},{"id":"node:1372925599","kind":"peak","name":"Skarshøgda","lat":60.0215692,"lon":10.7650399,"elevationM":379},{"id":"node:1373108053","kind":"peak","name":"Taraldrudåsen","lat":60.0000346,"lon":10.7310739,"elevationM":319},{"id":"node:1373108054","kind":"peak","name":"Vaggesteinåsen","lat":60.0356111,"lon":10.7847111,"elevationM":null},{"id":"node:1374852377","kind":"peak","name":"Dausjøberget","lat":60.0040569,"lon":10.7902912,"elevationM":null},{"id":"node:1378435237","kind":"peak","name":"Paradiskollen","lat":60.1842455,"lon":10.7645544,"elevationM":670},{"id":"node:1407944925","kind":"peak","name":"Granberget","lat":60.0137039,"lon":10.8295154,"elevationM":440},{"id":"node:1445676567","kind":"peak","name":"Amlisberget","lat":60.966375,"lon":10.7196917,"elevationM":575},{"id":"node:1455325642","kind":"peak","name":"Gråberget","lat":60.1009853,"lon":10.4485639,"elevationM":596},{"id":"node:1473491254","kind":"peak","name":"Bangsberget","lat":60.84582,"lon":10.895982,"elevationM":486},{"id":"node:1494579089","kind":"peak","name":"Brentebråtåsen","lat":60.1411583,"lon":10.5514023,"elevationM":null},{"id":"node:1494579093","kind":"peak","name":"Holås","lat":60.0132457,"lon":10.8519142,"elevationM":null},{"id":"node:1503132825","kind":"peak","name":"Heikampen","lat":60.0586855,"lon":10.6035504,"elevationM":null},{"id":"node:1503132827","kind":"peak","name":"Stubberudseterkollen","lat":60.0404741,"lon":10.6272243,"elevationM":524},{"id":"node:1528765087","kind":"peak","name":"Geitberget","lat":60.0884736,"lon":10.8490175,"elevationM":null},{"id":"node:1843371757","kind":"peak","name":"Carlosberget","lat":60.0008911,"lon":10.8186267,"elevationM":null},{"id":"node:1870400886","kind":"peak","name":"Brandbukampen","lat":60.44815,"lon":10.4919278,"elevationM":520},{"id":"node:1870457879","kind":"peak","name":"Gammehaugen","lat":60.350036,"lon":10.5207326,"elevationM":481},{"id":"node:1870672900","kind":"peak","name":"Sølvsberget","lat":60.3708,"lon":10.4806,"elevationM":490},{"id":"node:1871056290","kind":"peak","name":"Hadelandshøgda","lat":60.1321,"lon":10.656,"elevationM":495},{"id":"node:1874205887","kind":"peak","name":"Rustberget","lat":60.7635,"lon":10.193,"elevationM":603},{"id":"node:1874206499","kind":"peak","name":"Store Skjellingshovde","lat":60.7312124,"lon":10.0279971,"elevationM":856},{"id":"node:1876804683","kind":"peak","name":"Hvalabykampen","lat":60.3910222,"lon":10.6189167,"elevationM":770},{"id":"node:1876813733","kind":"peak","name":"Rånåsen","lat":60.3939583,"lon":10.6199417,"elevationM":726},{"id":"node:1889566802","kind":"peak","name":"Knatthaugen","lat":60.3987,"lon":10.7446,"elevationM":761},{"id":"node:1889572432","kind":"peak","name":"Korshaugen","lat":60.4987,"lon":10.5639,"elevationM":583},{"id":"node:1889587254","kind":"peak","name":"Ognilsberga","lat":60.4074,"lon":10.7107,"elevationM":685},{"id":"node:1889591256","kind":"peak","name":"Korssæterhaugen","lat":60.5115,"lon":10.6142,"elevationM":581},{"id":"node:1889598675","kind":"peak","name":"Østerfallhaugen","lat":60.4929484,"lon":10.5504795,"elevationM":590},{"id":"node:1900901807","kind":"peak","name":"Bukollen","lat":60.1574961,"lon":10.8168517,"elevationM":522},{"id":"node:1900901811","kind":"peak","name":"Fugleknatten","lat":60.162723,"lon":10.8079815,"elevationM":557},{"id":"node:1902011556","kind":"peak","name":"Skjellungskampen","lat":60.801,"lon":10.0505,"elevationM":603},{"id":"node:1902437660","kind":"peak","name":"Moterudshaugane","lat":60.5209,"lon":10.4744,"elevationM":531},{"id":"node:1902801221","kind":"peak","name":"Bjoneberget","lat":60.5244,"lon":10.293,"elevationM":197},{"id":"node:1904278050","kind":"peak","name":"Gauken","lat":60.447,"lon":10.4681,"elevationM":161},{"id":"node:1904282435","kind":"peak","name":"Kjerringberget","lat":60.4524,"lon":10.4616,"elevationM":202},{"id":"node:1904377757","kind":"peak","name":"Heimtjernshøgda","lat":60.5103,"lon":10.5842,"elevationM":626},{"id":"node:1904399344","kind":"peak","name":"Fuglåsen","lat":60.5267,"lon":10.5758,"elevationM":583},{"id":"node:1904402600","kind":"peak","name":"Gåshaugen","lat":60.5258,"lon":10.5841,"elevationM":625},{"id":"node:1905679264","kind":"peak","name":"Øverhagamana","lat":60.3856,"lon":10.6147,"elevationM":664},{"id":"node:1905682513","kind":"peak","name":"Skjønsberget","lat":60.3804,"lon":10.5931,"elevationM":352},{"id":"node:1915835805","kind":"peak","name":"Hovsæteråsen","lat":60.4309,"lon":10.2865,"elevationM":490},{"id":"node:1915839339","kind":"peak","name":"Søndre Hovseterås","lat":60.4285,"lon":10.2868,"elevationM":505},{"id":"node:1915839346","kind":"peak","name":"Østre Hovseterås","lat":60.4309,"lon":10.2906,"elevationM":500},{"id":"node:1915845781","kind":"peak","name":"Skrikerud","lat":60.4177,"lon":10.3047,"elevationM":406},{"id":"node:1915851038","kind":"peak","name":"Kroktjernshaugen","lat":60.4151,"lon":10.3266,"elevationM":421},{"id":"node:1925779880","kind":"peak","name":"Bergehushøgda","lat":60.5295,"lon":10.3845,"elevationM":481},{"id":"node:1925792715","kind":"peak","name":"Flaskehalsberget","lat":60.5467639,"lon":10.4064,"elevationM":449},{"id":"node:1925809989","kind":"peak","name":"Valbergsfalla","lat":60.5515,"lon":10.5271,"elevationM":591},{"id":"node:1925895856","kind":"peak","name":"Kvitingen","lat":60.5577,"lon":10.5148,"elevationM":720},{"id":"node:1936771041","kind":"peak","name":"Breidhaugen","lat":60.2942,"lon":10.723,"elevationM":579},{"id":"node:1936776933","kind":"peak","name":"Sæterberget","lat":60.2851,"lon":10.706,"elevationM":587},{"id":"node:1936781014","kind":"peak","name":"Dalasjøhøgda","lat":60.2758,"lon":10.7004,"elevationM":603},{"id":"node:1940205332","kind":"peak","name":"Gruvåsen","lat":60.0783361,"lon":10.7913005,"elevationM":null},{"id":"node:1950481617","kind":"peak","name":"Råkollen","lat":60.0445592,"lon":10.6178029,"elevationM":528},{"id":"node:1985365652","kind":"peak","name":"Bjørnholthøgda","lat":60.1311022,"lon":10.8582764,"elevationM":409},{"id":"node:1985365653","kind":"peak","name":"Eriksknatten","lat":60.0965463,"lon":10.7979196,"elevationM":null},{"id":"node:1985365654","kind":"peak","name":"Holterkollen","lat":60.047092,"lon":10.9303398,"elevationM":null},{"id":"node:1985365655","kind":"peak","name":"Kirkebyhøgda","lat":60.1104914,"lon":10.9031854,"elevationM":408},{"id":"node:1985365657","kind":"peak","name":"Oppegårdskollen","lat":60.1166445,"lon":10.8933412,"elevationM":439},{"id":"node:1985365658","kind":"peak","name":"Slettberget","lat":60.0944816,"lon":10.8127491,"elevationM":null},{"id":"node:1985365659","kind":"peak","name":"Spenningsbyhøgda","lat":60.0756513,"lon":10.9348501,"elevationM":null},{"id":"node:1985365661","kind":"peak","name":"Åskastet","lat":60.1380874,"lon":10.8427254,"elevationM":340},{"id":"node:1985801752","kind":"peak","name":"Rundkollen","lat":60.1663879,"lon":10.791591,"elevationM":null},{"id":"node:2021744076","kind":"peak","name":"Svarthøgda","lat":60.149346,"lon":10.4465699,"elevationM":654},{"id":"node:2044866182","kind":"peak","name":"Lørenskoghøgda","lat":60.0573911,"lon":10.808557,"elevationM":null},{"id":"node:2044866186","kind":"peak","name":"Røverkula","lat":60.0246527,"lon":10.8500652,"elevationM":430},{"id":"node:2044866188","kind":"peak","name":"Torkelstuhaugen","lat":60.0282081,"lon":10.8234264,"elevationM":null},{"id":"node:2091345987","kind":"peak","name":"Vardåsen","lat":60.1656176,"lon":10.9346715,"elevationM":null},{"id":"node:2124801962","kind":"peak","name":"Kampeknerten","lat":60.0459317,"lon":10.4707278,"elevationM":null},{"id":"node:2368101920","kind":"peak","name":"Nordre Karlshaug","lat":60.0885158,"lon":10.7958806,"elevationM":null},{"id":"node:2368101974","kind":"peak","name":"Østre Karlshaug","lat":60.0897783,"lon":10.8122166,"elevationM":null},{"id":"node:2369098020","kind":"peak","name":"Heitåsen","lat":60.089241,"lon":10.8274402,"elevationM":null},{"id":"node:2452436733","kind":"peak","name":"Tripperudhøgda","lat":60.1867882,"lon":10.8553074,"elevationM":null},{"id":"node:2525550183","kind":"peak","name":"Raudfjellet","lat":60.1469068,"lon":10.9753678,"elevationM":null},{"id":"node:2535125112","kind":"peak","name":"Lauvhaugen","lat":60.5401,"lon":10.2705,"elevationM":409},{"id":"node:2547404706","kind":"peak","name":"Skutberget","lat":60.1012528,"lon":10.9277064,"elevationM":null},{"id":"node:2626245886","kind":"peak","name":"Ringerudkollen","lat":60.3895852,"lon":10.0322009,"elevationM":716},{"id":"node:2705592548","kind":"peak","name":"Fjøsvikfjellet","lat":60.3475503,"lon":10.1445828,"elevationM":710},{"id":"node:2709435284","kind":"peak","name":"Onsberget","lat":60.3542791,"lon":10.3451397,"elevationM":456},{"id":"node:2947953267","kind":"peak","name":"Veslefjell","lat":60.3800709,"lon":10.0186081,"elevationM":833},{"id":"node:2947953306","kind":"peak","name":"Høgfjellet","lat":60.3760517,"lon":10.0003712,"elevationM":1009},{"id":"node:2969057308","kind":"peak","name":"Gråbeinhøgda","lat":60.0704118,"lon":10.8054963,"elevationM":null},{"id":"node:2974479486","kind":"peak","name":"Ormtjernkollen","lat":60.0287837,"lon":10.8380326,"elevationM":null},{"id":"node:3075490321","kind":"peak","name":"Bjørgeseterfjellet","lat":60.2400062,"lon":10.7210044,"elevationM":null},{"id":"node:3089528817","kind":"peak","name":"Vindernhøgda","lat":60.0407295,"lon":10.6884989,"elevationM":490},{"id":"node:3094111727","kind":"peak","name":"Seterberget","lat":60.0561705,"lon":10.6038948,"elevationM":null},{"id":"node:3109066648","kind":"peak","name":"Grasdalskollen","lat":60.1889933,"lon":10.5589085,"elevationM":642},{"id":"node:3135434655","kind":"peak","name":"Glotjernskollen","lat":60.081495,"lon":10.7634971,"elevationM":526},{"id":"node:3136281669","kind":"peak","name":"Rolighaug","lat":60.1683181,"lon":10.3859376,"elevationM":null},{"id":"node:3136338786","kind":"peak","name":"Vambuhaug","lat":60.1570025,"lon":10.4401517,"elevationM":null},{"id":"node:3165470628","kind":"peak","name":"Rambergåsen","lat":60.0009263,"lon":10.6077821,"elevationM":285},{"id":"node:3180197909","kind":"peak","name":"Rundhaugen","lat":60.2437107,"lon":10.4656233,"elevationM":null},{"id":"node:3182281791","kind":"peak","name":"Høgsetberget","lat":60.2465921,"lon":10.4958073,"elevationM":null},{"id":"node:3223742970","kind":"peak","name":"Tiurtoppen","lat":60.1411502,"lon":10.3698432,"elevationM":null},{"id":"node:3235313543","kind":"peak","name":"Fugleleiken","lat":60.0071089,"lon":10.8258274,"elevationM":391},{"id":"node:3235313548","kind":"peak","name":"Holåsen","lat":60.0105326,"lon":10.8437725,"elevationM":null},{"id":"node:3235313549","kind":"peak","name":"Høgfjellet","lat":60.009639,"lon":10.899583,"elevationM":null},{"id":"node:3235313553","kind":"peak","name":"Kjulstjernskollen","lat":60.006683,"lon":10.862736,"elevationM":null},{"id":"node:3235313559","kind":"peak","name":"Massjørgenhøgda","lat":60.006667,"lon":10.894125,"elevationM":322},{"id":"node:3235313560","kind":"peak","name":"Merrahaugen","lat":60.024969,"lon":10.819975,"elevationM":null},{"id":"node:3235314876","kind":"peak","name":"Trøythaugen","lat":60.0202295,"lon":10.8859459,"elevationM":null},{"id":"node:3235315036","kind":"peak","name":"Østre Torkilstuhøgda","lat":60.026389,"lon":10.832883,"elevationM":null},{"id":"node:3239740821","kind":"peak","name":"Karlstadhøgda","lat":60.029741,"lon":10.5037213,"elevationM":null},{"id":"node:3249138441","kind":"peak","name":"Hansehorn","lat":60.0227207,"lon":10.867748,"elevationM":null},{"id":"node:3249138442","kind":"peak","name":"Kjulskollen","lat":60.0176129,"lon":10.8917261,"elevationM":null},{"id":"node:3249138443","kind":"peak","name":"Teskjehorn","lat":60.0168225,"lon":10.8704927,"elevationM":null},{"id":"node:3607848472","kind":"peak","name":"Høgåsen","lat":60.1352179,"lon":10.4211624,"elevationM":null},{"id":"node:3693935626","kind":"peak","name":"Bokkrustadåsen","lat":60.9914,"lon":10.830825,"elevationM":676},{"id":"node:3693935644","kind":"peak","name":"Haukåsen","lat":60.98105,"lon":10.874075,"elevationM":687},{"id":"node:3693935651","kind":"peak","name":"Kompåsen","lat":60.990147,"lon":10.928997,"elevationM":695},{"id":"node:3693935657","kind":"peak","name":"Lauvåsen","lat":60.984661,"lon":10.851044,"elevationM":661},{"id":"node:3700009992","kind":"peak","name":"Bjørnhaugen","lat":60.4312694,"lon":10.309575,"elevationM":456},{"id":"node:3809102896","kind":"peak","name":"Venholhøgda","lat":60.8354204,"lon":10.3649371,"elevationM":null},{"id":"node:3812668460","kind":"peak","name":"Venneråsen","lat":60.0046683,"lon":10.5606376,"elevationM":369},{"id":"node:3813054266","kind":"peak","name":"Brenna","lat":60.0526334,"lon":10.7521333,"elevationM":null},{"id":"node:3813054267","kind":"peak","name":"Furumokollen","lat":60.042953,"lon":10.7644217,"elevationM":396},{"id":"node:3813054268","kind":"peak","name":"Gaupekollen","lat":60.0486138,"lon":10.7816055,"elevationM":525},{"id":"node:3813054269","kind":"peak","name":"Hansekollen","lat":60.0439742,"lon":10.7882408,"elevationM":493},{"id":"node:3813054270","kind":"peak","name":"Mellomkollen","lat":60.0506062,"lon":10.7683508,"elevationM":537},{"id":"node:3813054271","kind":"peak","name":"Midtkollen","lat":60.0487328,"lon":10.7741411,"elevationM":520},{"id":"node:3813054272","kind":"peak","name":"Seterkollen","lat":60.0497608,"lon":10.7619057,"elevationM":361},{"id":"node:3813054273","kind":"peak","name":"Vittenbergkollen","lat":60.046939,"lon":10.7872617,"elevationM":520},{"id":"node:3813054274","kind":"peak","name":"Øyungskollen","lat":60.0448127,"lon":10.7555363,"elevationM":430},{"id":"node:4322144390","kind":"peak","name":"Stokksjøhøgda","lat":60.4462,"lon":10.3032,"elevationM":444},{"id":"node:4325364854","kind":"peak","name":"Gullikskollen","lat":60.0486565,"lon":10.464453,"elevationM":null},{"id":"node:4326535147","kind":"peak","name":"Langnesberget","lat":60.5465,"lon":10.2832,"elevationM":220},{"id":"node:4417335159","kind":"peak","name":"Klevkollen","lat":60.043579,"lon":10.3079089,"elevationM":529},{"id":"node:4536285571","kind":"peak","name":"Skjuleåsen","lat":60.0064542,"lon":10.4948214,"elevationM":null},{"id":"node:5870304137","kind":"peak","name":"Klofjell","lat":60.3153152,"lon":10.959616,"elevationM":664},{"id":"node:5968197105","kind":"peak","name":"Kobberhaugene","lat":60.0421402,"lon":10.6707954,"elevationM":526},{"id":"node:5968197106","kind":"peak","name":"Dølerudhøgda","lat":60.0300019,"lon":10.6911004,"elevationM":421},{"id":"node:5968197107","kind":"peak","name":"Lyberga","lat":60.0227722,"lon":10.7515737,"elevationM":463},{"id":"node:5968197108","kind":"peak","name":"Stutehaugen","lat":60.0287455,"lon":10.7358443,"elevationM":462},{"id":"node:6007760296","kind":"peak","name":"Skjennungsåsen","lat":60.0048088,"lon":10.6965329,"elevationM":495},{"id":"node:6502557657","kind":"peak","name":"Olsknappen","lat":60.2684792,"lon":10.6534788,"elevationM":534},{"id":"node:6606353137","kind":"peak","name":"Finnerudhøgda","lat":60.0373622,"lon":10.6313244,"elevationM":502},{"id":"node:6835605288","kind":"peak","name":"Torsæterkampen","lat":60.5696,"lon":10.9379845,"elevationM":841},{"id":"node:6875752790","kind":"peak","name":"Ringsrudåsen","lat":60.9795773,"lon":10.1987296,"elevationM":842},{"id":"node:7042196045","kind":"peak","name":"Rumpestjertåsen","lat":60.0795567,"lon":10.539782,"elevationM":null},{"id":"node:7182233013","kind":"peak","name":"Skriverhaugen","lat":60.7146444,"lon":10.4555082,"elevationM":662},{"id":"node:7182233334","kind":"peak","name":"Helvetesberget","lat":60.7061728,"lon":10.3822732,"elevationM":539},{"id":"node:7511687281","kind":"peak","name":"Alsetstuguberget","lat":60.9762513,"lon":10.4899692,"elevationM":559},{"id":"node:7511687282","kind":"peak","name":"Bonstadhaugen","lat":60.9900008,"lon":10.4556155,"elevationM":594},{"id":"node:7513659400","kind":"peak","name":"Rishuet","lat":60.2442807,"lon":10.0833711,"elevationM":468},{"id":"node:7513707972","kind":"peak","name":"Blekåsen","lat":60.2822619,"lon":10.0042729,"elevationM":410},{"id":"node:7513779920","kind":"peak","name":"Piperås","lat":60.2294836,"lon":10.0949768,"elevationM":274},{"id":"node:7513785461","kind":"peak","name":"Grashatten","lat":60.2951128,"lon":10.0691743,"elevationM":521},{"id":"node:7513804703","kind":"peak","name":"Anbjørgåsen","lat":60.2139652,"lon":10.1383408,"elevationM":381},{"id":"node:7513815895","kind":"peak","name":"Røysås","lat":60.1846539,"lon":10.0784016,"elevationM":530},{"id":"node:7513843883","kind":"peak","name":"Tronrudkollen","lat":60.1852617,"lon":10.1226471,"elevationM":364},{"id":"node:7514770884","kind":"peak","name":"Nordvolla","lat":60.2650408,"lon":10.0663949,"elevationM":433},{"id":"node:7514833634","kind":"peak","name":"Vælstindane","lat":60.2993728,"lon":10.0335866,"elevationM":509},{"id":"node:7514901359","kind":"peak","name":"Amundstukollen","lat":60.3308827,"lon":10.0600625,"elevationM":653},{"id":"node:7523792990","kind":"peak","name":"Brattåshaugen","lat":60.9257195,"lon":10.4003191,"elevationM":795},{"id":"node:7523792991","kind":"peak","name":"Åsgardshaugen","lat":60.9430656,"lon":10.3995681,"elevationM":807},{"id":"node:7573437408","kind":"peak","name":"Bjørneberget","lat":60.0737612,"lon":10.6077337,"elevationM":491},{"id":"node:7580387590","kind":"peak","name":"Branntjernåsen (459)","lat":60.2586553,"lon":10.0083939,"elevationM":459},{"id":"node:7603409181","kind":"peak","name":"Vidvangshøgda Sør","lat":60.0231019,"lon":10.4841609,"elevationM":553},{"id":"node:7619927633","kind":"peak","name":"Svaraberget","lat":60.238621,"lon":10.6765288,"elevationM":510},{"id":"node:7760601306","kind":"peak","name":"Gråbeinhaugen","lat":60.1057356,"lon":10.6248672,"elevationM":520},{"id":"node:7760601325","kind":"peak","name":"Middagskollen","lat":60.0983219,"lon":10.62483,"elevationM":614},{"id":"node:7760601326","kind":"peak","name":"Rolighaugen","lat":60.0944391,"lon":10.5918215,"elevationM":null},{"id":"node:7760601417","kind":"peak","name":"Knappa","lat":60.0970694,"lon":10.6038861,"elevationM":null},{"id":"node:7760601419","kind":"peak","name":"Huldreberget","lat":60.1040996,"lon":10.58841,"elevationM":460},{"id":"node:7760601420","kind":"peak","name":"Prekestolen","lat":60.1089988,"lon":10.5927995,"elevationM":430},{"id":"node:7761744103","kind":"peak","name":"Lauvhyttåsen","lat":60.0099355,"lon":10.6706417,"elevationM":null},{"id":"node:7761744108","kind":"peak","name":"Kjellerberget","lat":60.0246861,"lon":10.6590222,"elevationM":null},{"id":"node:7761744109","kind":"peak","name":"Andtjernhøgda","lat":60.0327018,"lon":10.6642884,"elevationM":null},{"id":"node:7761793595","kind":"peak","name":"Hovdetoppen","lat":60.7940612,"lon":10.6766745,"elevationM":258},{"id":"node:7761793596","kind":"peak","name":"Bergstoppen","lat":60.8124679,"lon":10.6427821,"elevationM":435},{"id":"node:7761793597","kind":"peak","name":"Høgda","lat":60.7826937,"lon":10.5807158,"elevationM":485},{"id":"node:7761793598","kind":"peak","name":"Skonhovdhøgda","lat":60.7775611,"lon":10.5520269,"elevationM":579},{"id":"node:7761793599","kind":"peak","name":"Lauvhøgda","lat":60.687144,"lon":10.5339166,"elevationM":722},{"id":"node:7761793600","kind":"peak","name":"Mustadkampen","lat":60.7959825,"lon":10.4660675,"elevationM":585},{"id":"node:7761793601","kind":"peak","name":"Presthaugen","lat":60.7926529,"lon":10.5081245,"elevationM":538},{"id":"node:7761793602","kind":"peak","name":"Venolhøgda","lat":60.8354496,"lon":10.3650877,"elevationM":750},{"id":"node:7761793603","kind":"peak","name":"Glæstadhøgda","lat":60.8493645,"lon":10.4991123,"elevationM":615},{"id":"node:7761793604","kind":"peak","name":"Brennhaugen","lat":60.8597001,"lon":10.5541297,"elevationM":565},{"id":"node:7761793605","kind":"peak","name":"Brattengshovde","lat":60.9161068,"lon":10.2060434,"elevationM":712},{"id":"node:7761793606","kind":"peak","name":"Akselhovde","lat":60.9116527,"lon":10.4487082,"elevationM":794},{"id":"node:7761793607","kind":"peak","name":"Askimhaugen","lat":60.7892253,"lon":10.6157132,"elevationM":302},{"id":"node:7764655486","kind":"peak","name":"Vollberga","lat":60.0859624,"lon":10.6270747,"elevationM":533},{"id":"node:7764655487","kind":"peak","name":"Vollberga","lat":60.0831992,"lon":10.6292241,"elevationM":null},{"id":"node:7764655489","kind":"peak","name":"Askehøgda","lat":60.08762,"lon":10.6300636,"elevationM":604},{"id":"node:7764655560","kind":"peak","name":"Kveldroshøgda","lat":60.0886567,"lon":10.6042291,"elevationM":485},{"id":"node:7764802753","kind":"peak","name":"Høgåsen","lat":60.0790722,"lon":10.6310695,"elevationM":null},{"id":"node:7765177512","kind":"peak","name":"Brenterød","lat":60.0681808,"lon":10.6767848,"elevationM":381},{"id":"node:7765177513","kind":"peak","name":"Smalstrømhøgda","lat":60.0791861,"lon":10.6829421,"elevationM":420},{"id":"node:7767801661","kind":"peak","name":"Presterudhaugen","lat":60.0004861,"lon":10.6608222,"elevationM":null},{"id":"node:7780308818","kind":"peak","name":"Linfåningshøgda","lat":60.0711407,"lon":10.8600285,"elevationM":328},{"id":"node:7780308864","kind":"peak","name":"Strømskollen","lat":60.0796888,"lon":10.8598915,"elevationM":340},{"id":"node:7794120829","kind":"peak","name":"Tøyenhøgda","lat":60.1286177,"lon":10.8743647,"elevationM":450},{"id":"node:7815166675","kind":"peak","name":"Åbortjernhøgda","lat":60.0521727,"lon":10.6954064,"elevationM":413},{"id":"node:7815166676","kind":"peak","name":"Rådalshøgda","lat":60.0645174,"lon":10.6913346,"elevationM":459},{"id":"node:7816482278","kind":"peak","name":"Hakklomana","lat":60.0842396,"lon":10.6878573,"elevationM":458},{"id":"node:7816482279","kind":"peak","name":"Hakklomana","lat":60.082575,"lon":10.6910167,"elevationM":null},{"id":"node:7816482280","kind":"peak","name":"Falkeberget","lat":60.0900383,"lon":10.6893211,"elevationM":462},{"id":"node:7816482282","kind":"peak","name":"Alethaugen","lat":60.1221557,"lon":10.7401221,"elevationM":399},{"id":"node:7859219708","kind":"peak","name":"Ramndalskollen","lat":60.0849726,"lon":10.9096088,"elevationM":305},{"id":"node:7859219709","kind":"peak","name":"Rundkollen","lat":60.1653346,"lon":10.7926537,"elevationM":592},{"id":"node:7859219710","kind":"peak","name":"Blekketjernhøgda","lat":60.177438,"lon":10.7821824,"elevationM":613},{"id":"node:7859219711","kind":"peak","name":"Puttehøgda","lat":60.1881235,"lon":10.7605638,"elevationM":648},{"id":"node:7859219712","kind":"peak","name":"Kroktjernsberget","lat":60.1749302,"lon":10.7631494,"elevationM":651},{"id":"node:7859219713","kind":"peak","name":"Svartberget","lat":60.1683182,"lon":10.7579352,"elevationM":594},{"id":"node:7859219714","kind":"peak","name":"Varpkollen","lat":60.1602225,"lon":10.7812202,"elevationM":520},{"id":"node:7859277851","kind":"peak","name":"Trehørningsbrenna","lat":60.099925,"lon":10.7259722,"elevationM":null},{"id":"node:7859284407","kind":"peak","name":"Måsjøhaugen","lat":60.1165194,"lon":10.7122833,"elevationM":439},{"id":"node:7859466079","kind":"peak","name":"Garden","lat":60.0711947,"lon":10.7698828,"elevationM":452},{"id":"node:7859584180","kind":"peak","name":"Båhushøgda","lat":60.0204488,"lon":10.7424617,"elevationM":null},{"id":"node:7862028820","kind":"peak","name":"Kamphaugåsen","lat":60.0304045,"lon":10.7202452,"elevationM":null},{"id":"node:7862028821","kind":"peak","name":"Sagåsen","lat":60.0193143,"lon":10.7312474,"elevationM":null},{"id":"node:7862028822","kind":"peak","name":"Sagåsen","lat":60.0220677,"lon":10.7341995,"elevationM":null},{"id":"node:7862213289","kind":"peak","name":"Damputthøgda","lat":60.0571028,"lon":10.7914417,"elevationM":468},{"id":"node:7862778172","kind":"peak","name":"Kvehøgda","lat":60.064166,"lon":10.726351,"elevationM":null},{"id":"node:7862778181","kind":"peak","name":"Kalvsjøhøgda","lat":60.0651278,"lon":10.7479028,"elevationM":442},{"id":"node:7862778182","kind":"peak","name":"Nilsehaugen","lat":60.0632354,"lon":10.745274,"elevationM":null},{"id":"node:7862778183","kind":"peak","name":"Gørjehøgda","lat":60.0664219,"lon":10.7378958,"elevationM":490},{"id":"node:7863586180","kind":"peak","name":"Øyvannsås","lat":60.0536087,"lon":10.6283051,"elevationM":474},{"id":"node:7863586181","kind":"peak","name":"Svartberget","lat":60.0431351,"lon":10.6123478,"elevationM":null},{"id":"node:7865811583","kind":"peak","name":"Raudløkkollen","lat":60.0514306,"lon":10.7583126,"elevationM":479},{"id":"node:7866191841","kind":"peak","name":"Ospetjernshøgda","lat":60.0589972,"lon":10.797525,"elevationM":null},{"id":"node:7866450445","kind":"peak","name":"Storhaugen","lat":60.0431466,"lon":10.7007807,"elevationM":421},{"id":"node:7869495694","kind":"peak","name":"Kobberhaugene","lat":60.0415669,"lon":10.6748164,"elevationM":518},{"id":"node:7870883453","kind":"peak","name":"Fyllingskollen","lat":60.0622417,"lon":10.6332583,"elevationM":null},{"id":"node:7870883454","kind":"peak","name":"Middagskollen","lat":60.0613389,"lon":10.6320586,"elevationM":468},{"id":"node:7870883455","kind":"peak","name":"Tjuvdalshøgda","lat":60.0598083,"lon":10.6281806,"elevationM":null},{"id":"node:7872966466","kind":"peak","name":"Lautås","lat":60.0413333,"lon":10.6521361,"elevationM":null},{"id":"node:7872966473","kind":"peak","name":"Appelsinhaugen","lat":60.0433291,"lon":10.6590775,"elevationM":462},{"id":"node:7872966474","kind":"peak","name":"Appelsinhaugen","lat":60.044385,"lon":10.6634257,"elevationM":468},{"id":"node:7873453987","kind":"peak","name":"Barlindhaugen","lat":60.024021,"lon":10.6704725,"elevationM":392},{"id":"node:7873568320","kind":"peak","name":"Seterkollen","lat":60.0238298,"lon":10.6411592,"elevationM":360},{"id":"node:7877327725","kind":"peak","name":"Storfjell","lat":60.0352484,"lon":10.6238089,"elevationM":434},{"id":"node:7877327728","kind":"peak","name":"Grasdalsberget","lat":60.0356111,"lon":10.6289278,"elevationM":null},{"id":"node:7911123301","kind":"peak","name":"Sandermosåsen","lat":60.0131104,"lon":10.8034826,"elevationM":254},{"id":"node:7911123302","kind":"peak","name":"Sandermosåsen","lat":60.0116303,"lon":10.8000567,"elevationM":260},{"id":"node:7935472830","kind":"peak","name":"Tonåsen","lat":60.0104294,"lon":10.5724412,"elevationM":368},{"id":"node:7935472831","kind":"peak","name":"Brånan","lat":60.0042263,"lon":10.5740149,"elevationM":404},{"id":"node:7935472835","kind":"peak","name":"Hvitsteinåsen","lat":60.0070401,"lon":10.5335189,"elevationM":408},{"id":"node:7935472836","kind":"peak","name":"Hvitsteinåsen","lat":60.0071789,"lon":10.5293244,"elevationM":408},{"id":"node:7935700427","kind":"peak","name":"Galmyråsen","lat":60.0035404,"lon":10.5902572,"elevationM":367},{"id":"node:7935738394","kind":"peak","name":"Myrerkollen","lat":60.0914555,"lon":10.9006312,"elevationM":295},{"id":"node:7935780053","kind":"peak","name":"Lønnåshøgda","lat":60.0064058,"lon":10.5837439,"elevationM":390},{"id":"node:7944213049","kind":"peak","name":"Lomås","lat":60.017096,"lon":10.5115069,"elevationM":407},{"id":"node:7946078355","kind":"peak","name":"Heikampen","lat":60.0646698,"lon":10.6049153,"elevationM":572},{"id":"node:7946078356","kind":"peak","name":"Heikampen","lat":60.0640602,"lon":10.6036424,"elevationM":569},{"id":"node:7946201998","kind":"peak","name":"Larvikåsen","lat":60.0437877,"lon":10.5791262,"elevationM":null},{"id":"node:7946201999","kind":"peak","name":"Orrhaneberget","lat":60.0468945,"lon":10.5791667,"elevationM":454},{"id":"node:7946202625","kind":"peak","name":"Lønnehaugen","lat":60.0342171,"lon":10.5713444,"elevationM":null},{"id":"node:7946202650","kind":"peak","name":"Løkeberg","lat":60.0381417,"lon":10.5856056,"elevationM":328},{"id":"node:7946349072","kind":"peak","name":"Andtjernåsen","lat":60.0475411,"lon":10.5716197,"elevationM":null},{"id":"node:7946357032","kind":"peak","name":"Moliksåsen","lat":60.0626386,"lon":10.5718055,"elevationM":null},{"id":"node:7946357033","kind":"peak","name":"Moliksåsen","lat":60.0567789,"lon":10.5772453,"elevationM":522},{"id":"node:7947150331","kind":"peak","name":"Steinbrotet","lat":60.0473366,"lon":10.5917577,"elevationM":404},{"id":"node:7947359385","kind":"peak","name":"Furuberget","lat":60.0352595,"lon":10.524649,"elevationM":501},{"id":"node:7947359386","kind":"peak","name":"Kuskallen","lat":60.0339186,"lon":10.5309436,"elevationM":494},{"id":"node:7947359387","kind":"peak","name":"Stuteskallen","lat":60.0365937,"lon":10.5380874,"elevationM":494},{"id":"node:7947359388","kind":"peak","name":"Søndre Otertjernsås","lat":60.0411053,"lon":10.5354734,"elevationM":531},{"id":"node:7947359389","kind":"peak","name":"Damåsen","lat":60.0481809,"lon":10.5465706,"elevationM":458},{"id":"node:7947359390","kind":"peak","name":"Damåsen","lat":60.0481944,"lon":10.5451639,"elevationM":null},{"id":"node:7947578165","kind":"peak","name":"Høghaugen","lat":60.023224,"lon":10.5439763,"elevationM":306},{"id":"node:7948440623","kind":"peak","name":"Hvileberget","lat":60.0380578,"lon":10.5576271,"elevationM":309},{"id":"node:7949111770","kind":"peak","name":"Teigåsen","lat":60.0420595,"lon":10.5902704,"elevationM":null},{"id":"node:7949111771","kind":"peak","name":"Bukkeberget","lat":60.023176,"lon":10.6023981,"elevationM":197},{"id":"node:7949111772","kind":"peak","name":"Væla","lat":60.0279228,"lon":10.5984881,"elevationM":254},{"id":"node:7949111773","kind":"peak","name":"Hamnås","lat":60.0352228,"lon":10.5922572,"elevationM":null},{"id":"node:7949111774","kind":"peak","name":"Storhaug","lat":60.0380835,"lon":10.5945126,"elevationM":null},{"id":"node:7949111776","kind":"peak","name":"Pipenhusåsen","lat":60.0299528,"lon":10.6063583,"elevationM":null},{"id":"node:7949111777","kind":"peak","name":"Tonåsen","lat":60.0326028,"lon":10.5980139,"elevationM":287},{"id":"node:7955016387","kind":"peak","name":"Gransberget","lat":60.0238238,"lon":10.5915211,"elevationM":207},{"id":"node:7955993637","kind":"peak","name":"Kulpåsen","lat":60.0204998,"lon":10.5541514,"elevationM":249},{"id":"node:7964972963","kind":"peak","name":"Danielshøgda","lat":60.0161186,"lon":10.490114,"elevationM":505},{"id":"node:8060430452","kind":"peak","name":"Vangshøgda","lat":60.1905928,"lon":10.5632459,"elevationM":null},{"id":"node:8072450968","kind":"peak","name":"Svehøgda","lat":60.9587982,"lon":10.8180785,"elevationM":585},{"id":"node:8231008040","kind":"peak","name":"Vindfallåsen","lat":60.0038972,"lon":10.1491261,"elevationM":465},{"id":"node:8671558515","kind":"peak","name":"Svartbråtåberget","lat":60.3561139,"lon":10.6417278,"elevationM":701},{"id":"node:8671939188","kind":"peak","name":"Tungeåsen","lat":60.3985889,"lon":10.19255,"elevationM":null},{"id":"node:8671939189","kind":"peak","name":"Bjørnsjøhøgda","lat":60.4069194,"lon":10.2432195,"elevationM":448},{"id":"node:8672055688","kind":"peak","name":"Vardhugukollen","lat":60.5245704,"lon":10.1548988,"elevationM":null},{"id":"node:8672527006","kind":"peak","name":"Hengedyhaugen","lat":60.4686472,"lon":10.6197972,"elevationM":null},{"id":"node:8773831543","kind":"peak","name":"Åvellhaugen","lat":60.7812958,"lon":10.0954644,"elevationM":621},{"id":"node:9026114484","kind":"peak","name":"Kustein","lat":60.0675798,"lon":10.4671104,"elevationM":609},{"id":"node:9088588433","kind":"peak","name":"Venholhøgda","lat":60.8365278,"lon":10.3640639,"elevationM":null},{"id":"node:9176536527","kind":"peak","name":"Høgbakkhaugen","lat":60.9036896,"lon":10.5731714,"elevationM":653},{"id":"node:9176536539","kind":"peak","name":"Vardhaugen","lat":60.9028548,"lon":10.5815184,"elevationM":634},{"id":"node:9208349469","kind":"peak","name":"Tveitmarkhøgda","lat":60.2629103,"lon":10.6822407,"elevationM":null},{"id":"node:9208357127","kind":"peak","name":"Milsteinhagahaugen","lat":60.2572528,"lon":10.6846976,"elevationM":null},{"id":"node:9208362489","kind":"peak","name":"Storvasshaugen","lat":60.2536758,"lon":10.8009338,"elevationM":null},{"id":"node:9208372158","kind":"peak","name":"Rundhaug","lat":60.2422076,"lon":10.8084655,"elevationM":null},{"id":"node:9208379136","kind":"peak","name":"Blekketjernhøgda","lat":60.2224881,"lon":10.8730316,"elevationM":569},{"id":"node:9208379137","kind":"peak","name":"Rudskampen","lat":60.222616,"lon":10.8617878,"elevationM":585},{"id":"node:9208392085","kind":"peak","name":"Katnoshøgda","lat":60.1717875,"lon":10.581851,"elevationM":574},{"id":"node:9960062216","kind":"peak","name":"Strandhøgda","lat":60.5319445,"lon":10.6019472,"elevationM":null},{"id":"node:10050580316","kind":"peak","name":"Åboråsen","lat":60.0375042,"lon":10.3070834,"elevationM":547},{"id":"node:10908096452","kind":"peak","name":"Marivollhøgda","lat":60.480475,"lon":10.1325694,"elevationM":null},{"id":"node:11085794824","kind":"peak","name":"Gudbrandsås","lat":60.1821468,"lon":10.4070219,"elevationM":null},{"id":"node:11085818287","kind":"peak","name":"Veslefjell","lat":60.1613943,"lon":10.3976744,"elevationM":null},{"id":"node:11104153719","kind":"peak","name":"Kampen","lat":60.3121778,"lon":10.7475639,"elevationM":null},{"id":"node:11160101093","kind":"peak","name":"Samsjøberga","lat":60.3728167,"lon":10.2293472,"elevationM":null},{"id":"node:11160117729","kind":"peak","name":"Riggesteinhøgda","lat":60.3627695,"lon":10.2923388,"elevationM":null},{"id":"node:11161114671","kind":"peak","name":"Geithaugen","lat":60.2283926,"lon":10.7161763,"elevationM":null},{"id":"node:11162290961","kind":"peak","name":"Langvassbrenna","lat":60.2005361,"lon":10.4668633,"elevationM":null},{"id":"node:11162290963","kind":"peak","name":"Brannen","lat":60.1990722,"lon":10.4641611,"elevationM":null},{"id":"node:11162299992","kind":"peak","name":"Svarttjernshøgda","lat":60.2212639,"lon":10.5022527,"elevationM":717},{"id":"node:11165702430","kind":"peak","name":"Ultvetåsen","lat":60.1444584,"lon":10.3207621,"elevationM":null},{"id":"node:11165702432","kind":"peak","name":"Dilsåsen","lat":60.143441,"lon":10.3326738,"elevationM":209},{"id":"node:11165702433","kind":"peak","name":"Langdalsrabben","lat":60.1486328,"lon":10.3428487,"elevationM":244},{"id":"node:11165702434","kind":"peak","name":"Trehørningsåsen","lat":60.1455213,"lon":10.345704,"elevationM":200},{"id":"node:11455133484","kind":"peak","name":"Skinnskattberget","lat":60.1336258,"lon":10.6802908,"elevationM":550},{"id":"node:11455133492","kind":"peak","name":"Lushaugen","lat":60.4307168,"lon":10.6873772,"elevationM":812},{"id":"node:11650638219","kind":"peak","name":"Tjuvåskampen","lat":60.5669142,"lon":10.8989038,"elevationM":812},{"id":"node:13229921210","kind":"peak","name":"Bastiantoppen","lat":60.5113043,"lon":10.921834,"elevationM":599},{"id":"node:13324905322","kind":"peak","name":"Bjønnryggen","lat":60.1624152,"lon":10.8288449,"elevationM":null},{"id":"node:13324905456","kind":"peak","name":"Kirkeberget","lat":60.162351,"lon":10.8299104,"elevationM":529}]}