{"tileKey":"la_p52_lo_m176","version":"v1-1775891056926","entries":[{"id":"node:11445329658","kind":"peak","name":"Qaaga","lat":52.0112267,"lon":-175.3067932,"elevationM":null},{"id":"node:11657370750","kind":"peak","name":"Ikiidaga","lat":52.0443832,"lon":-175.0682216,"elevationM":459},{"id":"node:11657370761","kind":"peak","name":"Qanglaagis","lat":52.0242222,"lon":-175.285564,"elevationM":116},{"id":"node:11657409273","kind":"peak","name":"Kiiguusim Hitzaaguu","lat":52.2237729,"lon":-175.1318409,"elevationM":260},{"id":"node:11657409277","kind":"peak","name":"Qanglaagis Kiiguucha","lat":52.0287056,"lon":-175.1978342,"elevationM":419}]}