{"tileKey":"la_p29_lo_p96","version":"v1-1775891056926","entries":[{"id":"node:2137450642","kind":"peak","name":"宗松仓拉","lat":29.5438075,"lon":96.086428,"elevationM":null},{"id":"node:2137450697","kind":"peak","name":"那母拉","lat":29.5703899,"lon":96.0526632,"elevationM":null},{"id":"node:6052906178","kind":"peak","name":"白日嘎","lat":29.1664673,"lon":96.7220831,"elevationM":6882},{"id":"node:9379745926","kind":"peak","name":"埂日嘎布","lat":29.5625093,"lon":96.0023164,"elevationM":null},{"id":"node:9379745936","kind":"peak","name":"波木卡玛","lat":29.5820826,"lon":96.0378094,"elevationM":null},{"id":"node:9501167809","kind":"peak","name":"格尼岗日","lat":29.617739,"lon":96.0560759,"elevationM":6347},{"id":"node:9501171132","kind":"peak","name":"德鲁婆拉","lat":29.6541153,"lon":96.0404229,"elevationM":6343},{"id":"node:9571588101","kind":"peak","name":"哈莫贡嘎（Hamokongga）","lat":29.4056243,"lon":96.5829385,"elevationM":6260},{"id":"node:9571627592","kind":"peak","name":"洛布青峰","lat":29.2021551,"lon":96.6951859,"elevationM":6805},{"id":"node:9571629246","kind":"peak","name":"格尼库孜峰","lat":29.4012985,"lon":96.4463636,"elevationM":6220},{"id":"node:9571642051","kind":"peak","name":"格尼峰（杰龙巴）","lat":29.1982986,"lon":96.9685315,"elevationM":6177},{"id":"node:9572192405","kind":"peak","name":"阿拉岗日","lat":29.1321289,"lon":96.8792994,"elevationM":5760},{"id":"node:9573120827","kind":"peak","name":"滚多曲巴四滚","lat":29.6862029,"lon":96.1130898,"elevationM":5917},{"id":"node:9573604297","kind":"peak","name":"波崩宗（拥珠群培）","lat":29.6594062,"lon":96.1435322,"elevationM":5859},{"id":"node:9573757889","kind":"peak","name":"岗亚打（Gangyada）","lat":29.3240624,"lon":96.6079642,"elevationM":6423},{"id":"node:9573799668","kind":"peak","name":"岗日噶布拉峰（Gemsong）","lat":29.3904402,"lon":96.4948586,"elevationM":6525},{"id":"node:9573847621","kind":"peak","name":"则和峰（Zeh）","lat":29.3371843,"lon":96.6166323,"elevationM":6127},{"id":"node:9573855524","kind":"peak","name":"Noi峰","lat":29.391391,"lon":96.5192056,"elevationM":6377},{"id":"node:9907311594","kind":"peak","name":"Pongle","lat":29.2456056,"lon":96.9080683,"elevationM":5770},{"id":"node:13147135332","kind":"peak","name":"戛公","lat":29.042098,"lon":96.3657996,"elevationM":null},{"id":"node:13147622807","kind":"peak","name":"下祝隆","lat":29.0019279,"lon":96.3839354,"elevationM":null},{"id":"node:13148718863","kind":"peak","name":"多尔山","lat":29.1914136,"lon":96.0760132,"elevationM":null},{"id":"node:13185495241","kind":"peak","name":"布孔","lat":29.4770181,"lon":96.083468,"elevationM":null},{"id":"node:13197340761","kind":"peak","name":"冬珠","lat":29.0739208,"lon":96.4172719,"elevationM":null},{"id":"node:13283102482","kind":"peak","name":"菠同","lat":29.4801638,"lon":96.17395,"elevationM":null},{"id":"node:13285199351","kind":"peak","name":"贡扎","lat":29.4739619,"lon":96.2519819,"elevationM":null},{"id":"node:13285199365","kind":"peak","name":"下琼崩拉","lat":29.1561984,"lon":96.3358278,"elevationM":null},{"id":"node:13285199368","kind":"peak","name":"阁夏拉日","lat":29.274506,"lon":96.4903069,"elevationM":null},{"id":"node:13285199369","kind":"peak","name":"布格日","lat":29.1931417,"lon":96.4436758,"elevationM":null},{"id":"node:13285199370","kind":"peak","name":"鲁屯康","lat":29.1951318,"lon":96.4570239,"elevationM":null},{"id":"node:13285199372","kind":"peak","name":"决孔","lat":29.1177859,"lon":96.4115779,"elevationM":null},{"id":"node:13285199373","kind":"peak","name":"伙扎嘎崩惹","lat":29.1048718,"lon":96.3864426,"elevationM":null},{"id":"node:13285199376","kind":"peak","name":"各么下那仁宗","lat":29.0825823,"lon":96.4334162,"elevationM":null},{"id":"node:13285199386","kind":"peak","name":"滚堆","lat":29.1251172,"lon":96.5549987,"elevationM":null},{"id":"node:13285199391","kind":"peak","name":"卡达仁宗","lat":29.0158217,"lon":96.4433015,"elevationM":null},{"id":"node:13344526253","kind":"peak","name":"色孔日","lat":29.2179535,"lon":96.3992025,"elevationM":null}]}