{"tileKey":"la_p42_lo_m8","version":"v1-1775891056926","entries":[{"id":"node:26862883","kind":"peak","name":"Formigueiros","lat":42.6056965,"lon":-7.0998659,"elevationM":null},{"id":"node:469990507","kind":"peak","name":"O Alto de San Roque","lat":42.6986521,"lon":-7.0838157,"elevationM":1260},{"id":"node:575740279","kind":"peak","name":"O Picouto","lat":42.3508496,"lon":-7.114413,"elevationM":null},{"id":"node:575740525","kind":"peak","name":"A Cabeciña","lat":42.266392,"lon":-7.0822006,"elevationM":null},{"id":"node:575760173","kind":"peak","name":"Alto da Fraga da Cerva","lat":42.4465914,"lon":-7.12985,"elevationM":null},{"id":"node:575957719","kind":"peak","name":"A Cabeza Grande","lat":42.6284265,"lon":-7.062164,"elevationM":1517},{"id":"node:576767415","kind":"peak","name":"Alto de Baldriz","lat":42.0363972,"lon":-7.5187126,"elevationM":null},{"id":"node:576825530","kind":"peak","name":"Chairas de Fardán","lat":42.1898949,"lon":-7.4645031,"elevationM":1504},{"id":"node:576825627","kind":"peak","name":"Alto das Cancelas","lat":42.2299528,"lon":-7.4647255,"elevationM":1409},{"id":"node:576908171","kind":"peak","name":"Alto do Val do Castelo","lat":42.4779664,"lon":-7.0898423,"elevationM":null},{"id":"node:576908175","kind":"peak","name":"A Cruz das Chas","lat":42.472457,"lon":-7.0933385,"elevationM":null},{"id":"node:576908185","kind":"peak","name":"Alto do Pedriño","lat":42.4585772,"lon":-7.1000084,"elevationM":null},{"id":"node:576943953","kind":"peak","name":"As Fragas de Outacín","lat":42.2008394,"lon":-7.1987925,"elevationM":null},{"id":"node:576944032","kind":"peak","name":"A Pedra do Coello","lat":42.2318498,"lon":-7.0789766,"elevationM":null},{"id":"node:577077289","kind":"peak","name":"Alto do Rebouzo","lat":42.0660844,"lon":-7.2566857,"elevationM":null},{"id":"node:577077618","kind":"peak","name":"Penedos da Moura","lat":42.3063729,"lon":-7.6918854,"elevationM":781},{"id":"node:577080247","kind":"peak","name":"Alto Souto do Rei","lat":42.0145888,"lon":-7.4464977,"elevationM":null},{"id":"node:577080328","kind":"peak","name":"Alto do Corgo","lat":42.0377396,"lon":-7.3977002,"elevationM":null},{"id":"node:577080702","kind":"peak","name":"Alto do Sabugal","lat":42.1721662,"lon":-7.4642826,"elevationM":1452},{"id":"node:577127083","kind":"peak","name":"O Alto de Valongo","lat":42.070328,"lon":-7.2756154,"elevationM":1161},{"id":"node:792343473","kind":"peak","name":"Pico do Páramo","lat":42.8072983,"lon":-7.4983801,"elevationM":877},{"id":"node:869434426","kind":"peak","name":"Monte Segade","lat":42.9992537,"lon":-7.5897485,"elevationM":454},{"id":"node:877542757","kind":"peak","name":"A Croa","lat":42.9835539,"lon":-7.5571514,"elevationM":469},{"id":"node:883517436","kind":"peak","name":"A Cabeza Grande","lat":42.2569501,"lon":-7.2980422,"elevationM":1781},{"id":"node:948406090","kind":"peak","name":"A Pena da Cruz","lat":42.3316407,"lon":-7.4031546,"elevationM":1289},{"id":"node:948406969","kind":"peak","name":"O Seixo","lat":42.1942963,"lon":-7.3576653,"elevationM":1706},{"id":"node:948407829","kind":"peak","name":"O Bidual","lat":42.4380019,"lon":-7.453805,"elevationM":816},{"id":"node:948407945","kind":"peak","name":"Penedos","lat":42.1841133,"lon":-7.1414245,"elevationM":960},{"id":"node:948408599","kind":"peak","name":"Meda","lat":42.3500074,"lon":-7.6104423,"elevationM":1316},{"id":"node:948408662","kind":"peak","name":"Pía Paxaro","lat":42.579894,"lon":-7.1439979,"elevationM":1610},{"id":"node:1250016973","kind":"peak","name":"Pico Grande","lat":42.6361914,"lon":-7.0380807,"elevationM":null},{"id":"node:1250017358","kind":"peak","name":"Pena do Mar de Arriba","lat":42.5622147,"lon":-7.0572252,"elevationM":null},{"id":"node:1250020154","kind":"peak","name":"A Paleira","lat":42.5579458,"lon":-7.0476736,"elevationM":null},{"id":"node:1250020967","kind":"peak","name":"Pico da Trousada","lat":42.5810871,"lon":-7.0259918,"elevationM":null},{"id":"node:1250021245","kind":"peak","name":"Castillo del Cubo","lat":42.5244996,"lon":-7.0060069,"elevationM":null},{"id":"node:1250021785","kind":"peak","name":"Ataín","lat":42.5410133,"lon":-7.0629125,"elevationM":null},{"id":"node:1250023539","kind":"peak","name":"Cerro de Prado Abedul","lat":42.5039863,"lon":-7.0324736,"elevationM":null},{"id":"node:1250029437","kind":"peak","name":"Cogoluda","lat":42.5849673,"lon":-7.0301102,"elevationM":null},{"id":"node:1250029756","kind":"peak","name":"Pico da Travesa","lat":42.5589953,"lon":-7.0558999,"elevationM":null},{"id":"node:1250031367","kind":"peak","name":"Lastredo de Mazais","lat":42.5533295,"lon":-7.0627264,"elevationM":null},{"id":"node:1250032483","kind":"peak","name":"Pico da Cova da Vella","lat":42.5830682,"lon":-7.0348861,"elevationM":null},{"id":"node:1250033577","kind":"peak","name":"Covallo de Escurela","lat":42.5098579,"lon":-7.0293316,"elevationM":null},{"id":"node:1250037668","kind":"peak","name":"Os Tornos","lat":42.5185414,"lon":-7.0675149,"elevationM":null},{"id":"node:1250039150","kind":"peak","name":"O Turrieiro","lat":42.5054941,"lon":-7.0009764,"elevationM":1612},{"id":"node:1304105554","kind":"peak","name":"Pena Carballosa","lat":42.5629524,"lon":-7.9374165,"elevationM":null},{"id":"node:1304105607","kind":"peak","name":"O Serro","lat":42.3063501,"lon":-7.1027578,"elevationM":null},{"id":"node:1304105660","kind":"peak","name":"Cabeza Grande","lat":42.7081944,"lon":-7.1426218,"elevationM":null},{"id":"node:1304105784","kind":"peak","name":"A Pena da Hedra","lat":42.8021771,"lon":-7.1580221,"elevationM":null},{"id":"node:1304105858","kind":"peak","name":"Alto da Boucisca","lat":42.425658,"lon":-7.0778555,"elevationM":null},{"id":"node:1304105896","kind":"peak","name":"Pena de Santa Engracia","lat":42.2899292,"lon":-7.3806338,"elevationM":null},{"id":"node:1304105905","kind":"peak","name":"Pico do Coto","lat":42.6008015,"lon":-7.1793607,"elevationM":null},{"id":"node:1304106041","kind":"peak","name":"Alto das Veigas Longas","lat":42.22768,"lon":-7.2453464,"elevationM":1477},{"id":"node:1304106344","kind":"peak","name":"As Chairas de Maceda","lat":42.2580173,"lon":-7.3147484,"elevationM":null},{"id":"node:1304106355","kind":"peak","name":"A Coroa","lat":42.7648858,"lon":-7.1346706,"elevationM":null},{"id":"node:1304106383","kind":"peak","name":"Pena do Ouroso","lat":42.5681108,"lon":-7.0810983,"elevationM":null},{"id":"node:1304106395","kind":"peak","name":"Alto do Pendón","lat":42.2091978,"lon":-7.1539969,"elevationM":null},{"id":"node:1304106596","kind":"peak","name":"Pena Lamela","lat":42.7337161,"lon":-7.0383584,"elevationM":null},{"id":"node:1304106634","kind":"peak","name":"Alto da Fornosiña","lat":42.1957051,"lon":-7.4845475,"elevationM":1531},{"id":"node:1304106660","kind":"peak","name":"O Penouco","lat":42.5664395,"lon":-7.069545,"elevationM":null},{"id":"node:1304106669","kind":"peak","name":"Alto do Candal","lat":42.0605526,"lon":-7.3353527,"elevationM":null},{"id":"node:1304107028","kind":"peak","name":"O Castro","lat":42.1839676,"lon":-7.7528093,"elevationM":null},{"id":"node:1304107042","kind":"peak","name":"A Espenuca","lat":42.3165698,"lon":-7.0351288,"elevationM":null},{"id":"node:1304107549","kind":"peak","name":"Pico do Polvoreiro","lat":42.7153814,"lon":-7.241963,"elevationM":null},{"id":"node:1304107621","kind":"peak","name":"Alto da Abada","lat":42.2812662,"lon":-7.1335483,"elevationM":null},{"id":"node:1304107748","kind":"peak","name":"Alto de Casteloais","lat":42.2839243,"lon":-7.3903811,"elevationM":null},{"id":"node:1304107765","kind":"peak","name":"A Pena Redonda","lat":42.6395447,"lon":-7.0309253,"elevationM":null},{"id":"node:1304107801","kind":"peak","name":"O Pico de San Bernabé","lat":42.2407561,"lon":-7.0963385,"elevationM":1226},{"id":"node:1304108051","kind":"peak","name":"Alto das Bouzas","lat":42.181558,"lon":-7.463671,"elevationM":1451},{"id":"node:1304108281","kind":"peak","name":"Pena Asureira","lat":42.68579,"lon":-7.1818065,"elevationM":null},{"id":"node:1304108443","kind":"peak","name":"A Coriscada","lat":42.2350497,"lon":-7.5042207,"elevationM":null},{"id":"node:1304108467","kind":"peak","name":"A Torca","lat":42.5195932,"lon":-7.149753,"elevationM":null},{"id":"node:1304108481","kind":"peak","name":"Alto dos Filgueiros","lat":42.0432511,"lon":-7.4604353,"elevationM":null},{"id":"node:1304108636","kind":"peak","name":"O Picouto","lat":42.507047,"lon":-7.9212508,"elevationM":null},{"id":"node:1304108784","kind":"peak","name":"Alto da Outar Pedroso","lat":42.295943,"lon":-7.1592389,"elevationM":null},{"id":"node:1304108875","kind":"peak","name":"O Picón","lat":42.6556882,"lon":-7.0354666,"elevationM":null},{"id":"node:1304109007","kind":"peak","name":"O Castro","lat":42.1926451,"lon":-7.0644224,"elevationM":null},{"id":"node:1304109212","kind":"peak","name":"Penas da Arqueira","lat":42.7955932,"lon":-7.0553611,"elevationM":1118},{"id":"node:1304109256","kind":"peak","name":"Toco do Lobo","lat":42.262495,"lon":-7.0821796,"elevationM":null},{"id":"node:1304109472","kind":"peak","name":"Alto dos Toleiros","lat":42.2486602,"lon":-7.3123066,"elevationM":null},{"id":"node:1304109596","kind":"peak","name":"A Cabeza Grande","lat":42.1016636,"lon":-7.1612318,"elevationM":null},{"id":"node:1304109750","kind":"peak","name":"Valilongo","lat":42.2954419,"lon":-7.3103039,"elevationM":null},{"id":"node:1304109836","kind":"peak","name":"Teso dos Garbanzos","lat":42.7182351,"lon":-7.1287882,"elevationM":null},{"id":"node:1304109852","kind":"peak","name":"As Queimadas","lat":42.2642112,"lon":-7.7256697,"elevationM":null},{"id":"node:1304109956","kind":"peak","name":"Alto do Cabreiro","lat":42.5030136,"lon":-7.112197,"elevationM":null},{"id":"node:1304109970","kind":"peak","name":"Alto das Petadiñas","lat":42.2413787,"lon":-7.1749844,"elevationM":null},{"id":"node:1304110164","kind":"peak","name":"O Cabezo","lat":42.3225775,"lon":-7.1314925,"elevationM":null},{"id":"node:1304110373","kind":"peak","name":"O Pico","lat":42.4087784,"lon":-7.2000083,"elevationM":null},{"id":"node:1304110660","kind":"peak","name":"San Paio","lat":42.1715985,"lon":-7.8284671,"elevationM":null},{"id":"node:1304110691","kind":"peak","name":"O Franxón","lat":42.3300378,"lon":-7.0450702,"elevationM":null},{"id":"node:1304110836","kind":"peak","name":"Pena do Neboeiro","lat":42.662642,"lon":-7.5466611,"elevationM":null},{"id":"node:1304111201","kind":"peak","name":"Montemeao","lat":42.367225,"lon":-7.1754617,"elevationM":null},{"id":"node:1304111244","kind":"peak","name":"Torre de Muriscal","lat":42.8239883,"lon":-7.46953,"elevationM":null},{"id":"node:1304111283","kind":"peak","name":"Alto de Peneirexa","lat":42.2552172,"lon":-7.1428704,"elevationM":null},{"id":"node:1304111374","kind":"peak","name":"Cabeza da Lebre","lat":42.2719713,"lon":-7.4384372,"elevationM":null},{"id":"node:1304111402","kind":"peak","name":"A Burreira","lat":42.5649384,"lon":-7.1441018,"elevationM":null},{"id":"node:1304111567","kind":"peak","name":"Altos do Acevral","lat":42.208125,"lon":-7.3913382,"elevationM":null},{"id":"node:1304111581","kind":"peak","name":"Alto da Venta","lat":42.5059647,"lon":-7.0682799,"elevationM":null},{"id":"node:1304111650","kind":"peak","name":"O Pendón","lat":42.3571,"lon":-7.1736056,"elevationM":null},{"id":"node:1304111720","kind":"peak","name":"Pico do Corvo","lat":42.7308094,"lon":-7.1483962,"elevationM":1383},{"id":"node:1304111766","kind":"peak","name":"Penedo das Mozas","lat":42.2060056,"lon":-7.5048988,"elevationM":1557},{"id":"node:1304111784","kind":"peak","name":"Pico do Pozo","lat":42.5785125,"lon":-7.1439777,"elevationM":null},{"id":"node:1304111829","kind":"peak","name":"Alto das Corgas","lat":42.4275452,"lon":-7.1524152,"elevationM":null},{"id":"node:1304111880","kind":"peak","name":"O Pendón","lat":42.3183152,"lon":-7.1488842,"elevationM":null},{"id":"node:1304111948","kind":"peak","name":"O Mallón","lat":42.5950505,"lon":-7.1199386,"elevationM":null},{"id":"node:1304111965","kind":"peak","name":"O Castelo","lat":42.2172139,"lon":-7.1114557,"elevationM":null},{"id":"node:1304111981","kind":"peak","name":"A Picota de San Miguel","lat":42.4710735,"lon":-7.7312834,"elevationM":536},{"id":"node:1304111998","kind":"peak","name":"Alto dos Palleiros","lat":42.0576783,"lon":-7.3278262,"elevationM":null},{"id":"node:1304112117","kind":"peak","name":"Teso da Lama Figueiro","lat":42.8091634,"lon":-7.1420712,"elevationM":null},{"id":"node:1304112152","kind":"peak","name":"O Alto","lat":42.2622154,"lon":-7.1017879,"elevationM":null},{"id":"node:1304112457","kind":"peak","name":"A Pena Tallada","lat":42.047176,"lon":-7.2784156,"elevationM":null},{"id":"node:1304112731","kind":"peak","name":"As Pereiras","lat":42.2315927,"lon":-7.5057081,"elevationM":null},{"id":"node:1304112757","kind":"peak","name":"Picoto da Cova Ladrón","lat":42.5109553,"lon":-7.1017698,"elevationM":null},{"id":"node:1304112840","kind":"peak","name":"Alto do Navallino","lat":42.0449304,"lon":-7.3905197,"elevationM":null},{"id":"node:1304112903","kind":"peak","name":"Pena de Edra","lat":42.3963321,"lon":-7.0694239,"elevationM":null},{"id":"node:1304112920","kind":"peak","name":"O Cabezo","lat":42.2914459,"lon":-7.0587837,"elevationM":null},{"id":"node:1304113007","kind":"peak","name":"Pena do Pegureiro","lat":42.4774137,"lon":-7.2232971,"elevationM":null},{"id":"node:1304113228","kind":"peak","name":"Gandarela","lat":42.242438,"lon":-7.7968437,"elevationM":null},{"id":"node:1304113273","kind":"peak","name":"Rebordelo","lat":42.3204083,"lon":-7.0910987,"elevationM":null},{"id":"node:1304113408","kind":"peak","name":"Pena da Lama","lat":42.6540264,"lon":-7.5369674,"elevationM":717},{"id":"node:1304113496","kind":"peak","name":"Pena do Longo","lat":42.3997643,"lon":-7.1778238,"elevationM":null},{"id":"node:1304113813","kind":"peak","name":"Cabeciña","lat":42.2949281,"lon":-7.1754811,"elevationM":null},{"id":"node:1304113914","kind":"peak","name":"Laioso","lat":42.2539166,"lon":-7.2157187,"elevationM":null},{"id":"node:1304113936","kind":"peak","name":"Pico dos Corvos","lat":42.6031415,"lon":-7.0859409,"elevationM":null},{"id":"node:1304114073","kind":"peak","name":"Penedo do Simeón","lat":42.1858425,"lon":-7.4249743,"elevationM":null},{"id":"node:1304114337","kind":"peak","name":"A Cabeza de Pau","lat":42.3651254,"lon":-7.0666276,"elevationM":1219},{"id":"node:1304114405","kind":"peak","name":"Coto Concheiro","lat":42.2879313,"lon":-7.9731516,"elevationM":null},{"id":"node:1304114540","kind":"peak","name":"A Portela dos Muíños","lat":42.2512743,"lon":-7.2529234,"elevationM":null},{"id":"node:1304114560","kind":"peak","name":"A Lagúa","lat":42.5618591,"lon":-7.18371,"elevationM":null},{"id":"node:1304114685","kind":"peak","name":"Alto da Cabeza","lat":42.4186072,"lon":-7.1482415,"elevationM":null},{"id":"node:1304114813","kind":"peak","name":"Pico de Pinzas","lat":42.6206622,"lon":-7.1514928,"elevationM":null},{"id":"node:1304114851","kind":"peak","name":"Cabaluda","lat":42.5749867,"lon":-7.1750677,"elevationM":null},{"id":"node:1304114860","kind":"peak","name":"Alto da Pantasma","lat":42.0645701,"lon":-7.2804235,"elevationM":null},{"id":"node:1304114985","kind":"peak","name":"Penas da Sombra","lat":42.4466578,"lon":-7.0147655,"elevationM":null},{"id":"node:1304115231","kind":"peak","name":"Alto dos Canteiros","lat":42.0111648,"lon":-7.3668561,"elevationM":null},{"id":"node:1304115323","kind":"peak","name":"Alto da Coutada","lat":42.0252645,"lon":-7.3433277,"elevationM":null},{"id":"node:1304115598","kind":"peak","name":"Teixugueiras","lat":42.310473,"lon":-7.3654865,"elevationM":null},{"id":"node:1304115637","kind":"peak","name":"Pena do Viso","lat":42.6468187,"lon":-7.0801003,"elevationM":null},{"id":"node:1304115873","kind":"peak","name":"Alto das Cruces","lat":42.0625704,"lon":-7.4155157,"elevationM":null},{"id":"node:1304116430","kind":"peak","name":"Pena da Cabra","lat":42.7393515,"lon":-7.1594428,"elevationM":null},{"id":"node:1304116618","kind":"peak","name":"Alto das Arandeiras","lat":42.4447519,"lon":-7.3121694,"elevationM":null},{"id":"node:1304116926","kind":"peak","name":"Pena Bico","lat":42.5698672,"lon":-7.9295014,"elevationM":999},{"id":"node:1304116937","kind":"peak","name":"Pico da Labrada","lat":42.9166093,"lon":-7.0463542,"elevationM":null},{"id":"node:1304117066","kind":"peak","name":"O Castelo","lat":42.4150457,"lon":-7.4649112,"elevationM":null},{"id":"node:1304117130","kind":"peak","name":"Pico do Couto","lat":42.3128798,"lon":-7.0230353,"elevationM":null},{"id":"node:1304117311","kind":"peak","name":"Cabeza do Pico","lat":42.6766758,"lon":-7.077944,"elevationM":null},{"id":"node:1304117486","kind":"peak","name":"Alto dos Palleiros","lat":42.0556462,"lon":-7.3586232,"elevationM":null},{"id":"node:1304117793","kind":"peak","name":"Alto da Escrita","lat":42.3049876,"lon":-7.1838539,"elevationM":null},{"id":"node:1304117894","kind":"peak","name":"Monte do Penedo Negro","lat":42.217049,"lon":-7.5092496,"elevationM":null},{"id":"node:1304117980","kind":"peak","name":"Monzón","lat":42.2769823,"lon":-7.2657107,"elevationM":null},{"id":"node:1304118001","kind":"peak","name":"Pico de Cereixido","lat":42.6015478,"lon":-7.0592088,"elevationM":null},{"id":"node:1304118423","kind":"peak","name":"Alto do Monzón","lat":42.3777179,"lon":-7.0450216,"elevationM":null},{"id":"node:1304118663","kind":"peak","name":"Campo de San Xoán","lat":42.2562157,"lon":-7.1201866,"elevationM":null},{"id":"node:1304118689","kind":"peak","name":"O Penado da Porfía","lat":42.3025365,"lon":-7.3334211,"elevationM":null},{"id":"node:1304118716","kind":"peak","name":"Pena dos Picos","lat":42.5679233,"lon":-7.0871283,"elevationM":null},{"id":"node:1304118745","kind":"peak","name":"Alto da Chavea","lat":42.1900851,"lon":-7.1316282,"elevationM":931},{"id":"node:1304119214","kind":"peak","name":"Alto da Poza","lat":42.4837654,"lon":-7.0881017,"elevationM":null},{"id":"node:1304119434","kind":"peak","name":"A Mallada Nova","lat":42.5859962,"lon":-7.1373332,"elevationM":null},{"id":"node:1304119554","kind":"peak","name":"A Cogoluda","lat":42.5788261,"lon":-7.108107,"elevationM":null},{"id":"node:1304119583","kind":"peak","name":"Alto da Corga da Pantasma","lat":42.0687054,"lon":-7.2799251,"elevationM":null},{"id":"node:1304119834","kind":"peak","name":"O Pico","lat":42.3541501,"lon":-7.0250628,"elevationM":null},{"id":"node:1304120460","kind":"peak","name":"Elais","lat":42.2670604,"lon":-7.39583,"elevationM":null},{"id":"node:1304120483","kind":"peak","name":"Pico da Cabra","lat":42.5898924,"lon":-7.0718556,"elevationM":null},{"id":"node:1304120674","kind":"peak","name":"Alto da Cidadella","lat":42.0365155,"lon":-7.3838941,"elevationM":null},{"id":"node:1304120852","kind":"peak","name":"Montevelle","lat":42.2224392,"lon":-7.9542934,"elevationM":null},{"id":"node:1304120868","kind":"peak","name":"A Pena da Verdade","lat":42.7021009,"lon":-7.0633436,"elevationM":null},{"id":"node:1304120881","kind":"peak","name":"Coto de Áspera","lat":42.2916041,"lon":-7.8514268,"elevationM":null},{"id":"node:1304121079","kind":"peak","name":"Pico do Marco","lat":42.2235643,"lon":-7.2126793,"elevationM":null},{"id":"node:1304121096","kind":"peak","name":"Pico da Costa","lat":42.4577765,"lon":-7.483047,"elevationM":null},{"id":"node:1304121242","kind":"peak","name":"Pico do Castro","lat":42.8570493,"lon":-7.1216007,"elevationM":null},{"id":"node:1304121528","kind":"peak","name":"A Cruz do Covo","lat":42.242323,"lon":-7.4476891,"elevationM":null},{"id":"node:1304121550","kind":"peak","name":"Pena Golada","lat":42.7230386,"lon":-7.0427366,"elevationM":null},{"id":"node:1304121942","kind":"peak","name":"A Pena do Corgo","lat":42.8201939,"lon":-7.0737658,"elevationM":null},{"id":"node:1304122260","kind":"peak","name":"O Lombo das Chouzas","lat":42.2842851,"lon":-7.3373954,"elevationM":null},{"id":"node:1304122285","kind":"peak","name":"Pena das Aigas","lat":42.6277347,"lon":-7.0754008,"elevationM":null},{"id":"node:1304122603","kind":"peak","name":"O Alto do Castelo de Cerveira","lat":42.1978957,"lon":-7.3088136,"elevationM":null},{"id":"node:1304123161","kind":"peak","name":"Cotarón das Corgas dos Salgueiros","lat":42.1860338,"lon":-7.3747757,"elevationM":null},{"id":"node:1304123247","kind":"peak","name":"A Cabreira","lat":42.2745003,"lon":-7.7680635,"elevationM":null},{"id":"node:1304123388","kind":"peak","name":"Alto das Cabritas","lat":42.1946831,"lon":-7.459877,"elevationM":1457},{"id":"node:1304123421","kind":"peak","name":"Pena da Pala","lat":42.5807779,"lon":-7.0712593,"elevationM":null},{"id":"node:1304123461","kind":"peak","name":"Alto das Penelas","lat":42.2189007,"lon":-7.1631889,"elevationM":null},{"id":"node:1304123694","kind":"peak","name":"Alto dos Cavallais","lat":42.4495656,"lon":-7.0482479,"elevationM":null},{"id":"node:1304124168","kind":"peak","name":"Pena dos Cortillíns","lat":42.7326058,"lon":-7.0503797,"elevationM":null},{"id":"node:1304124342","kind":"peak","name":"O Penedo do Val","lat":42.5617756,"lon":-7.0751778,"elevationM":null},{"id":"node:1304124380","kind":"peak","name":"Alto de Mourixoso","lat":42.0044932,"lon":-7.3556519,"elevationM":null},{"id":"node:1304124790","kind":"peak","name":"A Forca","lat":42.2030748,"lon":-7.7458441,"elevationM":null},{"id":"node:1304124838","kind":"peak","name":"Alto de Cortiñas","lat":42.298586,"lon":-7.062568,"elevationM":null},{"id":"node:1304125053","kind":"peak","name":"Alto das Pedrosas","lat":42.0558686,"lon":-7.4344622,"elevationM":null},{"id":"node:1304125372","kind":"peak","name":"O Pico de Santa Irene","lat":42.7943027,"lon":-7.2606952,"elevationM":null},{"id":"node:1304125420","kind":"peak","name":"O Alto da Pena","lat":42.3647339,"lon":-7.0314711,"elevationM":null},{"id":"node:1304125436","kind":"peak","name":"Castro dos Bois","lat":42.2634626,"lon":-7.1219888,"elevationM":null},{"id":"node:1304125578","kind":"peak","name":"O Val Escuro","lat":42.2997679,"lon":-7.4295012,"elevationM":null},{"id":"node:1304125604","kind":"peak","name":"Pico da Lameira","lat":42.5975176,"lon":-7.0889044,"elevationM":null},{"id":"node:1304125875","kind":"peak","name":"O Xistral","lat":42.2150153,"lon":-7.4101111,"elevationM":null},{"id":"node:1304126475","kind":"peak","name":"O Teso da Cruz","lat":42.704608,"lon":-7.0478544,"elevationM":null},{"id":"node:1304126701","kind":"peak","name":"O Retorno","lat":42.2435444,"lon":-7.4865178,"elevationM":null},{"id":"node:1304126759","kind":"peak","name":"Pico da Serrada","lat":42.5139828,"lon":-7.0888725,"elevationM":null},{"id":"node:1304127439","kind":"peak","name":"Castelo de Requián","lat":42.3097759,"lon":-7.1410006,"elevationM":null},{"id":"node:1304127587","kind":"peak","name":"Alto de Murelos","lat":42.5838879,"lon":-7.1234793,"elevationM":null},{"id":"node:1304127649","kind":"peak","name":"O Xeixo","lat":42.1865499,"lon":-7.0448819,"elevationM":null},{"id":"node:1304127913","kind":"peak","name":"Alto de Busmaior","lat":42.7738338,"lon":-7.0270589,"elevationM":1249},{"id":"node:1304128048","kind":"peak","name":"O Outeiro Maior","lat":42.3259093,"lon":-7.3203215,"elevationM":null},{"id":"node:1304128334","kind":"peak","name":"Curro de Mormentelos","lat":42.2035525,"lon":-7.2435553,"elevationM":null},{"id":"node:1304128866","kind":"peak","name":"O Penedo dos Lobos","lat":42.270632,"lon":-7.2716082,"elevationM":1466},{"id":"node:1304128890","kind":"peak","name":"Pena da Formigosa","lat":42.7641351,"lon":-7.0254882,"elevationM":1249},{"id":"node:1304129039","kind":"peak","name":"Penedo Negro","lat":42.2038178,"lon":-7.5077681,"elevationM":null},{"id":"node:1304129093","kind":"peak","name":"Cumio de Gorguluxeira","lat":42.5083195,"lon":-7.108471,"elevationM":null},{"id":"node:1304129117","kind":"peak","name":"Pedra do Lombo","lat":42.2045907,"lon":-7.0355072,"elevationM":null},{"id":"node:1304129566","kind":"peak","name":"Pena do Tarol","lat":42.7075217,"lon":-7.098274,"elevationM":null},{"id":"node:1304129634","kind":"peak","name":"Alto de Bidueiras","lat":42.1937614,"lon":-7.4792287,"elevationM":1526},{"id":"node:1304129643","kind":"peak","name":"Pico de Arcas","lat":42.4848465,"lon":-7.3031096,"elevationM":null},{"id":"node:1304130038","kind":"peak","name":"Monte Costoira","lat":42.2465961,"lon":-7.6890055,"elevationM":null},{"id":"node:1304130058","kind":"peak","name":"O Castelo","lat":42.3154639,"lon":-7.0427888,"elevationM":null},{"id":"node:1304130261","kind":"peak","name":"Alto da Pipa","lat":42.0707999,"lon":-7.4887803,"elevationM":null},{"id":"node:1304130437","kind":"peak","name":"Cabeza do Pote","lat":42.3918402,"lon":-7.1559296,"elevationM":null},{"id":"node:1304130505","kind":"peak","name":"Alto do Toxedo","lat":42.2723565,"lon":-7.1841874,"elevationM":null},{"id":"node:1304130626","kind":"peak","name":"Alto da Armada","lat":42.2612104,"lon":-7.499941,"elevationM":null},{"id":"node:1304130659","kind":"peak","name":"Cabeza do Couto","lat":42.6220474,"lon":-7.0910194,"elevationM":null},{"id":"node:1304130720","kind":"peak","name":"Alto de Galván","lat":42.2034311,"lon":-7.1139619,"elevationM":null},{"id":"node:1304130816","kind":"peak","name":"Altos da Pa","lat":42.2222739,"lon":-7.4023199,"elevationM":null},{"id":"node:1304131337","kind":"peak","name":"Pena do Pico","lat":42.7338028,"lon":-7.153868,"elevationM":1344},{"id":"node:1304131454","kind":"peak","name":"Corgo da Tella","lat":42.2165445,"lon":-7.4979139,"elevationM":null},{"id":"node:1304131481","kind":"peak","name":"Cu de Galo","lat":42.5621632,"lon":-7.1112056,"elevationM":null},{"id":"node:1304131996","kind":"peak","name":"Alto de Retorel","lat":42.297297,"lon":-7.0230123,"elevationM":null},{"id":"node:1304132156","kind":"peak","name":"Teso das Papoulas","lat":42.6014066,"lon":-7.10835,"elevationM":null},{"id":"node:1304132233","kind":"peak","name":"Alto de Rañalobos","lat":42.2410305,"lon":-7.151554,"elevationM":949},{"id":"node:1304132675","kind":"peak","name":"Pena Crespa","lat":42.8045157,"lon":-7.0745496,"elevationM":1054},{"id":"node:1304132937","kind":"peak","name":"Altos das Malladas","lat":42.2116451,"lon":-7.3221445,"elevationM":null},{"id":"node:1304133030","kind":"peak","name":"O Serro","lat":42.1688692,"lon":-7.1551338,"elevationM":947},{"id":"node:1304133192","kind":"peak","name":"Alto da Pena da Meda","lat":42.2710066,"lon":-7.3106433,"elevationM":null},{"id":"node:1304133256","kind":"peak","name":"Rinán","lat":42.5116947,"lon":-7.0872138,"elevationM":null},{"id":"node:1304133332","kind":"peak","name":"O Alto do Foxo","lat":42.049907,"lon":-7.3565838,"elevationM":null},{"id":"node:1304133433","kind":"peak","name":"Alto do Outeiro","lat":42.3049391,"lon":-7.1349194,"elevationM":null},{"id":"node:1304133492","kind":"peak","name":"Pena do Carromato","lat":42.748891,"lon":-7.0328406,"elevationM":1221},{"id":"node:1304133519","kind":"peak","name":"Cabeza do Pau","lat":42.4242347,"lon":-7.1910207,"elevationM":null},{"id":"node:1304133609","kind":"peak","name":"A Peneda","lat":42.3192574,"lon":-7.038145,"elevationM":null},{"id":"node:1304133668","kind":"peak","name":"Pena da Choia","lat":42.6376186,"lon":-7.532766,"elevationM":null},{"id":"node:1304133681","kind":"peak","name":"Alto da Lagúa","lat":42.4812438,"lon":-7.1433895,"elevationM":null},{"id":"node:1304133712","kind":"peak","name":"O Outeiro","lat":42.4976264,"lon":-7.9772116,"elevationM":null},{"id":"node:1304133744","kind":"peak","name":"Testoiro","lat":42.3061574,"lon":-7.1531705,"elevationM":null},{"id":"node:1304133804","kind":"peak","name":"Penedo da Escrita","lat":42.2848539,"lon":-7.2609829,"elevationM":null},{"id":"node:1304133813","kind":"peak","name":"Fonte de Cais","lat":42.5521371,"lon":-7.0743075,"elevationM":null},{"id":"node:1304133913","kind":"peak","name":"A Costoira","lat":42.2969807,"lon":-7.9422276,"elevationM":null},{"id":"node:1304133937","kind":"peak","name":"O Penedo da Cruz","lat":42.2806648,"lon":-7.2437554,"elevationM":null},{"id":"node:1304133938","kind":"peak","name":"Alto do Val","lat":42.5692908,"lon":-7.142302,"elevationM":null},{"id":"node:1304134098","kind":"peak","name":"A Buzaqueria","lat":42.5932756,"lon":-7.1314367,"elevationM":null},{"id":"node:1304134123","kind":"peak","name":"Alto da Bastida","lat":42.4974889,"lon":-7.5545943,"elevationM":null},{"id":"node:1304134131","kind":"peak","name":"Alto dos Entirlos","lat":42.0375815,"lon":-7.3250911,"elevationM":null},{"id":"node:1304134207","kind":"peak","name":"Alto da Bidueira","lat":42.7744868,"lon":-7.1729511,"elevationM":1043},{"id":"node:1304134225","kind":"peak","name":"A Cabeza","lat":42.2777376,"lon":-7.1142426,"elevationM":null},{"id":"node:1304134404","kind":"peak","name":"Outeiro do Picoto","lat":42.1510892,"lon":-7.1726402,"elevationM":1145},{"id":"node:1304134620","kind":"peak","name":"O Seixo Branco","lat":42.6361052,"lon":-7.0781247,"elevationM":null},{"id":"node:1304134675","kind":"peak","name":"Alto de Valconde","lat":42.055151,"lon":-7.4241474,"elevationM":null},{"id":"node:1304134686","kind":"peak","name":"Alto do Pendón","lat":42.2943369,"lon":-7.0843322,"elevationM":null},{"id":"node:1304134798","kind":"peak","name":"Alto do Marroxo","lat":42.4732397,"lon":-7.5015535,"elevationM":641},{"id":"node:1304134890","kind":"peak","name":"Pico do Coto","lat":42.8559202,"lon":-7.0769352,"elevationM":null},{"id":"node:1304134972","kind":"peak","name":"O Piqueiro","lat":42.4684051,"lon":-7.234755,"elevationM":null},{"id":"node:1304135026","kind":"peak","name":"O Teso dos Hortos","lat":42.3244885,"lon":-7.1008636,"elevationM":null},{"id":"node:1304135314","kind":"peak","name":"Penedo das Canadas","lat":42.2084396,"lon":-7.4937415,"elevationM":1602},{"id":"node:1304135344","kind":"peak","name":"O Castelo do Pico","lat":42.5332731,"lon":-7.8977244,"elevationM":null},{"id":"node:1304135484","kind":"peak","name":"Alto da Pica","lat":42.0664594,"lon":-7.3818417,"elevationM":null},{"id":"node:1304135637","kind":"peak","name":"A Cruz","lat":42.4057129,"lon":-7.0874975,"elevationM":null},{"id":"node:1304135726","kind":"peak","name":"O Castelo","lat":42.3093278,"lon":-7.1673748,"elevationM":null},{"id":"node:1304135844","kind":"peak","name":"As Lamas","lat":42.2635852,"lon":-7.2529108,"elevationM":null},{"id":"node:1304135858","kind":"peak","name":"Teso de Valporca","lat":42.592167,"lon":-7.0802074,"elevationM":null},{"id":"node:1304136139","kind":"peak","name":"Alto da Ermida","lat":42.3388111,"lon":-7.1743754,"elevationM":565},{"id":"node:1304136439","kind":"peak","name":"O Penedo Grande","lat":42.2996236,"lon":-7.3374892,"elevationM":null},{"id":"node:1304136462","kind":"peak","name":"O Terreiro","lat":42.546997,"lon":-7.1806822,"elevationM":null},{"id":"node:1304136592","kind":"peak","name":"Cabeza do Viveiro","lat":42.4500652,"lon":-7.0327037,"elevationM":null},{"id":"node:1304136787","kind":"peak","name":"A Forcadura","lat":42.5849611,"lon":-7.139582,"elevationM":null},{"id":"node:1304136832","kind":"peak","name":"O Pico Longo","lat":42.4652864,"lon":-7.1773545,"elevationM":null},{"id":"node:1304136848","kind":"peak","name":"Alto de Val do Cabo","lat":42.077864,"lon":-7.2324582,"elevationM":null},{"id":"node:1304136927","kind":"peak","name":"O Castro","lat":42.3538331,"lon":-7.0892297,"elevationM":null},{"id":"node:1304136936","kind":"peak","name":"A Pena Moura","lat":42.9846709,"lon":-7.177425,"elevationM":null},{"id":"node:1304137176","kind":"peak","name":"Alto do Foxo Vello","lat":42.0156862,"lon":-7.2745429,"elevationM":null},{"id":"node:1304137307","kind":"peak","name":"Cumes do Outeiro","lat":42.2877993,"lon":-7.3867043,"elevationM":null},{"id":"node:1304137320","kind":"peak","name":"Pena da Aiga","lat":42.6009713,"lon":-7.0902615,"elevationM":null},{"id":"node:1304137399","kind":"peak","name":"Alto das Travesas","lat":42.0189069,"lon":-7.4278808,"elevationM":null},{"id":"node:1304137484","kind":"peak","name":"O Castelo","lat":42.2642631,"lon":-7.0339374,"elevationM":null},{"id":"node:1304137583","kind":"peak","name":"Sete Buratos","lat":42.2666538,"lon":-7.9837189,"elevationM":null},{"id":"node:1304137594","kind":"peak","name":"Pena de Brañelas","lat":42.7390394,"lon":-7.1285832,"elevationM":null},{"id":"node:1304137616","kind":"peak","name":"Penedo Redondo","lat":42.4847801,"lon":-7.4604084,"elevationM":null},{"id":"node:1304137809","kind":"peak","name":"Alto de San Xiraldo","lat":42.2152716,"lon":-7.4931538,"elevationM":null},{"id":"node:1304137820","kind":"peak","name":"Pico da Escrita","lat":42.6753293,"lon":-7.1042229,"elevationM":null},{"id":"node:1304138013","kind":"peak","name":"O Chao do Pedregal","lat":42.7580064,"lon":-7.1710028,"elevationM":1163},{"id":"node:1304138115","kind":"peak","name":"A Cabeza dos Bois","lat":42.2597051,"lon":-7.3285366,"elevationM":null},{"id":"node:1304138133","kind":"peak","name":"Penedo da Rodela","lat":42.2749764,"lon":-7.2587443,"elevationM":null},{"id":"node:1304138141","kind":"peak","name":"Penaboa","lat":42.590957,"lon":-7.1489222,"elevationM":null},{"id":"node:1304138204","kind":"peak","name":"Cruz da Pena da Lebre","lat":42.1880156,"lon":-7.2582269,"elevationM":null},{"id":"node:1304138274","kind":"peak","name":"Alto de Campelo","lat":42.3655253,"lon":-7.1024037,"elevationM":null},{"id":"node:1304138321","kind":"peak","name":"Alto do Bidual","lat":42.2021732,"lon":-7.3613317,"elevationM":null},{"id":"node:1304138377","kind":"peak","name":"Alto dos Cregos","lat":42.2030799,"lon":-7.4574321,"elevationM":1326},{"id":"node:1304138385","kind":"peak","name":"As Lastras","lat":42.5586423,"lon":-7.0857309,"elevationM":null},{"id":"node:1304138394","kind":"peak","name":"Alto dos Lombos","lat":42.2366758,"lon":-7.1207769,"elevationM":null},{"id":"node:1304138904","kind":"peak","name":"Pena Aguda","lat":42.6807047,"lon":-7.083707,"elevationM":null},{"id":"node:1304139053","kind":"peak","name":"Alto da Cabeza do Home","lat":42.5683179,"lon":-7.1098137,"elevationM":null},{"id":"node:1304139188","kind":"peak","name":"O Casquete","lat":42.3020568,"lon":-7.0596841,"elevationM":null},{"id":"node:1304151960","kind":"peak","name":"Monte Castrelo","lat":42.2214871,"lon":-7.8625835,"elevationM":null},{"id":"node:1304151969","kind":"peak","name":"Pena Grande","lat":42.7430127,"lon":-7.1643325,"elevationM":1337},{"id":"node:1304151972","kind":"peak","name":"Alto de Valmarín","lat":42.5573142,"lon":-7.1136907,"elevationM":null},{"id":"node:1304151975","kind":"peak","name":"Coto da Anguarda","lat":42.284236,"lon":-7.976609,"elevationM":null},{"id":"node:1304151979","kind":"peak","name":"Monte Virgo","lat":42.1825563,"lon":-7.0862962,"elevationM":null},{"id":"node:1304151981","kind":"peak","name":"O Pousadoiro","lat":42.3366368,"lon":-7.0954556,"elevationM":null},{"id":"node:1304152008","kind":"peak","name":"Teso da Pallosa","lat":42.5841373,"lon":-7.0895449,"elevationM":null},{"id":"node:1304152079","kind":"peak","name":"Pena da Lebre","lat":42.3292834,"lon":-7.3785928,"elevationM":null},{"id":"node:4829062337","kind":"peak","name":"San Francisco","lat":42.3355082,"lon":-7.8600024,"elevationM":null},{"id":"node:4841972705","kind":"peak","name":"Monte dos Pendós","lat":42.2452572,"lon":-7.7935992,"elevationM":null},{"id":"node:5046414148","kind":"peak","name":"O Coto","lat":42.7904871,"lon":-7.1006811,"elevationM":886},{"id":"node:5131239934","kind":"peak","name":"Portela do Faro","lat":42.6313959,"lon":-7.0470447,"elevationM":1615},{"id":"node:5131289959","kind":"peak","name":"Montouto","lat":42.5079928,"lon":-7.0770752,"elevationM":1541},{"id":"node:5330254024","kind":"peak","name":"Monte de Fontao","lat":42.9783289,"lon":-7.5739507,"elevationM":498},{"id":"node:5331317487","kind":"peak","name":"O Alto de Pena Nofre","lat":42.0383004,"lon":-7.3510938,"elevationM":1291},{"id":"node:5338631386","kind":"peak","name":"As Lombas","lat":42.9727118,"lon":-7.5146645,"elevationM":414},{"id":"node:5338631392","kind":"peak","name":"Cordiño","lat":42.9861205,"lon":-7.5158113,"elevationM":456},{"id":"node:5338704024","kind":"peak","name":"Monte dos Castros","lat":42.930997,"lon":-7.5038913,"elevationM":511},{"id":"node:5338704044","kind":"peak","name":"Pena Corveira","lat":42.9703194,"lon":-7.4801975,"elevationM":464},{"id":"node:5338704522","kind":"peak","name":"Gruñeiras","lat":42.954257,"lon":-7.5059965,"elevationM":453},{"id":"node:5338704523","kind":"peak","name":"As Toxedas","lat":42.9553137,"lon":-7.510425,"elevationM":442},{"id":"node:5554903004","kind":"peak","name":"Campa do Chan","lat":42.996902,"lon":-7.1503544,"elevationM":721},{"id":"node:5554903010","kind":"peak","name":"Serra de Albaredo","lat":42.9933829,"lon":-7.1698572,"elevationM":864},{"id":"node:5554903014","kind":"peak","name":"As Peneliñas","lat":42.9974012,"lon":-7.1603946,"elevationM":807},{"id":"node:5554903227","kind":"peak","name":"Pico Redondo","lat":42.9903894,"lon":-7.1983057,"elevationM":771},{"id":"node:5554903229","kind":"peak","name":"Pico do Cotón","lat":42.9909128,"lon":-7.2091007,"elevationM":741},{"id":"node:5554903230","kind":"peak","name":"Pena Abelleira","lat":42.9945497,"lon":-7.2136098,"elevationM":713},{"id":"node:5554903232","kind":"peak","name":"Cima de Valquente","lat":42.9921973,"lon":-7.2216502,"elevationM":768},{"id":"node:5554903233","kind":"peak","name":"Surrial","lat":42.9982851,"lon":-7.2222098,"elevationM":752},{"id":"node:5967355529","kind":"peak","name":"Monte da Arqueira","lat":42.7981954,"lon":-7.0629488,"elevationM":1101},{"id":"node:5967355530","kind":"peak","name":"Monte de Valdegua","lat":42.8015714,"lon":-7.0823843,"elevationM":893},{"id":"node:5967362312","kind":"peak","name":"Penas Cabanas","lat":42.7964443,"lon":-7.0794824,"elevationM":774},{"id":"node:5967628033","kind":"peak","name":"O Cotón","lat":42.8170622,"lon":-7.0980969,"elevationM":786},{"id":"node:5967628034","kind":"peak","name":"O Carqueixedo","lat":42.813743,"lon":-7.0898301,"elevationM":854},{"id":"node:5967628036","kind":"peak","name":"Chao das Olas","lat":42.8122585,"lon":-7.0923885,"elevationM":827},{"id":"node:5967628243","kind":"peak","name":"Monte Redondo","lat":42.8292273,"lon":-7.0859259,"elevationM":963},{"id":"node:5967628268","kind":"peak","name":"Chao de Pereiro","lat":42.7829783,"lon":-7.0348623,"elevationM":1201},{"id":"node:5967628271","kind":"peak","name":"Monte Lavandeira","lat":42.796066,"lon":-7.0464916,"elevationM":1087},{"id":"node:5967628272","kind":"peak","name":"Monte da Furada","lat":42.7925356,"lon":-7.0480285,"elevationM":1151},{"id":"node:5967628281","kind":"peak","name":"Monte Rebordela","lat":42.8180775,"lon":-7.0848854,"elevationM":942},{"id":"node:5970057382","kind":"peak","name":"Valdesolleiro","lat":42.7513567,"lon":-7.0098404,"elevationM":1258},{"id":"node:5970057940","kind":"peak","name":"Monte das Travesas","lat":42.736148,"lon":-7.0002287,"elevationM":1287},{"id":"node:5970057942","kind":"peak","name":"Penas da Chousa","lat":42.7424648,"lon":-7.0027331,"elevationM":1287},{"id":"node:5970057945","kind":"peak","name":"Chao Piera","lat":42.7748621,"lon":-7.0260447,"elevationM":1250},{"id":"node:5970714010","kind":"peak","name":"Chao da Vara","lat":42.7870249,"lon":-7.106176,"elevationM":833},{"id":"node:5970714043","kind":"peak","name":"Monte Xirondo","lat":42.7980318,"lon":-7.101129,"elevationM":842},{"id":"node:5970714051","kind":"peak","name":"O Encinal","lat":42.7932377,"lon":-7.0988818,"elevationM":857},{"id":"node:5970714073","kind":"peak","name":"Doncos","lat":42.7866193,"lon":-7.0934509,"elevationM":784},{"id":"node:5970714091","kind":"peak","name":"Bubantín","lat":42.7783591,"lon":-7.0857589,"elevationM":927},{"id":"node:5970714103","kind":"peak","name":"A Pandella","lat":42.7713258,"lon":-7.0783818,"elevationM":1018},{"id":"node:5970714253","kind":"peak","name":"Monte Turreiro","lat":42.7864538,"lon":-7.0799791,"elevationM":868},{"id":"node:5970714262","kind":"peak","name":"Chao do Pico","lat":42.7816135,"lon":-7.0746979,"elevationM":937},{"id":"node:5970714285","kind":"peak","name":"Os Chaos","lat":42.7716431,"lon":-7.0665696,"elevationM":1091},{"id":"node:5970714323","kind":"peak","name":"O Chao de Cima","lat":42.783779,"lon":-7.0652879,"elevationM":1013},{"id":"node:5970714335","kind":"peak","name":"Pena Teixeiro","lat":42.7765482,"lon":-7.0621101,"elevationM":1076},{"id":"node:5970714345","kind":"peak","name":"Monte da Valiña","lat":42.7703065,"lon":-7.0551465,"elevationM":1153},{"id":"node:5970714352","kind":"peak","name":"O Couso","lat":42.7656127,"lon":-7.0532247,"elevationM":1189},{"id":"node:5970714360","kind":"peak","name":"Os Atallos","lat":42.7612702,"lon":-7.0480277,"elevationM":1176},{"id":"node:5970714375","kind":"peak","name":"A Pena Parda","lat":42.7539982,"lon":-7.0395928,"elevationM":1204},{"id":"node:5970714381","kind":"peak","name":"Chao do Espiñeiro","lat":42.7504775,"lon":-7.036451,"elevationM":1203},{"id":"node:5970714641","kind":"peak","name":"Monte das Canteiras","lat":42.7419279,"lon":-7.0252305,"elevationM":1224},{"id":"node:5970714853","kind":"peak","name":"O Couso","lat":42.7334283,"lon":-7.0197666,"elevationM":1253},{"id":"node:5970714854","kind":"peak","name":"O Candedo","lat":42.7361225,"lon":-7.0202408,"elevationM":1236},{"id":"node:6107567918","kind":"peak","name":"Monte de San Cidre","lat":42.9724877,"lon":-7.9396545,"elevationM":null},{"id":"node:6165902107","kind":"peak","name":"Chao do Marco","lat":42.6214421,"lon":-7.046092,"elevationM":1549},{"id":"node:6240117598","kind":"peak","name":"Pena Castrela","lat":42.8267907,"lon":-7.7568624,"elevationM":760},{"id":"node:6789253528","kind":"peak","name":"O Picoto","lat":42.1472021,"lon":-7.1727931,"elevationM":1168},{"id":"node:6923112640","kind":"peak","name":"O Pé de Home","lat":42.402034,"lon":-7.6347339,"elevationM":null},{"id":"node:7027536588","kind":"peak","name":"O Preguntoiro","lat":42.6042554,"lon":-7.9076024,"elevationM":1063},{"id":"node:7027536590","kind":"peak","name":"Pena das Grallas","lat":42.607498,"lon":-7.9066665,"elevationM":1069},{"id":"node:7027536602","kind":"peak","name":"Mirante","lat":42.6192698,"lon":-7.8998566,"elevationM":1156},{"id":"node:7027537912","kind":"peak","name":"Cuíña","lat":42.9968594,"lon":-7.900446,"elevationM":763},{"id":"node:7027537920","kind":"peak","name":"Corno do Boi","lat":42.9924756,"lon":-7.8959477,"elevationM":774},{"id":"node:7027537924","kind":"peak","name":"O Puxeiro","lat":42.9769169,"lon":-7.898748,"elevationM":775},{"id":"node:7027537947","kind":"peak","name":"Cerrón","lat":42.9719343,"lon":-7.8854448,"elevationM":785},{"id":"node:7027537961","kind":"peak","name":"A Pena do Boi Louro","lat":42.9617994,"lon":-7.8645829,"elevationM":701},{"id":"node:7027537964","kind":"peak","name":"A Carboeira","lat":42.9648232,"lon":-7.8740853,"elevationM":752},{"id":"node:7027537974","kind":"peak","name":"Pena Alta","lat":42.9503982,"lon":-7.8507038,"elevationM":653},{"id":"node:7027537975","kind":"peak","name":"Penas da Leboreira","lat":42.9462053,"lon":-7.8437545,"elevationM":641},{"id":"node:7027537981","kind":"peak","name":"Chao da Leboreira","lat":42.9439275,"lon":-7.8386388,"elevationM":619},{"id":"node:7027537982","kind":"peak","name":"O Outeiro","lat":42.9490177,"lon":-7.8451897,"elevationM":642},{"id":"node:7027537983","kind":"peak","name":"Monte Maior","lat":42.9544869,"lon":-7.8624234,"elevationM":721},{"id":"node:7027538004","kind":"peak","name":"Os Outeiros","lat":42.9223765,"lon":-7.8428071,"elevationM":634},{"id":"node:7027538042","kind":"peak","name":"A Pena do Rei","lat":42.8607593,"lon":-7.8065974,"elevationM":657},{"id":"node:7027538043","kind":"peak","name":"O Coto","lat":42.8586485,"lon":-7.815387,"elevationM":695},{"id":"node:7027538057","kind":"peak","name":"Castro de Salgueiros","lat":42.8287213,"lon":-7.7601694,"elevationM":745},{"id":"node:7027538065","kind":"peak","name":"Pena Godón","lat":42.8467639,"lon":-7.7594208,"elevationM":753},{"id":"node:7027538066","kind":"peak","name":"A Pena Fría","lat":42.8066677,"lon":-7.7651365,"elevationM":682},{"id":"node:7027538067","kind":"peak","name":"Alto das Tombas","lat":42.7840991,"lon":-7.7628221,"elevationM":663},{"id":"node:7027538068","kind":"peak","name":"San Cristovo","lat":42.764289,"lon":-7.7726231,"elevationM":826},{"id":"node:7027538069","kind":"peak","name":"Monte das Bouzas","lat":42.7216882,"lon":-7.8034659,"elevationM":673},{"id":"node:7027538070","kind":"peak","name":"O Outeiro","lat":42.7222305,"lon":-7.796361,"elevationM":676},{"id":"node:7027538071","kind":"peak","name":"Casdigo","lat":42.7157701,"lon":-7.81502,"elevationM":677},{"id":"node:7027538072","kind":"peak","name":"O Coto de Mourelle","lat":42.7160993,"lon":-7.836859,"elevationM":724},{"id":"node:7027538073","kind":"peak","name":"Narón","lat":42.8201351,"lon":-7.7528376,"elevationM":799},{"id":"node:7027538074","kind":"peak","name":"Monte de Santa Mariña","lat":42.8855406,"lon":-7.842235,"elevationM":699},{"id":"node:7027538075","kind":"peak","name":"Pena Armada","lat":42.9855979,"lon":-7.9054437,"elevationM":760},{"id":"node:7027538152","kind":"peak","name":"A Ermida","lat":42.6248129,"lon":-7.8930221,"elevationM":1155},{"id":"node:7027538159","kind":"peak","name":"Faro","lat":42.6214293,"lon":-7.8977659,"elevationM":1181},{"id":"node:7029897905","kind":"peak","name":"O Rebolín","lat":42.7264588,"lon":-7.1438626,"elevationM":1359},{"id":"node:7029898019","kind":"peak","name":"Albela","lat":42.7800647,"lon":-7.1987481,"elevationM":1063},{"id":"node:7030290926","kind":"peak","name":"O Laxón","lat":42.5654987,"lon":-7.9503077,"elevationM":883},{"id":"node:7030290929","kind":"peak","name":"Penedo dos Cans","lat":42.57012,"lon":-7.9439255,"elevationM":935},{"id":"node:7030290930","kind":"peak","name":"Pena da Cabana","lat":42.5713063,"lon":-7.9402588,"elevationM":946},{"id":"node:7030290932","kind":"peak","name":"O Coto","lat":42.5741308,"lon":-7.9365001,"elevationM":955},{"id":"node:7030290937","kind":"peak","name":"O Marco","lat":42.5784803,"lon":-7.9279393,"elevationM":1017},{"id":"node:7030290938","kind":"peak","name":"O Piorno","lat":42.5803895,"lon":-7.9255152,"elevationM":1071},{"id":"node:7030290940","kind":"peak","name":"Penas Albas","lat":42.5840015,"lon":-7.919551,"elevationM":1112},{"id":"node:7030290943","kind":"peak","name":"A Pena","lat":42.5953275,"lon":-7.9120374,"elevationM":968},{"id":"node:7030290945","kind":"peak","name":"Penaboa","lat":42.6015558,"lon":-7.9116922,"elevationM":1039},{"id":"node:7038603246","kind":"peak","name":"Pena de Francia","lat":42.58295,"lon":-7.9999219,"elevationM":914},{"id":"node:7044677523","kind":"peak","name":"Penedos de Casacamiño","lat":42.9450008,"lon":-7.8966879,"elevationM":712},{"id":"node:7044677529","kind":"peak","name":"Pena Longa","lat":42.9492345,"lon":-7.8949082,"elevationM":758},{"id":"node:7044677551","kind":"peak","name":"O Careón","lat":42.9323303,"lon":-7.9164424,"elevationM":798},{"id":"node:7044677569","kind":"peak","name":"Coto do Hospital","lat":42.9540069,"lon":-7.9012291,"elevationM":765},{"id":"node:7044677576","kind":"peak","name":"Monte do Pilrel","lat":42.9614848,"lon":-7.8999557,"elevationM":772},{"id":"node:7044679089","kind":"peak","name":"Penedos de Pazo do Monte","lat":42.9597389,"lon":-7.8894235,"elevationM":739},{"id":"node:7044679095","kind":"peak","name":"Os Troios","lat":42.9636123,"lon":-7.8856187,"elevationM":743},{"id":"node:7044679098","kind":"peak","name":"Agro da Fonte","lat":42.9650943,"lon":-7.8878586,"elevationM":751},{"id":"node:7057270532","kind":"peak","name":"Pena Maior","lat":42.6146654,"lon":-7.9049418,"elevationM":1108},{"id":"node:7057270557","kind":"peak","name":"Penas Grandes","lat":42.5833661,"lon":-7.9284148,"elevationM":987},{"id":"node:7057270573","kind":"peak","name":"Raque","lat":42.5789774,"lon":-7.9318744,"elevationM":992},{"id":"node:7057272685","kind":"peak","name":"Pena Nugalla","lat":42.5689788,"lon":-7.9532533,"elevationM":871},{"id":"node:7057272697","kind":"peak","name":"Coto Cabreiro","lat":42.5736507,"lon":-7.9546878,"elevationM":881},{"id":"node:7057272700","kind":"peak","name":"Penedo Domanio","lat":42.5716679,"lon":-7.9464722,"elevationM":939},{"id":"node:9295727563","kind":"peak","name":"Pico da Ortiga","lat":42.142776,"lon":-7.2820129,"elevationM":1496},{"id":"node:9295727564","kind":"peak","name":"Alto do Covelo","lat":42.2363239,"lon":-7.1111294,"elevationM":1052},{"id":"node:9743403404","kind":"peak","name":"Porto da Barxa","lat":42.1081169,"lon":-7.4356091,"elevationM":1091},{"id":"node:9743453313","kind":"peak","name":"O Penedo dos Afeitados","lat":42.2110572,"lon":-7.505309,"elevationM":1585},{"id":"node:9743465258","kind":"peak","name":"O Louredo","lat":42.1390664,"lon":-7.45222,"elevationM":1357},{"id":"node:9743466346","kind":"peak","name":"Cabeza Redonda","lat":42.1543368,"lon":-7.4824834,"elevationM":1246},{"id":"node:9743476486","kind":"peak","name":"San Mamede","lat":42.211228,"lon":-7.4995717,"elevationM":1616},{"id":"node:9970366702","kind":"peak","name":"O Alto da Cabeza da Meda","lat":42.3498829,"lon":-7.610438,"elevationM":1314},{"id":"node:10048317053","kind":"peak","name":"Penouzos","lat":42.2112782,"lon":-7.6848964,"elevationM":682},{"id":"node:10058753450","kind":"peak","name":"A Farria","lat":42.1993853,"lon":-7.7056927,"elevationM":833},{"id":"node:10067424240","kind":"peak","name":"O Cruceiro","lat":42.2076766,"lon":-7.6835514,"elevationM":693},{"id":"node:10295478554","kind":"peak","name":"O Picato","lat":42.9349095,"lon":-7.6482476,"elevationM":783},{"id":"node:10885892037","kind":"peak","name":"Castro de Berredo","lat":42.143883,"lon":-7.87977,"elevationM":753},{"id":"node:10902072598","kind":"peak","name":"Porto de Negreiros","lat":42.1274118,"lon":-7.4369878,"elevationM":1296},{"id":"node:10902101408","kind":"peak","name":"Alto da Corga do Mallo","lat":42.1353724,"lon":-7.4980938,"elevationM":867},{"id":"node:10903373766","kind":"peak","name":"Porto do Rial","lat":42.1009927,"lon":-7.4379104,"elevationM":1018},{"id":"node:10903373776","kind":"peak","name":"Cabezo do Xogral","lat":42.1054703,"lon":-7.3495692,"elevationM":1323},{"id":"node:10903373777","kind":"peak","name":"Cabezo do Lombo Grande","lat":42.1080811,"lon":-7.3507494,"elevationM":1328},{"id":"node:10903373782","kind":"peak","name":"O Seixo","lat":42.1249649,"lon":-7.3881126,"elevationM":1314},{"id":"node:10903373783","kind":"peak","name":"Alto de cernada","lat":42.1321739,"lon":-7.3802591,"elevationM":1409},{"id":"node:10903373788","kind":"peak","name":"Alto da Ladeira dos Liñares","lat":42.1083591,"lon":-7.4036271,"elevationM":1178},{"id":"node:10903373793","kind":"peak","name":"Alto do Vieiro","lat":42.0949942,"lon":-7.4157661,"elevationM":1053},{"id":"node:10959311534","kind":"peak","name":"Castro de Coeses","lat":42.9406241,"lon":-7.5251811,"elevationM":495},{"id":"node:11088999601","kind":"peak","name":"Penamá","lat":42.1618006,"lon":-7.8118488,"elevationM":927},{"id":"node:11200997045","kind":"peak","name":"A Gargantiña","lat":42.2659799,"lon":-7.2771871,"elevationM":1558},{"id":"node:11200997063","kind":"peak","name":"A Cabeza Pequena","lat":42.2583653,"lon":-7.3018313,"elevationM":1776},{"id":"node:11241004530","kind":"peak","name":"Portela da Boqueira","lat":42.1761581,"lon":-7.4639225,"elevationM":1384},{"id":"node:11300930819","kind":"peak","name":"Pico do Garabullo","lat":42.5286975,"lon":-7.7224499,"elevationM":444},{"id":"node:11987554883","kind":"peak","name":"A Arroxa","lat":42.0168694,"lon":-7.0663433,"elevationM":null},{"id":"node:11993630374","kind":"peak","name":"Monte do Penedo Negro","lat":42.2153675,"lon":-7.5068799,"elevationM":1527},{"id":"node:12162646077","kind":"peak","name":"Alto das Cancelas","lat":42.229045,"lon":-7.4645771,"elevationM":1410},{"id":"node:12162646086","kind":"peak","name":"A Pena do Seixo","lat":42.2375536,"lon":-7.4925136,"elevationM":1278},{"id":"node:12202342539","kind":"peak","name":"As Chairas","lat":42.1678985,"lon":-7.468155,"elevationM":1424},{"id":"node:12410066338","kind":"peak","name":"A Medorra","lat":42.2341414,"lon":-7.7292783,"elevationM":613},{"id":"node:12554230252","kind":"peak","name":"952","lat":42.4004771,"lon":-7.3515067,"elevationM":null},{"id":"node:12787856299","kind":"peak","name":"A Mesa dos Catro Cabaleiros","lat":42.6058397,"lon":-7.280514,"elevationM":null},{"id":"node:12899370292","kind":"peak","name":"Monte Farelo","lat":42.7535683,"lon":-7.9517986,"elevationM":null},{"id":"node:13071676179","kind":"peak","name":"Alto Valconde","lat":42.0625684,"lon":-7.4278276,"elevationM":797},{"id":"node:13464259370","kind":"peak","name":"Monte Couso","lat":42.6290102,"lon":-7.5409268,"elevationM":null},{"id":"node:13506855529","kind":"peak","name":"Alto do Forriolo","lat":42.1144785,"lon":-7.8877219,"elevationM":858},{"id":"node:13506953803","kind":"peak","name":"Monte Talariño","lat":42.1381225,"lon":-7.5756486,"elevationM":984},{"id":"node:13529316071","kind":"peak","name":"O Alto do Rodicio","lat":42.3032328,"lon":-7.5983092,"elevationM":null}]}