{"tileKey":"la_p19_lo_m14","version":"v1-1775891056926","entries":[{"id":"node:4486820744","kind":"peak","name":"Almaaradh","lat":19.9863949,"lon":-13.077291,"elevationM":null},{"id":"node:7734435438","kind":"peak","name":"Guelb Akhamit","lat":19.733333,"lon":-13.466667,"elevationM":null},{"id":"node:7734441915","kind":"peak","name":"Gâra Zerga","lat":19.9428943,"lon":-13.1664095,"elevationM":null},{"id":"node:7734442051","kind":"peak","name":"’Adam Legleyyé","lat":19.316667,"lon":-13.916667,"elevationM":null},{"id":"node:7734442066","kind":"peak","name":"Guelb el Aïd","lat":19.183333,"lon":-13.55,"elevationM":null},{"id":"node:7734442076","kind":"peak","name":"Guelb el Akhdar","lat":19.6,"lon":-13.883333,"elevationM":null},{"id":"node:7734442077","kind":"peak","name":"Guelb el Akhdar","lat":19.966667,"lon":-13.333333,"elevationM":null},{"id":"node:7734442087","kind":"peak","name":"Anetim","lat":19.883333,"lon":-13.35,"elevationM":null},{"id":"node:7734442101","kind":"peak","name":"Aroueïguij","lat":19.5,"lon":-13.55,"elevationM":null},{"id":"node:7734442170","kind":"peak","name":"Guelb Daba","lat":19.533333,"lon":-13.466667,"elevationM":null},{"id":"node:7734442185","kind":"peak","name":"Guelb Echbedert","lat":19.583333,"lon":-13.133333,"elevationM":null},{"id":"node:7734442188","kind":"peak","name":"Guelb Ejeyadh","lat":19.483333,"lon":-13.3,"elevationM":null},{"id":"node:7734442244","kind":"peak","name":"Guelb el Hassene","lat":19.5,"lon":-13.9,"elevationM":null},{"id":"node:7734442292","kind":"peak","name":"Krekra","lat":19.716667,"lon":-13.45,"elevationM":null},{"id":"node:7734442298","kind":"peak","name":"Lefreïdi","lat":19.433333,"lon":-13.533333,"elevationM":null},{"id":"node:7734442309","kind":"peak","name":"Guelb Liesid","lat":19.033333,"lon":-13.616667,"elevationM":null},{"id":"node:7734442320","kind":"peak","name":"Guelb Mechleya","lat":19.6097745,"lon":-13.4878391,"elevationM":null},{"id":"node:7734442321","kind":"peak","name":"Tâjâlet el Meddah","lat":19.966667,"lon":-13.316667,"elevationM":null},{"id":"node:7734442322","kind":"peak","name":"Méflek","lat":19.7639409,"lon":-13.4372168,"elevationM":null},{"id":"node:7734442330","kind":"peak","name":"Guelb Mjébira","lat":19.6,"lon":-13.966667,"elevationM":null},{"id":"node:7734442333","kind":"peak","name":"Guelb el Mogt’a","lat":19.183333,"lon":-13.266667,"elevationM":null},{"id":"node:7734442359","kind":"peak","name":"Nouadgui el Abiod","lat":19.316667,"lon":-13.383333,"elevationM":null},{"id":"node:7734442373","kind":"peak","name":"Guelb Ould Leleïth","lat":19.6,"lon":-13.833333,"elevationM":null},{"id":"node:7734442388","kind":"peak","name":"Outeïd Touama","lat":19.416667,"lon":-13.516667,"elevationM":null},{"id":"node:7734442424","kind":"peak","name":"Gâra Tanachaour","lat":19.866667,"lon":-13.133333,"elevationM":null},{"id":"node:7734442470","kind":"peak","name":"Touijinine","lat":19,"lon":-13.25,"elevationM":null},{"id":"node:7734442482","kind":"peak","name":"Guelb Zellaga","lat":19,"lon":-13.3,"elevationM":null},{"id":"node:7734442484","kind":"peak","name":"Youdlane el Bîd","lat":19.283333,"lon":-13.233333,"elevationM":null},{"id":"node:7734442494","kind":"peak","name":"Zgueïmir el Kbîr","lat":19.05,"lon":-13.8,"elevationM":null},{"id":"node:7734442495","kind":"peak","name":"Zgueïmir es Srhîr","lat":19.083333,"lon":-13.883333,"elevationM":null},{"id":"node:7740593359","kind":"peak","name":"Guelb Bou Demje","lat":19.433333,"lon":-13.4,"elevationM":null},{"id":"node:7740593363","kind":"peak","name":"El Mseïdi","lat":19.583333,"lon":-13.266667,"elevationM":null}]}