{"tileKey":"la_p36_lo_p102","version":"v1-1775891056926","entries":[{"id":"node:2116355815","kind":"peak","name":"大山","lat":36.7936844,"lon":102.5721595,"elevationM":3662},{"id":"node:3300429621","kind":"peak","name":"拉脊山","lat":36.2609784,"lon":102.0194106,"elevationM":null},{"id":"node:9287279738","kind":"peak","name":"阿米多藏山","lat":36.800954,"lon":102.2177379,"elevationM":null},{"id":"node:9287279739","kind":"peak","name":"康烈尖山","lat":36.8223262,"lon":102.2685032,"elevationM":null},{"id":"node:9287279740","kind":"peak","name":"那春岭","lat":36.9268021,"lon":102.28804,"elevationM":null},{"id":"node:9287279741","kind":"peak","name":"阳山","lat":36.9614139,"lon":102.3630217,"elevationM":null},{"id":"node:9287279742","kind":"peak","name":"过仓","lat":36.8827564,"lon":102.3080038,"elevationM":null},{"id":"node:9287279743","kind":"peak","name":"松科顶","lat":36.7421158,"lon":102.319428,"elevationM":null},{"id":"node:9287279744","kind":"peak","name":"龙王山","lat":36.9276786,"lon":102.1580566,"elevationM":null},{"id":"node:13174822988","kind":"peak","name":"可什加岭","lat":36.628806,"lon":102.2967625,"elevationM":null}]}