{"tileKey":"la_p54_lo_p31","version":"v1-1775891056926","entries":[{"id":"node:3765544688","kind":"peak","name":"Дунькін Пуп","lat":54.4067337,"lon":31.0975878,"elevationM":null},{"id":"node:3893273579","kind":"peak","name":"Найвышэйшы пункт Магілёўскай вобласці","lat":54.0901199,"lon":31.2854708,"elevationM":239},{"id":"node:6046820138","kind":"peak","name":"Троіцкая гара","lat":54.0263383,"lon":31.7234099,"elevationM":null},{"id":"node:9249740139","kind":"peak","name":"Дзявочая гара","lat":54.0258741,"lon":31.7378886,"elevationM":null},{"id":"node:11186499753","kind":"peak","name":"Кловская гора","lat":54.7784089,"lon":31.9998318,"elevationM":null},{"id":"node:11216218108","kind":"peak","name":"Серебряная гора","lat":54.8017362,"lon":31.9860291,"elevationM":null},{"id":"node:13275366650","kind":"peak","name":"Панівойская гара","lat":54.0262255,"lon":31.7329184,"elevationM":null},{"id":"node:13301386406","kind":"peak","name":"Замкавая Гара","lat":54.0253401,"lon":31.7280509,"elevationM":null}]}