{"tileKey":"la_p53_lo_m4","version":"v1-bootstrap","entries":[{"id":"UNITED_KINGDOM_CARNEDD_LLEWELYN_531606_-39698","kind":"peak","name":"Carnedd Llewelyn","lat":53.160564,"lon":-3.969841,"elevationM":1064},{"id":"UNITED_KINGDOM_CNICHT_530000_-40000","kind":"peak","name":"Cnicht","lat":53,"lon":-4,"elevationM":690},{"id":"UNITED_KINGDOM_FOEL_FRAS_532000_-39500","kind":"peak","name":"Foel Fras","lat":53.2,"lon":-3.95,"elevationM":942},{"id":"UNITED_KINGDOM_FOEL_GRACH_531742_-39636","kind":"peak","name":"Foel Grach","lat":53.1742,"lon":-3.96358,"elevationM":976},{"id":"UNITED_KINGDOM_GARNEDD_UCHAF_531834_-39656","kind":"peak","name":"Garnedd Uchaf","lat":53.183408,"lon":-3.965578,"elevationM":926},{"id":"UNITED_KINGDOM_TRYFAN_531158_-39969","kind":"peak","name":"Tryfan","lat":53.1158,"lon":-3.99693,"elevationM":915},{"id":"UNITED_KINGDOM_Y_LLIWEDD_531653_-39873","kind":"peak","name":"Y Lliwedd","lat":53.165299,"lon":-3.98735,"elevationM":898},{"id":"UNITED_KINGDOM_YR_ELEN_531669_-39858","kind":"peak","name":"Yr Elen","lat":53.16689,"lon":-3.985767,"elevationM":962}]}