{"tileKey":"la_p33_lo_m89","version":"v1-1775891056926","entries":[{"id":"node:357944933","kind":"peak","name":"Reid Hill","lat":33.7034512,"lon":-88.8706107,"elevationM":128},{"id":"node:357986956","kind":"peak","name":"Ross Hill","lat":33.9848327,"lon":-88.9553364,"elevationM":156},{"id":"node:357987476","kind":"peak","name":"Witch Dance Hill","lat":33.9595558,"lon":-88.9172794,"elevationM":158},{"id":"node:357989779","kind":"peak","name":"Bynum Mounds","lat":33.8973352,"lon":-88.9472803,"elevationM":98},{"id":"node:357994597","kind":"peak","name":"Colberts Hill","lat":33.9723331,"lon":-88.5619899,"elevationM":70}]}