{"tileKey":"la_p5_lo_m1","version":"v1-1775891056926","entries":[{"id":"node:2147005869","kind":"peak","name":"Abura Hill","lat":5.3158937,"lon":-0.7760811,"elevationM":null},{"id":"node:2147005877","kind":"peak","name":"Obusumadi Hill","lat":5.2813135,"lon":-0.7953758,"elevationM":null},{"id":"node:2147840659","kind":"peak","name":"Adzintam Hill","lat":5.4668162,"lon":-0.6116517,"elevationM":null},{"id":"node:2147840681","kind":"peak","name":"Apra Hill","lat":5.5402686,"lon":-0.5002166,"elevationM":null},{"id":"node:2147840704","kind":"peak","name":"Dampa Hill","lat":5.4907862,"lon":-0.3800579,"elevationM":null},{"id":"node:2147840708","kind":"peak","name":"Ejisimanku Hill","lat":5.3276782,"lon":-0.6759393,"elevationM":null},{"id":"node:2154259245","kind":"peak","name":"Anakuma Hill","lat":5.8475761,"lon":-0.3027395,"elevationM":null},{"id":"node:2154372663","kind":"peak","name":"Ajwisaim Hill","lat":5.9910318,"lon":-0.6493779,"elevationM":null}]}