{"tileKey":"la_p55_lo_p38","version":"v1-1775891056926","entries":[{"id":"node:312445604","kind":"peak","name":"Боровский курган","lat":55.5530049,"lon":38.0289301,"elevationM":null},{"id":"node:490109894","kind":"peak","name":"Песчанка","lat":55.9964911,"lon":38.3822348,"elevationM":18},{"id":"node:1106167304","kind":"peak","name":"Горка Авангард","lat":55.7899751,"lon":38.4214196,"elevationM":8},{"id":"node:4785042657","kind":"peak","name":"курган","lat":55.9554701,"lon":38.078476,"elevationM":null},{"id":"node:6483801177","kind":"peak","name":"Зелёная гора (фосфогипс)","lat":55.2926726,"lon":38.7156612,"elevationM":null},{"id":"node:6483805947","kind":"peak","name":"Белая гора","lat":55.3237035,"lon":38.7526614,"elevationM":null}]}