{"tileKey":"la_p43_lo_m100","version":"v1-1775891056926","entries":[{"id":"node:357081252","kind":"peak","name":"Bradleyon Butte","lat":43.4863875,"lon":-99.7606708,"elevationM":699},{"id":"node:357084367","kind":"peak","name":"Lewis Hill","lat":43.9530474,"lon":-99.4262161,"elevationM":546},{"id":"node:357084869","kind":"peak","name":"Miller Hill","lat":43.4822201,"lon":-99.8815088,"elevationM":665},{"id":"node:357086115","kind":"peak","name":"Rattlesnake Butte","lat":43.451944,"lon":-99.6565002,"elevationM":695},{"id":"node:357086127","kind":"peak","name":"Red Butte","lat":43.8488818,"lon":-99.715668,"elevationM":600},{"id":"node:357088436","kind":"peak","name":"Twilight Butte","lat":43.5044447,"lon":-99.4598257,"elevationM":666},{"id":"node:357088441","kind":"peak","name":"Twin Butte","lat":43.515278,"lon":-99.2575962,"elevationM":617},{"id":"node:357090551","kind":"peak","name":"Red Rock","lat":43.4319444,"lon":-99.2256515,"elevationM":427},{"id":"node:357094003","kind":"peak","name":"Medicine Butte","lat":43.9666572,"lon":-99.6012206,"elevationM":640},{"id":"node:357099090","kind":"peak","name":"Dog Ear Buttes","lat":43.2563911,"lon":-99.9303962,"elevationM":737},{"id":"node:357100150","kind":"peak","name":"Turtle Butte","lat":43.0627817,"lon":-99.8378941,"elevationM":712}]}