{"tileKey":"la_p48_lo_p2","version":"v1-1775891056926","entries":[{"id":"node:271310225","kind":"peak","name":"Le Mont","lat":48.5208166,"lon":2.3793637,"elevationM":122},{"id":"node:277051726","kind":"peak","name":"Rochers des Princes","lat":48.3708346,"lon":2.7504229,"elevationM":133},{"id":"node:409475713","kind":"peak","name":"Rocher des Étroitures","lat":48.3592641,"lon":2.7127553,"elevationM":null},{"id":"node:419026569","kind":"peak","name":"Rocher Besnard","lat":48.3682624,"lon":2.7785273,"elevationM":107},{"id":"node:465453838","kind":"peak","name":"Rochers de Bourron","lat":48.3414544,"lon":2.6851259,"elevationM":123},{"id":"node:544391434","kind":"peak","name":"Rocher des Demoiselles","lat":48.3794182,"lon":2.6732098,"elevationM":126},{"id":"node:598090866","kind":"peak","name":"Rocher d'Avon","lat":48.3927308,"lon":2.7169046,"elevationM":127},{"id":"node:598634092","kind":"peak","name":"Rocher du Mauvais Passage","lat":48.3799717,"lon":2.6619126,"elevationM":123},{"id":"node:619187921","kind":"peak","name":"Mont Aigu","lat":48.4048716,"lon":2.663426,"elevationM":123},{"id":"node:2471762694","kind":"peak","name":"Le Maunoury","lat":48.3026181,"lon":2.6089094,"elevationM":103},{"id":"node:2587201263","kind":"peak","name":"Mont Pipau","lat":48.6403713,"lon":2.3126347,"elevationM":92},{"id":"node:3955469299","kind":"peak","name":"Roche au Four","lat":48.3889974,"lon":2.5229934,"elevationM":null},{"id":"node:3955469300","kind":"peak","name":"Justice de Chambergeot","lat":48.3941853,"lon":2.5161462,"elevationM":null},{"id":"node:3955469301","kind":"peak","name":"Platière des Marchais","lat":48.3913248,"lon":2.5240876,"elevationM":null},{"id":"node:3955469302","kind":"peak","name":"Pignon des Maquisards","lat":48.388726,"lon":2.529374,"elevationM":null},{"id":"node:3955469303","kind":"peak","name":"Maison Poteau","lat":48.3901154,"lon":2.5346137,"elevationM":null},{"id":"node:3955469304","kind":"peak","name":"Pignon Poteau","lat":48.3898797,"lon":2.5320546,"elevationM":null},{"id":"node:3955469306","kind":"peak","name":"Les Gros sablons","lat":48.384885,"lon":2.5388108,"elevationM":null},{"id":"node:3955469307","kind":"peak","name":"Les Gros sablons Est","lat":48.3846401,"lon":2.5410511,"elevationM":null},{"id":"node:3955469309","kind":"peak","name":"Cimetière aux ânes Pignon Nord","lat":48.3793305,"lon":2.5465048,"elevationM":null},{"id":"node:3955469310","kind":"peak","name":"Rocher de la Tortue Est","lat":48.3761521,"lon":2.5457753,"elevationM":null},{"id":"node:3955469311","kind":"peak","name":"Rocher de la Tortue","lat":48.3759195,"lon":2.5426988,"elevationM":null},{"id":"node:3955469312","kind":"peak","name":"La Grande Montagne","lat":48.370864,"lon":2.5384046,"elevationM":null},{"id":"node:3955469314","kind":"peak","name":"Rocher de la Cathédrale","lat":48.3643497,"lon":2.5340924,"elevationM":null},{"id":"node:3955469315","kind":"peak","name":"J.A. Martin Pignon Nord","lat":48.3623213,"lon":2.5344939,"elevationM":null},{"id":"node:3955469316","kind":"peak","name":"J.A. Martin Pignon Sud","lat":48.3616833,"lon":2.5340487,"elevationM":null},{"id":"node:3955469317","kind":"peak","name":"Rocher Guichot","lat":48.36641,"lon":2.5237079,"elevationM":null},{"id":"node:3955469318","kind":"peak","name":"Justice de Noisy","lat":48.3745087,"lon":2.517695,"elevationM":null},{"id":"node:3955469319","kind":"peak","name":"Mont Pivot Sud","lat":48.3801163,"lon":2.5105913,"elevationM":null},{"id":"node:3955469320","kind":"peak","name":"Rocher du Guetteur","lat":48.382946,"lon":2.5174248,"elevationM":null},{"id":"node:3955469321","kind":"peak","name":"Mont Pivot Nord","lat":48.3814128,"lon":2.5121791,"elevationM":null},{"id":"node:3955469322","kind":"peak","name":"Rocher de Jean des Vignes","lat":48.3839242,"lon":2.521549,"elevationM":null},{"id":"node:3955469323","kind":"peak","name":"Rocher des Souris","lat":48.384836,"lon":2.5228686,"elevationM":null},{"id":"node:4799889279","kind":"peak","name":"Cimetière aux ânes, Pignon Sud","lat":48.3776096,"lon":2.5462985,"elevationM":null},{"id":"node:4799889280","kind":"peak","name":"Pignon des Cassis","lat":48.387834,"lon":2.5365434,"elevationM":null},{"id":"node:4935738838","kind":"peak","name":"Pignon des Poivres","lat":48.3806619,"lon":2.5469271,"elevationM":null},{"id":"node:5127768715","kind":"peak","name":"Le Comptage","lat":48.3825327,"lon":2.5457154,"elevationM":null},{"id":"node:5454361238","kind":"peak","name":"Montagne Sainte-Geneviève","lat":48.8446766,"lon":2.3472341,"elevationM":61},{"id":"node:5750235701","kind":"peak","name":"Pyramide","lat":48.9831057,"lon":2.5152522,"elevationM":null},{"id":"node:5916129424","kind":"peak","name":"Point Culminant de l’Essonne","lat":48.6569648,"lon":2.0838482,"elevationM":182},{"id":"node:6288774453","kind":"peak","name":"Belleville","lat":48.8744185,"lon":2.3994029,"elevationM":129},{"id":"node:7666960943","kind":"peak","name":"Châteauveau","lat":48.3926521,"lon":2.5179905,"elevationM":null},{"id":"node:7850282452","kind":"peak","name":"Rocher de Samois","lat":48.4515267,"lon":2.7423587,"elevationM":null},{"id":"node:7937597807","kind":"peak","name":"Rocher de Corne-Biche","lat":48.3999522,"lon":2.5775151,"elevationM":127},{"id":"node:8296510886","kind":"peak","name":"Rocher de Samoreau","lat":48.4171267,"lon":2.7659267,"elevationM":null},{"id":"node:8297532570","kind":"peak","name":"Rocher Saint-Étienne","lat":48.3136076,"lon":2.6475234,"elevationM":125},{"id":"node:8315564101","kind":"peak","name":"Côte du Banc","lat":48.0488751,"lon":2.8019364,"elevationM":106},{"id":"node:8331647049","kind":"peak","name":"Mont-Mesly","lat":48.773986,"lon":2.4716882,"elevationM":74},{"id":"node:8564944755","kind":"peak","name":"Butte de Montassis","lat":48.9866873,"lon":2.8457483,"elevationM":163},{"id":"node:8740180394","kind":"peak","name":"Butte aux Papillons","lat":48.8563619,"lon":2.4531938,"elevationM":null},{"id":"node:9219085588","kind":"peak","name":"Rocher Pierre-Margot","lat":48.4586142,"lon":2.6820734,"elevationM":102},{"id":"node:9219102114","kind":"peak","name":"Butte Saint-Louis","lat":48.4519951,"lon":2.6884269,"elevationM":122},{"id":"node:9221620406","kind":"peak","name":"Mont Saint-Germain","lat":48.4455196,"lon":2.6796511,"elevationM":137},{"id":"node:9221620407","kind":"peak","name":"Monts de Truies","lat":48.4487418,"lon":2.6741101,"elevationM":138},{"id":"node:9227618974","kind":"peak","name":"Petit Rocher","lat":48.4580305,"lon":2.6893776,"elevationM":100},{"id":"node:9306705687","kind":"peak","name":"Mont Simonet","lat":48.2999678,"lon":2.5943307,"elevationM":96},{"id":"node:9358740438","kind":"peak","name":"Rocher de la Dame Jouanne","lat":48.303416,"lon":2.6029739,"elevationM":110},{"id":"node:9407296616","kind":"peak","name":"Mont Enflammé","lat":48.3852496,"lon":2.651486,"elevationM":123},{"id":"node:9444248576","kind":"peak","name":"Côte des Bruyères","lat":48.0202638,"lon":2.8324046,"elevationM":null},{"id":"node:9444248577","kind":"peak","name":"Côte des Lorrains","lat":48.025235,"lon":2.8270706,"elevationM":null},{"id":"node:9444248578","kind":"peak","name":"Côte dite de \"Jojo\"","lat":48.0344261,"lon":2.8170583,"elevationM":null},{"id":"node:9444248579","kind":"peak","name":"Côte du Chêne Gaulé","lat":48.0402218,"lon":2.8108885,"elevationM":null},{"id":"node:9444248580","kind":"peak","name":"Côte Walter","lat":48.0442134,"lon":2.8082636,"elevationM":null},{"id":"node:9444248581","kind":"peak","name":"Côte dite \"PAW\" Perpendiculaire à la Walter","lat":48.0443851,"lon":2.8064356,"elevationM":null},{"id":"node:9444248582","kind":"peak","name":"Côte dite \"La Mélissa\"","lat":48.0462723,"lon":2.7980992,"elevationM":null},{"id":"node:9444248589","kind":"peak","name":"Le \"Raidar\"","lat":48.0443684,"lon":2.8015022,"elevationM":null},{"id":"node:9467780282","kind":"peak","name":"Butte aux Loups","lat":48.0547101,"lon":2.0662712,"elevationM":null},{"id":"node:9467834327","kind":"peak","name":"Butte Montgrolle","lat":48.0421657,"lon":2.0954341,"elevationM":null},{"id":"node:9467867301","kind":"peak","name":"Butte de Foulaubin","lat":48.0252437,"lon":2.2724491,"elevationM":null},{"id":"node:9467963227","kind":"peak","name":"Montaubry","lat":48.008277,"lon":2.5836543,"elevationM":null},{"id":"node:9467995915","kind":"peak","name":"Haut de Chevry","lat":48.0084753,"lon":2.6229745,"elevationM":null},{"id":"node:9467998457","kind":"peak","name":"Haut des Vigneaux","lat":48.0194928,"lon":2.6294554,"elevationM":null},{"id":"node:9468027081","kind":"peak","name":"Mont Servée","lat":48.0087058,"lon":2.5891507,"elevationM":null},{"id":"node:9468028062","kind":"peak","name":"Les Grattereaux","lat":48.0797063,"lon":2.4648263,"elevationM":null},{"id":"node:9468031544","kind":"peak","name":"Montgenois","lat":48.0428089,"lon":2.4560228,"elevationM":null},{"id":"node:9468051787","kind":"peak","name":"Butte de l'Ormeteau","lat":48.1033637,"lon":2.3977744,"elevationM":null},{"id":"node:9468069189","kind":"peak","name":"Le Haut de Chaumont","lat":48.1071527,"lon":2.5174028,"elevationM":null},{"id":"node:9468071067","kind":"peak","name":"Butte Chaumont","lat":48.087393,"lon":2.4019157,"elevationM":null},{"id":"node:9468073289","kind":"peak","name":"La Butte","lat":48.093847,"lon":2.4596863,"elevationM":null},{"id":"node:9468090521","kind":"peak","name":"Butte de la Timbre","lat":48.1156916,"lon":2.5312642,"elevationM":null},{"id":"node:9468122563","kind":"peak","name":"Montéteton","lat":48.0742315,"lon":2.5986831,"elevationM":null},{"id":"node:9468124828","kind":"peak","name":"Mont Balby","lat":48.0789609,"lon":2.5126631,"elevationM":null},{"id":"node:9468133011","kind":"peak","name":"Le Haut des Houis","lat":48.1013108,"lon":2.6275737,"elevationM":null},{"id":"node:9468137521","kind":"peak","name":"Le Mont aux Liens","lat":48.0739063,"lon":2.6400754,"elevationM":null},{"id":"node:9468403312","kind":"peak","name":"Montagne de Bromerolle","lat":48.1878832,"lon":2.4781337,"elevationM":null},{"id":"node:9468428846","kind":"peak","name":"La Montagne","lat":48.1550828,"lon":2.460764,"elevationM":null},{"id":"node:9468431944","kind":"peak","name":"Montagne du Grand Bardilly","lat":48.2189711,"lon":2.4751778,"elevationM":null},{"id":"node:9468432765","kind":"peak","name":"Butte aux Lapins","lat":48.2182082,"lon":2.402104,"elevationM":null},{"id":"node:9468442486","kind":"peak","name":"Grande Montagne","lat":48.1962583,"lon":2.496286,"elevationM":null},{"id":"node:9468443201","kind":"peak","name":"Montagne de la Justice","lat":48.1901179,"lon":2.4166988,"elevationM":null},{"id":"node:9468444349","kind":"peak","name":"Butte Jaune","lat":48.1853901,"lon":2.4804674,"elevationM":null},{"id":"node:9468456059","kind":"peak","name":"Butte de Chaumont","lat":48.3133674,"lon":2.4231155,"elevationM":null},{"id":"node:9468458121","kind":"peak","name":"Montagne des Justices","lat":48.211595,"lon":2.3924898,"elevationM":120},{"id":"node:9470674739","kind":"peak","name":"Le Mont Ardent","lat":48.0786342,"lon":2.6952547,"elevationM":null},{"id":"node:9470675545","kind":"peak","name":"Les Bléveaux","lat":48.0131517,"lon":2.8677285,"elevationM":null},{"id":"node:9470692724","kind":"peak","name":"Montalin","lat":48.0846692,"lon":2.633494,"elevationM":null},{"id":"node:9471419765","kind":"peak","name":"Butte de Châtillon","lat":48.3363357,"lon":2.3822399,"elevationM":null},{"id":"node:9471431896","kind":"peak","name":"Butte de Champmotteux","lat":48.3462969,"lon":2.3452663,"elevationM":null},{"id":"node:9500529646","kind":"peak","name":"Les Longs Réages","lat":48.2233,"lon":2.6436158,"elevationM":null},{"id":"node:9502203648","kind":"peak","name":"Mont Échelé","lat":48.2564851,"lon":2.6707932,"elevationM":null},{"id":"node:9502218312","kind":"peak","name":"Le Pain de Sucre","lat":48.2518894,"lon":2.7100637,"elevationM":null},{"id":"node:9502238995","kind":"peak","name":"Les Buttes","lat":48.3188638,"lon":2.4968482,"elevationM":null},{"id":"node:9502239861","kind":"peak","name":"Butte à Besnard","lat":48.4309108,"lon":2.3006325,"elevationM":null},{"id":"node:9502246608","kind":"peak","name":"Monts Gaillards","lat":48.24636,"lon":2.6743495,"elevationM":null},{"id":"node:9502246609","kind":"peak","name":"Mont Sarrasin","lat":48.2688517,"lon":2.6465895,"elevationM":null},{"id":"node:9502247761","kind":"peak","name":"Butte Ronde","lat":48.338358,"lon":2.5021273,"elevationM":null},{"id":"node:9502247771","kind":"peak","name":"Mont Saint-Jean","lat":48.4099725,"lon":2.3720151,"elevationM":null},{"id":"node:9502249811","kind":"peak","name":"Le Comard","lat":48.4017993,"lon":2.3755068,"elevationM":null},{"id":"node:9502250022","kind":"peak","name":"Le Belvédère","lat":48.253175,"lon":2.689796,"elevationM":null},{"id":"node:9502254922","kind":"peak","name":"Butte de Châtillon","lat":48.394626,"lon":2.4449308,"elevationM":null},{"id":"node:9502270637","kind":"peak","name":"La Butte","lat":48.2534424,"lon":2.6426751,"elevationM":null},{"id":"node:9502284898","kind":"peak","name":"Butte de l'Église","lat":48.3150387,"lon":2.5059628,"elevationM":null},{"id":"node:9502288956","kind":"peak","name":"Butte Saint-Martin","lat":48.4382316,"lon":2.2834676,"elevationM":null},{"id":"node:9502291954","kind":"peak","name":"Mont d'Olivet","lat":48.2573799,"lon":2.7083115,"elevationM":null},{"id":"node:9502297628","kind":"peak","name":"Pointe Mieroslawski","lat":48.2551053,"lon":2.7168056,"elevationM":null},{"id":"node:9502304230","kind":"peak","name":"Montatout","lat":48.4219637,"lon":2.3981048,"elevationM":null},{"id":"node:9502312247","kind":"peak","name":"Butte Noire","lat":48.4125091,"lon":2.3042099,"elevationM":null},{"id":"node:9502312265","kind":"peak","name":"Butte Ronde","lat":48.418822,"lon":2.406488,"elevationM":null},{"id":"node:9502317156","kind":"peak","name":"Moulantier","lat":48.433101,"lon":2.3832708,"elevationM":null},{"id":"node:9502318179","kind":"peak","name":"Butte Monceau","lat":48.4103758,"lon":2.4796684,"elevationM":null},{"id":"node:9502324961","kind":"peak","name":"Butte Blanche","lat":48.4136876,"lon":2.3088014,"elevationM":null},{"id":"node:9502325393","kind":"peak","name":"Butte à Mercier","lat":48.4168158,"lon":2.2646772,"elevationM":null},{"id":"node:9502329722","kind":"peak","name":"Mont Grippon","lat":48.3834372,"lon":2.4584987,"elevationM":null},{"id":"node:9502330288","kind":"peak","name":"Butte de Coignampuits","lat":48.4154081,"lon":2.3309892,"elevationM":null},{"id":"node:9502332331","kind":"peak","name":"Butte Jiguet","lat":48.4403195,"lon":2.3498223,"elevationM":null},{"id":"node:9502338730","kind":"peak","name":"Butte Ronde","lat":48.37899,"lon":2.3971771,"elevationM":null},{"id":"node:9502348861","kind":"peak","name":"Petit Mont Chauvet","lat":48.3871697,"lon":2.7043054,"elevationM":null},{"id":"node:9502353053","kind":"peak","name":"La Guimont","lat":48.3706533,"lon":2.466026,"elevationM":null},{"id":"node:9502353633","kind":"peak","name":"Le Chapeau de Napoléon","lat":48.4049394,"lon":2.5391183,"elevationM":null},{"id":"node:9502354041","kind":"peak","name":"Mont Chauvet","lat":48.4279515,"lon":2.6833978,"elevationM":null},{"id":"node:9502360164","kind":"peak","name":"Butte des Audigers","lat":48.4156489,"lon":2.4303479,"elevationM":null},{"id":"node:9502361454","kind":"peak","name":"Mont Rouget","lat":48.3779279,"lon":2.5562349,"elevationM":null},{"id":"node:9502363759","kind":"peak","name":"Hauteurs de la Solle","lat":48.4355382,"lon":2.6682613,"elevationM":null},{"id":"node:9502364261","kind":"peak","name":"Le Montrouget","lat":48.422896,"lon":2.5093243,"elevationM":null},{"id":"node:9502371072","kind":"peak","name":"Mont Solut","lat":48.3900571,"lon":2.5005086,"elevationM":null},{"id":"node:9502372271","kind":"peak","name":"Tartibois","lat":48.4388821,"lon":2.4390779,"elevationM":null},{"id":"node:9502380253","kind":"peak","name":"Mont Ussy","lat":48.4269861,"lon":2.6964534,"elevationM":null},{"id":"node:9502391783","kind":"peak","name":"Mont Merle","lat":48.378311,"lon":2.7110321,"elevationM":null},{"id":"node:9502395175","kind":"peak","name":"Haut Mont","lat":48.3607102,"lon":2.7505312,"elevationM":null},{"id":"node:9502396495","kind":"peak","name":"Mont Aiveu","lat":48.3642904,"lon":2.7498432,"elevationM":null},{"id":"node:9502400901","kind":"peak","name":"Monts Girards","lat":48.4295809,"lon":2.6293989,"elevationM":null},{"id":"node:9502406283","kind":"peak","name":"Mont Andart","lat":48.4024515,"lon":2.740801,"elevationM":null},{"id":"node:9509969638","kind":"peak","name":"Butte à Voisin","lat":48.3311683,"lon":2.7888614,"elevationM":null},{"id":"node:9510000498","kind":"peak","name":"Montagne Berthier","lat":48.2654134,"lon":2.7894401,"elevationM":null},{"id":"node:9523840439","kind":"peak","name":"Butte à Poisard","lat":48.4866377,"lon":2.0603589,"elevationM":null},{"id":"node:9523841698","kind":"peak","name":"Les Hauts de Chanuel","lat":48.4928738,"lon":2.0441903,"elevationM":null},{"id":"node:9524683502","kind":"peak","name":"Les Monteaux","lat":48.4590556,"lon":2.3310122,"elevationM":null},{"id":"node:9524687467","kind":"peak","name":"Butte à Beauchose","lat":48.4621359,"lon":2.1443639,"elevationM":null},{"id":"node:9524698255","kind":"peak","name":"Butte aux Loups","lat":48.4535147,"lon":2.1290695,"elevationM":null},{"id":"node:9524702664","kind":"peak","name":"Butte Saint-Martin","lat":48.4803214,"lon":2.1872153,"elevationM":null},{"id":"node:9524703452","kind":"peak","name":"Butte Bondas","lat":48.4970431,"lon":2.0698403,"elevationM":null},{"id":"node:9524704591","kind":"peak","name":"Butte au Tardif","lat":48.481027,"lon":2.1153705,"elevationM":null},{"id":"node:9524709845","kind":"peak","name":"Butte Hébert","lat":48.4626664,"lon":2.3084909,"elevationM":null},{"id":"node:9524712038","kind":"peak","name":"Butte Blanche","lat":48.477063,"lon":2.2581694,"elevationM":null},{"id":"node:9524715732","kind":"peak","name":"Butte Chaumont","lat":48.4718816,"lon":2.3088106,"elevationM":null},{"id":"node:9524754288","kind":"peak","name":"Butte aux Moines","lat":48.5067716,"lon":2.0196658,"elevationM":null},{"id":"node:9524777313","kind":"peak","name":"Butte à la Bredolle","lat":48.5038971,"lon":2.017154,"elevationM":null},{"id":"node:9524778853","kind":"peak","name":"La Bosse","lat":48.5290045,"lon":2.1054484,"elevationM":null},{"id":"node:9524787749","kind":"peak","name":"Butte aux Bergers","lat":48.5214502,"lon":2.0862654,"elevationM":null},{"id":"node:9524789205","kind":"peak","name":"La Butte","lat":48.6124512,"lon":2.1812111,"elevationM":null},{"id":"node:9524791579","kind":"peak","name":"Butte Saint-Nicolas","lat":48.5598294,"lon":2.1398865,"elevationM":null},{"id":"node:9524792472","kind":"peak","name":"Butte à la Blotte","lat":48.5300643,"lon":2.0871041,"elevationM":null},{"id":"node:9524794648","kind":"peak","name":"Normont","lat":48.5199711,"lon":2.0107357,"elevationM":null},{"id":"node:9524802242","kind":"peak","name":"Butte d'Armon","lat":48.5752461,"lon":2.0405186,"elevationM":null},{"id":"node:9524808615","kind":"peak","name":"Butte à Faucheux","lat":48.5537911,"lon":2.1911618,"elevationM":146},{"id":"node:9524809157","kind":"peak","name":"Mont Durand","lat":48.4954982,"lon":2.3896558,"elevationM":null},{"id":"node:9524812258","kind":"peak","name":"Butte de Graffard","lat":48.6008213,"lon":2.1760681,"elevationM":null},{"id":"node:9524820099","kind":"peak","name":"Calvart","lat":48.4602706,"lon":2.4300587,"elevationM":null},{"id":"node:9524834249","kind":"peak","name":"Butte d'Écharcon","lat":48.5744243,"lon":2.3946293,"elevationM":null},{"id":"node:9524836003","kind":"peak","name":"Butte de Braseux","lat":48.5872681,"lon":2.3802776,"elevationM":null},{"id":"node:9524842917","kind":"peak","name":"Tertre Noir","lat":48.4840405,"lon":2.48083,"elevationM":null},{"id":"node:9524849377","kind":"peak","name":"Butte de Ville Pierreuse","lat":48.5510561,"lon":2.1005585,"elevationM":null},{"id":"node:9524849823","kind":"peak","name":"La Butte aux Prévosts","lat":48.5557248,"lon":2.4651842,"elevationM":null},{"id":"node:9524927911","kind":"peak","name":"Mont de Fillon","lat":48.499477,"lon":2.3776487,"elevationM":null},{"id":"node:9524929911","kind":"peak","name":"Butte aux Loups","lat":48.5245724,"lon":2.1294904,"elevationM":null},{"id":"node:9524953860","kind":"peak","name":"Butte de Montaubert","lat":48.5973372,"lon":2.3781038,"elevationM":null},{"id":"node:9524957761","kind":"peak","name":"Butte aux Loups","lat":48.605896,"lon":2.0463215,"elevationM":null},{"id":"node:9524962716","kind":"peak","name":"La Petite Montagne","lat":48.4834041,"lon":2.3004879,"elevationM":null},{"id":"node:9524968488","kind":"peak","name":"Butte des Locandries","lat":48.5367718,"lon":2.1055503,"elevationM":null},{"id":"node:9524970713","kind":"peak","name":"Butte Rouge","lat":48.6189661,"lon":2.0897966,"elevationM":null},{"id":"node:9524973461","kind":"peak","name":"La Coupe","lat":48.4874423,"lon":2.4080006,"elevationM":null},{"id":"node:9524974494","kind":"peak","name":"Butte des Pins","lat":48.5802147,"lon":2.1131196,"elevationM":null},{"id":"node:9524975058","kind":"peak","name":"Butte aux Cordonniers","lat":48.4919233,"lon":2.3462244,"elevationM":null},{"id":"node:9524988130","kind":"peak","name":"Butte du Moulin à Vent","lat":48.6467713,"lon":2.2815718,"elevationM":null},{"id":"node:9524989449","kind":"peak","name":"La Roche Turpin","lat":48.6149304,"lon":2.186599,"elevationM":null},{"id":"node:9524990296","kind":"peak","name":"Butte au Tonnerre","lat":48.6141642,"lon":2.0567408,"elevationM":null},{"id":"node:9525004796","kind":"peak","name":"Butte des Hauts Fresnais","lat":48.6634148,"lon":2.2817431,"elevationM":null},{"id":"node:9525007964","kind":"peak","name":"Mont Louvet","lat":48.6071832,"lon":2.1806573,"elevationM":null},{"id":"node:9559934102","kind":"peak","name":"Le Mont","lat":48.3925019,"lon":2.9087186,"elevationM":null},{"id":"node:9572345495","kind":"peak","name":"Rocher Couradin","lat":48.447328,"lon":2.5776476,"elevationM":null},{"id":"node:9572349876","kind":"peak","name":"Roches Moreau","lat":48.4548388,"lon":2.5972252,"elevationM":null},{"id":"node:9572378846","kind":"peak","name":"Monts de Fay","lat":48.4514005,"lon":2.6506451,"elevationM":null},{"id":"node:9572381120","kind":"peak","name":"Le Grand Rocher","lat":48.4483898,"lon":2.5684353,"elevationM":null},{"id":"node:9580011606","kind":"peak","name":"Butte Montmartre","lat":48.8869202,"lon":2.3417173,"elevationM":131},{"id":"node:9666234856","kind":"peak","name":"Mont Blanc","lat":48.2927451,"lon":2.5806445,"elevationM":112},{"id":"node:10124085874","kind":"peak","name":"Butte des Vignes","lat":48.7108119,"lon":2.0489743,"elevationM":null},{"id":"node:10196722054","kind":"peak","name":"Ante Pivot","lat":48.3836045,"lon":2.5151514,"elevationM":null},{"id":"node:10196722055","kind":"peak","name":"Rocher Cailleau","lat":48.3610653,"lon":2.5390821,"elevationM":null},{"id":"node:10196722056","kind":"peak","name":"La Grande Montagne Dalle","lat":48.3722097,"lon":2.5400262,"elevationM":null},{"id":"node:10558967512","kind":"peak","name":"Côte \"Zaza\"","lat":48.0482812,"lon":2.8039794,"elevationM":null},{"id":"node:11500714557","kind":"peak","name":"Butte de Tubœuf","lat":48.7031045,"lon":2.6152418,"elevationM":null},{"id":"node:11646934468","kind":"peak","name":"Mont Griffon","lat":48.7222422,"lon":2.482721,"elevationM":118},{"id":"node:11778818323","kind":"peak","name":"Massif d'Ingrannes","lat":48.0128566,"lon":2.2248958,"elevationM":148},{"id":"node:12090388227","kind":"peak","name":"Mont Chalats","lat":48.8848103,"lon":2.5940894,"elevationM":102},{"id":"node:12947671661","kind":"peak","name":"Col du Manet","lat":48.7625325,"lon":2.0217984,"elevationM":170},{"id":"node:13361343878","kind":"peak","name":"Montagne du Nord","lat":48.8637639,"lon":2.7729183,"elevationM":null}]}