{"tileKey":"la_p5_lo_m68","version":"v1-1775891056926","entries":[{"id":"node:618029703","kind":"peak","name":"Cerro Buena Vista","lat":5.024167,"lon":-67.835833,"elevationM":180},{"id":"node:618030460","kind":"peak","name":"Loma de Casuarito","lat":5.6613315,"lon":-67.6700775,"elevationM":250},{"id":"node:703517981","kind":"peak","name":"Cerros de Cachicamo","lat":5.5079797,"lon":-67.6754894,"elevationM":338},{"id":"node:703517985","kind":"peak","name":"Cerros Del Tambor","lat":5.4299723,"lon":-67.8026976,"elevationM":84},{"id":"node:703517986","kind":"peak","name":"Cerro El Tambor","lat":5.4353114,"lon":-67.7881339,"elevationM":83},{"id":"node:703518049","kind":"peak","name":"Lomas La Hormiga","lat":5.9834707,"lon":-67.5875021,"elevationM":130},{"id":"node:2746747164","kind":"peak","name":"Piedra La Tortuga","lat":5.5659866,"lon":-67.5946455,"elevationM":355},{"id":"node:2746770515","kind":"peak","name":"Cerro Dagua","lat":5.7685073,"lon":-67.6454925,"elevationM":93},{"id":"node:5294034155","kind":"peak","name":"Cerro Perico","lat":5.6626159,"lon":-67.6300582,"elevationM":null},{"id":"node:6277609720","kind":"peak","name":"Cerro Tomás","lat":5.3286946,"lon":-67.8509506,"elevationM":200},{"id":"node:6279150715","kind":"peak","name":"Cerro Maypures","lat":5.2420843,"lon":-67.8543225,"elevationM":192},{"id":"node:9330967412","kind":"peak","name":"Piedra Pintada","lat":5.5377157,"lon":-67.5469923,"elevationM":null},{"id":"node:9331054728","kind":"peak","name":"Piedra La Cabeza","lat":5.5712888,"lon":-67.6054645,"elevationM":null},{"id":"node:10683893757","kind":"peak","name":"Piedra Sisor","lat":5.6953248,"lon":-67.607492,"elevationM":null},{"id":"node:12715066040","kind":"peak","name":"Cerro Guáripa","lat":5.9602778,"lon":-67.4888889,"elevationM":199},{"id":"node:13285504364","kind":"peak","name":"Cerro El Pelón","lat":5.6529389,"lon":-67.6234701,"elevationM":null},{"id":"node:13318420851","kind":"peak","name":"Piedra Wabonuré","lat":5.8588866,"lon":-67.0707607,"elevationM":560},{"id":"node:13318420852","kind":"peak","name":"Piedra Kerayeté","lat":5.9806712,"lon":-67.0730138,"elevationM":310},{"id":"node:13318420877","kind":"peak","name":"Piedra Wakasiné","lat":5.9421149,"lon":-67.0579425,"elevationM":450},{"id":"node:13318420878","kind":"peak","name":"Piedra Los Domos","lat":5.9976156,"lon":-67.1215242,"elevationM":720},{"id":"node:13318420879","kind":"peak","name":"Piedra Meyariné","lat":5.9219833,"lon":-67.1683073,"elevationM":560},{"id":"node:13318420880","kind":"peak","name":"Piedra Wokurisé","lat":5.9715532,"lon":-67.1470589,"elevationM":750},{"id":"node:13318420887","kind":"peak","name":"Cerro Korikuré","lat":5.8742979,"lon":-67.1437597,"elevationM":380},{"id":"node:13318420888","kind":"peak","name":"Piedra Wawosiné","lat":5.8776704,"lon":-67.1911222,"elevationM":610},{"id":"node:13318420889","kind":"peak","name":"Piedra Jayurité","lat":5.8165887,"lon":-67.2266266,"elevationM":760},{"id":"node:13318420890","kind":"peak","name":"Piedra Wekanurí","lat":5.7347163,"lon":-67.1892178,"elevationM":800},{"id":"node:13318420891","kind":"peak","name":"Cerro Keburime","lat":5.7489675,"lon":-67.1011877,"elevationM":840},{"id":"node:13318420892","kind":"peak","name":"Piedra Pailón","lat":5.7043234,"lon":-67.1802391,"elevationM":950},{"id":"node:13318420893","kind":"peak","name":"Piedra Yumene","lat":5.7181109,"lon":-67.0984572,"elevationM":1010},{"id":"node:13318420896","kind":"peak","name":"Cerro Wotumayé","lat":5.6275439,"lon":-67.0113337,"elevationM":910},{"id":"node:13318420897","kind":"peak","name":"Cerro Womitaké","lat":5.7957855,"lon":-67.1666551,"elevationM":560},{"id":"node:13318420898","kind":"peak","name":"Piedra Junitoré","lat":5.944796,"lon":-67.0979691,"elevationM":490},{"id":"node:13318446931","kind":"peak","name":"Piedra Sekurané","lat":5.6687081,"lon":-67.0617485,"elevationM":1090},{"id":"node:13318446932","kind":"peak","name":"Cerro Cuenta","lat":5.6805828,"lon":-67.0183075,"elevationM":930},{"id":"node:13318446933","kind":"peak","name":"Cerro Toramuké","lat":5.7598558,"lon":-67.0389605,"elevationM":760},{"id":"node:13318446934","kind":"peak","name":"Piedra Womeruté","lat":5.8355981,"lon":-67.0233822,"elevationM":950},{"id":"node:13318446935","kind":"peak","name":"Piedra Tunemiká","lat":5.8463887,"lon":-67.1457338,"elevationM":610},{"id":"node:13318446936","kind":"peak","name":"Piedra Sikumaké","lat":5.9026354,"lon":-67.093573,"elevationM":620},{"id":"node:13318446937","kind":"peak","name":"Cerro Kimuriké","lat":5.8862724,"lon":-67.0124335,"elevationM":540},{"id":"node:13318446939","kind":"peak","name":"Piedra Pavón","lat":5.9796041,"lon":-67.0466423,"elevationM":470},{"id":"node:13319277130","kind":"peak","name":"Piedra Sinarené","lat":5.7208305,"lon":-67.1422926,"elevationM":940},{"id":"node:13320291554","kind":"peak","name":"Cerro El Espejo","lat":5.7512733,"lon":-67.3000145,"elevationM":null},{"id":"node:13321852207","kind":"peak","name":"Cerro El Espejo","lat":5.9262919,"lon":-67.2117162,"elevationM":610},{"id":"node:13641089544","kind":"peak","name":"Piedra Korubo","lat":5.8811817,"lon":-67.1159291,"elevationM":300},{"id":"node:13641110737","kind":"peak","name":"Piedra Tumikita","lat":5.8550871,"lon":-67.1479011,"elevationM":600},{"id":"node:13641130104","kind":"peak","name":"Piedra Wakirú","lat":5.7966074,"lon":-67.0552468,"elevationM":760},{"id":"node:13641157236","kind":"peak","name":"Piedra Kurenay","lat":5.8191504,"lon":-67.0397008,"elevationM":700},{"id":"node:13641191047","kind":"peak","name":"Cerro Oribal","lat":5.8070358,"lon":-67.0918751,"elevationM":680},{"id":"node:13641209371","kind":"peak","name":"Piedra Zimbara","lat":5.9226636,"lon":-67.0546675,"elevationM":490},{"id":"node:13641280203","kind":"peak","name":"Piedra Jarené","lat":5.9314195,"lon":-67.09997,"elevationM":390},{"id":"node:13641280204","kind":"peak","name":"Piedra Sinukara","lat":5.9229197,"lon":-67.0908988,"elevationM":620},{"id":"node:13641316718","kind":"peak","name":"Piedra Kamirí","lat":5.97548,"lon":-67.1370274,"elevationM":680},{"id":"node:13641357024","kind":"peak","name":"Piedra Dawachí","lat":5.9521963,"lon":-67.1433896,"elevationM":760},{"id":"node:13641357025","kind":"peak","name":"Piedra Jarunú","lat":5.9368779,"lon":-67.1476436,"elevationM":480},{"id":"node:13641357026","kind":"peak","name":"Piedra Surachí","lat":5.9290505,"lon":-67.1493816,"elevationM":580},{"id":"node:13641357028","kind":"peak","name":"Piedra Chimerá","lat":5.8780973,"lon":-67.0953942,"elevationM":590},{"id":"node:13641357029","kind":"peak","name":"Piedra Chakaré","lat":5.9109781,"lon":-67.1156931,"elevationM":350},{"id":"node:13641357064","kind":"peak","name":"Piedra Makachí","lat":5.9580707,"lon":-67.1039665,"elevationM":430},{"id":"node:13641357065","kind":"peak","name":"Piedra Balona","lat":5.9559579,"lon":-67.1241582,"elevationM":180},{"id":"node:13641357103","kind":"peak","name":"Piedra Tawanú","lat":5.9548908,"lon":-67.1141052,"elevationM":360},{"id":"node:13641483256","kind":"peak","name":"Cerro Yosineru","lat":5.6892491,"lon":-67.0623064,"elevationM":920},{"id":"node:13641483257","kind":"peak","name":"Piedra Wakachú","lat":5.7021989,"lon":-67.1672237,"elevationM":960},{"id":"node:13647861261","kind":"peak","name":"Piedra Tureke","lat":5.8173466,"lon":-67.0061517,"elevationM":620},{"id":"node:13647890997","kind":"peak","name":"Piedra Jeliwonari","lat":5.8402303,"lon":-67.1872759,"elevationM":620},{"id":"node:13647890998","kind":"peak","name":"Piedra Temuriko","lat":5.8175174,"lon":-67.1464634,"elevationM":280},{"id":"node:13647892223","kind":"peak","name":"Piedra Shuwapira","lat":5.8288846,"lon":-67.1608186,"elevationM":420},{"id":"node:13647892224","kind":"peak","name":"Piedra Warinake","lat":5.8927717,"lon":-67.1575678,"elevationM":330},{"id":"node:13647892225","kind":"peak","name":"Piedra Yarukara","lat":5.8955571,"lon":-67.1766007,"elevationM":500},{"id":"node:13647892405","kind":"peak","name":"Piedra Kuwinara","lat":5.8507592,"lon":-67.1924204,"elevationM":680},{"id":"node:13647892522","kind":"peak","name":"Piedra Jeyunako","lat":5.8060111,"lon":-67.1989596,"elevationM":720},{"id":"node:13647892544","kind":"peak","name":"Piedra La Majía","lat":5.7088125,"lon":-67.2322458,"elevationM":590},{"id":"node:13647892545","kind":"peak","name":"Piedra Rukanita","lat":5.7222049,"lon":-67.2210181,"elevationM":660},{"id":"node:13647892588","kind":"peak","name":"Piedra Gorimake","lat":5.7674881,"lon":-67.1393824,"elevationM":690},{"id":"node:13647892644","kind":"peak","name":"Piedra Kurunera","lat":5.889442,"lon":-67.055279,"elevationM":480},{"id":"node:13647892645","kind":"peak","name":"Piedra Periplo","lat":5.8496866,"lon":-67.0636797,"elevationM":480},{"id":"node:13647892657","kind":"peak","name":"Piedra Belurima","lat":5.8819927,"lon":-67.0274592,"elevationM":480},{"id":"node:13647937453","kind":"peak","name":"Piedra Temaruno","lat":5.9210202,"lon":-67.0315361,"elevationM":540},{"id":"node:13647937454","kind":"peak","name":"Piedra Nayupira","lat":5.8616936,"lon":-67.0198953,"elevationM":390},{"id":"node:13647937455","kind":"peak","name":"Piedra Arutake","lat":5.8550284,"lon":-67.0059156,"elevationM":470},{"id":"node:13648321850","kind":"peak","name":"Piedra Wayuyara","lat":5.789253,"lon":-67.1215832,"elevationM":610},{"id":"node:13648321851","kind":"peak","name":"Piedra Kawurino","lat":5.8070838,"lon":-67.1034247,"elevationM":560},{"id":"node:13648321872","kind":"peak","name":"Piedra Ewinora","lat":5.8126395,"lon":-67.1120024,"elevationM":480},{"id":"node:13648380628","kind":"peak","name":"Piedra Malina","lat":5.9336072,"lon":-67.1291363,"elevationM":160},{"id":"node:13648380658","kind":"peak","name":"Piedra Temaraki","lat":5.8526377,"lon":-67.1017081,"elevationM":290}]}