{"tileKey":"la_p42_lo_p71","version":"v1-1775891056926","entries":[{"id":"node:1532529409","kind":"peak","name":"Манас","lat":42.3218934,"lon":71.0214711,"elevationM":4484},{"id":"node:2594926525","kind":"peak","name":"Шавур-Сай","lat":42.2015359,"lon":71.1226018,"elevationM":4319},{"id":"node:2595063205","kind":"peak","name":"Пик Ильяса Тухватуллина","lat":42.1826651,"lon":71.2484802,"elevationM":4396},{"id":"node:2595079046","kind":"peak","name":"Истиклол 4387м","lat":42.1551524,"lon":71.0121621,"elevationM":null},{"id":"node:3546165379","kind":"peak","name":"Кара-Күмүш","lat":42.4857082,"lon":71.1415471,"elevationM":1523},{"id":"node:5578960408","kind":"peak","name":"Кумыштаг","lat":42.2633056,"lon":71.7960306,"elevationM":4251},{"id":"node:5578960410","kind":"peak","name":"Бакайыр-Чоку","lat":42.2668028,"lon":71.2713972,"elevationM":4455}]}