{"tileKey":"la_p58_lo_m130","version":"v1-1775891056926","entries":[{"id":"node:7573074021","kind":"volcano","name":"Dark Mountain","lat":58.6357452,"lon":-129.4406571,"elevationM":1974},{"id":"node:7573079554","kind":"volcano","name":"Enid Creek Cone","lat":58.3799564,"lon":-129.5199115,"elevationM":null},{"id":"node:7573091085","kind":"volcano","name":"Dome Mountain","lat":58.4559272,"lon":-129.6365624,"elevationM":2031},{"id":"node:10938490851","kind":"peak","name":"Pyramid Mountain","lat":58.8886088,"lon":-129.8456726,"elevationM":1874},{"id":"node:10938528253","kind":"peak","name":"Mount Dalton","lat":58.9663229,"lon":-129.5191804,"elevationM":2117},{"id":"node:10938534675","kind":"peak","name":"Spike Mountain","lat":58.851039,"lon":-129.8753823,"elevationM":1972},{"id":"node:10938539482","kind":"peak","name":"Chickens Neck Mountain","lat":58.9023195,"lon":-129.9090227,"elevationM":1834},{"id":"node:10938539972","kind":"peak","name":"Anvil Mountain (South Summit)","lat":58.9914348,"lon":-129.9228701,"elevationM":1968},{"id":"node:10938560058","kind":"peak","name":"Sphinx Mountain","lat":58.9027572,"lon":-129.7329711,"elevationM":1890},{"id":"node:10938790026","kind":"peak","name":"Beale Mountain","lat":58.9372038,"lon":-129.2105679,"elevationM":2068},{"id":"node:10958320287","kind":"peak","name":"Glacial Mountain","lat":58.2479909,"lon":-129.4332183,"elevationM":2032},{"id":"node:11168563564","kind":"peak","name":"Horn Mountain","lat":58.2527124,"lon":-129.5290109,"elevationM":2252},{"id":"node:11517608271","kind":"peak","name":"Thenatlodi Mountain","lat":58.1838226,"lon":-129.993076,"elevationM":1859},{"id":"node:11518010688","kind":"peak","name":"Cake Hill","lat":58.1713212,"lon":-129.6652069,"elevationM":1835},{"id":"node:11518160238","kind":"peak","name":"Tanzilla Butte","lat":58.3938048,"lon":-129.8565727,"elevationM":1522}]}