{"tileKey":"la_p55_lo_p157","version":"v1-1775891056926","entries":[{"id":"node:282053065","kind":"volcano","name":"Ичинская сопка","lat":55.6779712,"lon":157.7185125,"elevationM":3621},{"id":"node:1439336213","kind":"peak","name":"Ориентир","lat":55.0373747,"lon":157.5926984,"elevationM":1409},{"id":"node:2076305066","kind":"volcano","name":"Большой Паялпан","lat":55.8238474,"lon":157.9816753,"elevationM":1906},{"id":"node:2076305095","kind":"volcano","name":"Малый Паялпан","lat":55.7973659,"lon":157.9108234,"elevationM":1980},{"id":"node:2076305109","kind":"volcano","name":"Паялпан","lat":55.8156712,"lon":157.9463751,"elevationM":1811},{"id":"node:2076305111","kind":"volcano","name":"Северный Черпук","lat":55.6055397,"lon":157.6356134,"elevationM":1679},{"id":"node:2076305133","kind":"volcano","name":"Южный Черпук","lat":55.5408624,"lon":157.5098235,"elevationM":1962},{"id":"node:5526665836","kind":"peak","name":"Найчан","lat":55.4658085,"lon":157.8936729,"elevationM":1555},{"id":"node:5526666257","kind":"peak","name":"Баранья","lat":55.4345785,"lon":157.8060043,"elevationM":1461},{"id":"node:5526791321","kind":"peak","name":"Верхняя Тхонжа","lat":55.2948569,"lon":157.1694861,"elevationM":1122},{"id":"node:6806154288","kind":"peak","name":"Андре","lat":55.4953882,"lon":157.6867672,"elevationM":1400},{"id":"node:8365135374","kind":"peak","name":"Фигурная","lat":55.8558532,"lon":157.7532004,"elevationM":null},{"id":"node:8365135505","kind":"peak","name":"Дикая","lat":55.8144007,"lon":157.4748515,"elevationM":null},{"id":"node:8365135506","kind":"peak","name":"Вачагина","lat":55.70487,"lon":157.330141,"elevationM":null},{"id":"node:8365135507","kind":"peak","name":"Орех","lat":55.7860334,"lon":157.3026752,"elevationM":null},{"id":"node:8365135508","kind":"peak","name":"Медная","lat":55.8371569,"lon":157.0541952,"elevationM":null},{"id":"node:8365135509","kind":"peak","name":"Антагкая","lat":55.8189338,"lon":157.1170233,"elevationM":null},{"id":"node:8365135510","kind":"peak","name":"Двойная","lat":55.8187409,"lon":157.1534155,"elevationM":null},{"id":"node:8365135511","kind":"peak","name":"Хвойная","lat":55.8029213,"lon":157.1269797,"elevationM":null},{"id":"node:8365135512","kind":"peak","name":"Отдельная","lat":55.7484681,"lon":157.0610617,"elevationM":null},{"id":"node:8365135513","kind":"peak","name":"Чистая","lat":55.6854963,"lon":157.1205425,"elevationM":null},{"id":"node:8365135514","kind":"peak","name":"Гольцовая","lat":55.6884235,"lon":157.1470213,"elevationM":null},{"id":"node:8365135515","kind":"peak","name":"Кешум 2-й","lat":55.7365342,"lon":157.221651,"elevationM":null},{"id":"node:8365135516","kind":"peak","name":"Сотая","lat":55.7544094,"lon":157.2879981,"elevationM":null},{"id":"node:8365135706","kind":"peak","name":"Анива","lat":55.7579352,"lon":157.5097846,"elevationM":null},{"id":"node:8365135707","kind":"peak","name":"Острая","lat":55.859418,"lon":157.6865957,"elevationM":null},{"id":"node:8365135708","kind":"peak","name":"Баранья","lat":55.848313,"lon":157.7056503,"elevationM":null},{"id":"node:8365135773","kind":"peak","name":"Этопань","lat":55.9798253,"lon":157.6362991,"elevationM":null},{"id":"node:8365135774","kind":"peak","name":"Купол","lat":55.9779765,"lon":157.616558,"elevationM":null},{"id":"node:8365135784","kind":"peak","name":"Тынуа","lat":55.9634467,"lon":157.8979539,"elevationM":null},{"id":"node:8365135785","kind":"peak","name":"Тынуа","lat":55.9192956,"lon":157.9325223,"elevationM":null},{"id":"node:8365136202","kind":"peak","name":"Круглая","lat":55.8043686,"lon":157.0529934,"elevationM":null},{"id":"node:8365139368","kind":"peak","name":"Закрытая","lat":55.9819622,"lon":157.0955657,"elevationM":null},{"id":"node:8365139371","kind":"peak","name":"Отрог","lat":55.9348275,"lon":157.519226,"elevationM":null},{"id":"node:8365139478","kind":"peak","name":"Скала","lat":55.7773213,"lon":157.9234886,"elevationM":null},{"id":"node:8365139479","kind":"peak","name":"Шар","lat":55.6856657,"lon":157.935934,"elevationM":null},{"id":"node:8365139480","kind":"peak","name":"Живописная","lat":55.6934912,"lon":157.991445,"elevationM":null},{"id":"node:8365139789","kind":"peak","name":"Волчья","lat":55.8054537,"lon":157.679944,"elevationM":null},{"id":"node:8365139828","kind":"peak","name":"Угловая","lat":55.8529625,"lon":157.2679996,"elevationM":null},{"id":"node:8365139829","kind":"peak","name":"Нюлкандя","lat":55.8129539,"lon":157.3550319,"elevationM":null},{"id":"node:8365139862","kind":"peak","name":"Яркая","lat":55.8029333,"lon":157.6048851,"elevationM":null},{"id":"node:8365140013","kind":"peak","name":"Небура","lat":55.6563935,"lon":157.0556867,"elevationM":null},{"id":"node:10613531320","kind":"peak","name":"Солнечная","lat":55.2244375,"lon":157.9083914,"elevationM":1462},{"id":"node:10613531321","kind":"peak","name":"Высокая","lat":55.204332,"lon":157.5797775,"elevationM":1827},{"id":"node:10613531322","kind":"peak","name":"Химка","lat":55.1910916,"lon":157.3160321,"elevationM":1574},{"id":"node:10613531323","kind":"peak","name":"Центральная","lat":55.1111281,"lon":157.3298257,"elevationM":1876},{"id":"node:10613531324","kind":"peak","name":"Белоголовая","lat":55.8758882,"lon":157.7856407,"elevationM":1905}]}