{"tileKey":"la_p45_lo_p141","version":"v1-1775891056926","entries":[{"id":"node:1280134794","kind":"peak","name":"三眺山","lat":45.1799469,"lon":141.2330552,"elevationM":1461},{"id":"node:1280144794","kind":"peak","name":"ポン山","lat":45.223104,"lon":141.220114,"elevationM":444},{"id":"node:1280146803","kind":"peak","name":"小ポン山","lat":45.2221834,"lon":141.229846,"elevationM":413},{"id":"node:1366603241","kind":"volcano","name":"利尻山","lat":45.1804317,"lon":141.2413764,"elevationM":1721},{"id":"node:3337200036","kind":"peak","name":"礼文岳","lat":45.372493,"lon":141.016111,"elevationM":490},{"id":"node:5036096527","kind":"peak","name":"長官山","lat":45.1939689,"lon":141.2383924,"elevationM":1219},{"id":"node:8132954342","kind":"peak","name":"オタドマリポン山","lat":45.1240954,"lon":141.2728715,"elevationM":164},{"id":"node:8132954343","kind":"peak","name":"メヌウショロポン山","lat":45.1209765,"lon":141.2663913,"elevationM":155},{"id":"node:8132954344","kind":"peak","name":"仙法志ポン山","lat":45.1253293,"lon":141.2512422,"elevationM":320},{"id":"node:8132954345","kind":"peak","name":"鬼脇ポン山","lat":45.1455295,"lon":141.279695,"elevationM":411},{"id":"node:8132968121","kind":"peak","name":"二並山","lat":45.3679914,"lon":141.0131264,"elevationM":455},{"id":"node:8132968131","kind":"peak","name":"オションナイ山","lat":45.4343507,"lon":141.052984,"elevationM":167},{"id":"node:8639107743","kind":"peak","name":"神居ポン山","lat":45.1754479,"lon":141.1579243,"elevationM":140},{"id":"node:12647298074","kind":"peak","name":"利尻山南峰","lat":45.1784892,"lon":141.2420277,"elevationM":1721},{"id":"node:12647298075","kind":"peak","name":"鬼脇山","lat":45.1768137,"lon":141.2504851,"elevationM":null},{"id":"node:12648580151","kind":"peak","name":"針伏山","lat":45.1352787,"lon":141.2425982,"elevationM":302},{"id":"node:12656521851","kind":"peak","name":"丸山","lat":45.4855371,"lon":141.9297247,"elevationM":167},{"id":"node:12656521854","kind":"peak","name":"萌間山","lat":45.4506042,"lon":141.9910048,"elevationM":122},{"id":"node:12656521857","kind":"peak","name":"稲星山","lat":45.178438,"lon":141.9301487,"elevationM":225},{"id":"node:13462020339","kind":"peak","name":"モイマ山","lat":45.3924229,"lon":141.9226527,"elevationM":232},{"id":"node:13462072285","kind":"peak","name":"円山","lat":45.1155028,"lon":141.7180753,"elevationM":13}]}