{"tileKey":"la_p32_lo_m98","version":"v1-1775891056926","entries":[{"id":"node:356699397","kind":"peak","name":"Bald Knob","lat":32.9240126,"lon":-97.9794843,"elevationM":359},{"id":"node:356699494","kind":"peak","name":"Barnard Knob","lat":32.3387531,"lon":-97.6347469,"elevationM":292},{"id":"node:356699825","kind":"peak","name":"Bee Mountain","lat":32.1409826,"lon":-97.5055749,"elevationM":232},{"id":"node:356700010","kind":"peak","name":"Berry Knob","lat":32.3006989,"lon":-97.6133573,"elevationM":285},{"id":"node:356700551","kind":"peak","name":"Blue Mound","lat":32.9445699,"lon":-97.3519624,"elevationM":264},{"id":"node:356701030","kind":"peak","name":"Brushy Knob","lat":32.1804272,"lon":-97.3291809,"elevationM":232},{"id":"node:356701031","kind":"peak","name":"Brushy Knob","lat":32.4551403,"lon":-97.4258522,"elevationM":303},{"id":"node:356701033","kind":"peak","name":"Brushy Mound","lat":32.5526372,"lon":-97.3491834,"elevationM":275},{"id":"node:356701053","kind":"peak","name":"Buck Knob","lat":32.9087353,"lon":-97.7591966,"elevationM":345},{"id":"node:356701235","kind":"peak","name":"Burton Knob","lat":32.9170695,"lon":-97.6139141,"elevationM":278},{"id":"node:356701282","kind":"peak","name":"Buzzard Hill","lat":32.803184,"lon":-97.9461504,"elevationM":337},{"id":"node:356701310","kind":"peak","name":"Caddo Peak","lat":32.4815284,"lon":-97.408074,"elevationM":303},{"id":"node:356701720","kind":"peak","name":"Cedar Mountain","lat":32.042092,"lon":-97.8319734,"elevationM":362},{"id":"node:356701941","kind":"peak","name":"Chalk Mountain","lat":32.1759765,"lon":-97.9241995,"elevationM":390},{"id":"node:356702511","kind":"peak","name":"Comanche Peak","lat":32.3792312,"lon":-97.8017442,"elevationM":373},{"id":"node:356704745","kind":"peak","name":"Dinner Hill","lat":32.0201488,"lon":-97.7636378,"elevationM":302},{"id":"node:356705833","kind":"peak","name":"Flat Top Mountain","lat":32.0440365,"lon":-97.8239176,"elevationM":359},{"id":"node:356708683","kind":"peak","name":"Indian Knob","lat":32.9512341,"lon":-97.7555853,"elevationM":387},{"id":"node:356710301","kind":"peak","name":"Lone Mountain","lat":32.1690318,"lon":-97.985868,"elevationM":413},{"id":"node:356714103","kind":"peak","name":"Oyster Hill","lat":32.7512589,"lon":-97.8019882,"elevationM":351},{"id":"node:356719178","kind":"peak","name":"Poverty Knob","lat":32.5059722,"lon":-97.2055676,"elevationM":216},{"id":"node:356719186","kind":"peak","name":"Powelldale Mountains","lat":32.0273746,"lon":-97.4997404,"elevationM":218},{"id":"node:356724110","kind":"peak","name":"Skeen Peak","lat":32.9951215,"lon":-97.8041983,"elevationM":373},{"id":"node:356724142","kind":"peak","name":"Slipdown Mountain","lat":32.9440119,"lon":-97.9125366,"elevationM":415},{"id":"node:356725410","kind":"peak","name":"Tater Hill","lat":32.931235,"lon":-97.7147506,"elevationM":343},{"id":"node:356725760","kind":"peak","name":"Thompson Mountain","lat":32.4904311,"lon":-97.8253861,"elevationM":247},{"id":"node:356726219","kind":"peak","name":"Turkey Peak","lat":32.5401377,"lon":-97.3516835,"elevationM":266},{"id":"node:356750229","kind":"peak","name":"Nebo Mountain","lat":32.6068003,"lon":-97.7603073,"elevationM":316},{"id":"node:356751505","kind":"peak","name":"Murray Hill","lat":32.6454121,"lon":-97.2041791,"elevationM":209},{"id":"node:356753133","kind":"peak","name":"Chattanooga Hill","lat":32.6937419,"lon":-97.6747494,"elevationM":330},{"id":"node:356753137","kind":"peak","name":"Joe Bell Mountain","lat":32.7237407,"lon":-97.7386405,"elevationM":324},{"id":"node:356753157","kind":"peak","name":"Tater Nob","lat":32.6498543,"lon":-97.7441958,"elevationM":344},{"id":"node:356853308","kind":"peak","name":"Mount Donwell","lat":32.9177778,"lon":-97.1763889,"elevationM":218},{"id":"node:5867070077","kind":"peak","name":"Reno Peak","lat":32.9735252,"lon":-97.5700465,"elevationM":null},{"id":"node:7643783536","kind":"peak","name":"Town Common","lat":32.9890047,"lon":-97.2096039,"elevationM":217},{"id":"node:7643783542","kind":"peak","name":"Mayor's Hill","lat":32.9773359,"lon":-97.1706988,"elevationM":180}]}