{"tileKey":"la_p68_lo_p18","version":"v1-1775849605232","entries":[{"id":"node:26862567","kind":"peak","name":"Bjoernen","lat":68.77,"lon":18.4408333,"elevationM":null},{"id":"node:26863146","kind":"peak","name":"Hestryggen","lat":68.8708333,"lon":18.7388889,"elevationM":null},{"id":"node:26863157","kind":"peak","name":"Hjeleelvtinden","lat":68.6104733,"lon":18.6438748,"elevationM":1569},{"id":"node:26863160","kind":"peak","name":"Hjerttinden","lat":68.9954313,"lon":18.2269454,"elevationM":1381},{"id":"node:26863246","kind":"peak","name":"Isogaisse","lat":68.835,"lon":18.8638889,"elevationM":null},{"id":"node:26863262","kind":"peak","name":"Den","lat":68.5727778,"lon":18.0863889,"elevationM":null},{"id":"node:26863413","kind":"peak","name":"Koparskardtinden","lat":68.7405556,"lon":18.8272222,"elevationM":1387},{"id":"node:26863505","kind":"peak","name":"Langfjellet - Nuorttat Duolljegáisi","lat":68.818296,"lon":18.7303066,"elevationM":1330},{"id":"node:26863555","kind":"peak","name":"Livelttinden","lat":68.7263889,"lon":18.3744444,"elevationM":null},{"id":"node:26863674","kind":"peak","name":"Melkefjellet","lat":68.6497222,"lon":18.0044444,"elevationM":null},{"id":"node:26864107","kind":"peak","name":"Oallacak'ka","lat":68.2819444,"lon":18.0347222,"elevationM":null},{"id":"node:26864444","kind":"peak","name":"Rieppicak'ka","lat":68.59,"lon":18.5088889,"elevationM":1459},{"id":"node:26864804","kind":"peak","name":"Storala","lat":68.9084457,"lon":18.3300072,"elevationM":1237},{"id":"node:408494999","kind":"peak","name":"Varden","lat":68.8399939,"lon":18.3132129,"elevationM":289},{"id":"node:1698306850","kind":"peak","name":"Njunis","lat":68.5235548,"lon":18.5534602,"elevationM":1125},{"id":"node:3776254670","kind":"peak","name":"Blåberget","lat":68.8491361,"lon":18.5782924,"elevationM":1218},{"id":"node:3776254671","kind":"peak","name":"Holtet","lat":68.8747219,"lon":18.4156552,"elevationM":533},{"id":"node:3787228253","kind":"peak","name":"Gråhøgda - Ápmunoaivi","lat":68.8974801,"lon":18.4846758,"elevationM":994},{"id":"node:3787228254","kind":"peak","name":"Grønfjellet","lat":68.8761425,"lon":18.5222623,"elevationM":875},{"id":"node:3982882588","kind":"peak","name":"Sjupynten","lat":68.8643162,"lon":18.2659412,"elevationM":null},{"id":"node:4337281491","kind":"peak","name":"Gátterjunni","lat":68.4185778,"lon":18.098204,"elevationM":902},{"id":"node:4337281992","kind":"peak","name":"Gátterjohkka","lat":68.4064988,"lon":18.0892853,"elevationM":1052},{"id":"node:4337281993","kind":"peak","name":"Sørdalstinden","lat":68.365361,"lon":18.0004826,"elevationM":919},{"id":"node:4337568491","kind":"peak","name":"Bjørnfjellet","lat":68.4489083,"lon":18.0882882,"elevationM":761},{"id":"node:5126502474","kind":"peak","name":"Istind","lat":68.9498363,"lon":18.5667924,"elevationM":1489},{"id":"node:5635643921","kind":"peak","name":"Skjellhaugen","lat":68.9971767,"lon":18.5011643,"elevationM":265},{"id":"node:5719749606","kind":"peak","name":"Istindaksla","lat":68.9743022,"lon":18.5740184,"elevationM":851},{"id":"node:6419503829","kind":"peak","name":"Dildočohkka","lat":68.9026261,"lon":18.5939795,"elevationM":1424},{"id":"node:6419503830","kind":"peak","name":"Söre Istinden","lat":68.9318245,"lon":18.5672992,"elevationM":1483},{"id":"node:6419503831","kind":"peak","name":"Austre Istinden","lat":68.9497208,"lon":18.6254238,"elevationM":1267},{"id":"node:6419503832","kind":"peak","name":"Tolvtinden","lat":68.9476446,"lon":18.5862976,"elevationM":null},{"id":"node:9743556873","kind":"peak","name":"Vesleala","lat":68.9444993,"lon":18.4026091,"elevationM":1106},{"id":"node:9831773396","kind":"peak","name":"Snøhetta","lat":68.6617399,"lon":18.3515039,"elevationM":1444},{"id":"node:9927486411","kind":"peak","name":"Dáskoriehppi","lat":68.3421523,"lon":18.0555309,"elevationM":1421},{"id":"node:11536612090","kind":"peak","name":"Snøhetta","lat":68.6894206,"lon":18.3278936,"elevationM":1506},{"id":"node:13432582185","kind":"peak","name":"Dihttioalgi","lat":68.6339268,"lon":18.6904904,"elevationM":1289},{"id":"node:13432582186","kind":"peak","name":"Bajit Dihttičohkka","lat":68.6090218,"lon":18.7685965,"elevationM":1245},{"id":"node:13432582187","kind":"peak","name":"Čorrovárri","lat":68.5919227,"lon":18.7370108,"elevationM":1324},{"id":"node:13432582197","kind":"peak","name":"Dittlinden","lat":68.5947421,"lon":18.6846542,"elevationM":1428},{"id":"node:13432614522","kind":"peak","name":"Sávzanjunni","lat":68.5489611,"lon":18.6975288,"elevationM":1319},{"id":"node:13432614523","kind":"peak","name":"Čáhppesbákti","lat":68.5547359,"lon":18.7233638,"elevationM":1326},{"id":"node:13432614524","kind":"peak","name":"Riksočohkka","lat":68.5631757,"lon":18.6913489,"elevationM":1470},{"id":"node:13432614525","kind":"peak","name":"Ruovdoaivvit","lat":68.5729921,"lon":18.6722944,"elevationM":1550},{"id":"node:13432614526","kind":"peak","name":"Isberget","lat":68.6580545,"lon":18.415489,"elevationM":1357},{"id":"node:13432614527","kind":"peak","name":"Veslesklettan","lat":68.634302,"lon":18.3753203,"elevationM":1419},{"id":"node:13432614528","kind":"peak","name":"Veslesklettan","lat":68.6129659,"lon":18.3698271,"elevationM":1374},{"id":"node:13432614546","kind":"peak","name":"Jalges","lat":68.5605092,"lon":18.5305021,"elevationM":1164},{"id":"node:13524782462","kind":"peak","name":"Veslfjellet","lat":68.7121844,"lon":18.7275695,"elevationM":1064},{"id":"node:13524782474","kind":"peak","name":"Grønfjellet","lat":68.6936983,"lon":18.8338278,"elevationM":1146},{"id":"node:13524805553","kind":"peak","name":"Dihttičohkka","lat":68.6264206,"lon":18.8002681,"elevationM":1036},{"id":"node:13524805559","kind":"peak","name":"Jertarøysa","lat":68.5170573,"lon":18.9840263,"elevationM":1146},{"id":"node:13524805575","kind":"peak","name":"Jorbačohkka","lat":68.5308425,"lon":18.8171767,"elevationM":1209},{"id":"node:13524805576","kind":"peak","name":"Unna Skadjoaivi","lat":68.5488355,"lon":18.8176059,"elevationM":1209},{"id":"node:13524805579","kind":"peak","name":"Skadjoaivvit","lat":68.5447546,"lon":18.8933943,"elevationM":1356},{"id":"node:13524805603","kind":"peak","name":"Salvasskardfjellet Noaidun","lat":68.6113539,"lon":18.9580679,"elevationM":1336},{"id":"node:13704438844","kind":"peak","name":"Sautinden","lat":68.8649639,"lon":18.5837388,"elevationM":1074},{"id":"node:13704438922","kind":"peak","name":"Suorregáisi","lat":68.8903342,"lon":18.6229312,"elevationM":1310},{"id":"node:13704439119","kind":"peak","name":"Rypelars","lat":68.905337,"lon":18.6718547,"elevationM":1238},{"id":"node:13709726116","kind":"peak","name":"Dildogáisi","lat":68.9009925,"lon":18.6290145,"elevationM":1066}]}