{"tileKey":"la_p58_lo_p14","version":"v1-1775891056926","entries":[{"id":"node:298103894","kind":"peak","name":"Hjässan","lat":58.3066492,"lon":14.6482738,"elevationM":264},{"id":"node:859440540","kind":"peak","name":"Stora Trollkyrka","lat":58.7189142,"lon":14.6160895,"elevationM":null},{"id":"node:1896544266","kind":"peak","name":"Lilla Trollkyrka","lat":58.713884,"lon":14.6116938,"elevationM":210},{"id":"node:1896554063","kind":"peak","name":"Stenkälleklack","lat":58.7204939,"lon":14.5837041,"elevationM":null},{"id":"node:2772201072","kind":"peak","name":"Staplaberget","lat":58.952896,"lon":14.7977755,"elevationM":216},{"id":"node:2885121811","kind":"peak","name":"Björndalsberget","lat":58.7446686,"lon":14.5953809,"elevationM":218},{"id":"node:2897315524","kind":"peak","name":"Laxåskogen","lat":58.9565867,"lon":14.6135811,"elevationM":153},{"id":"node:2898693283","kind":"peak","name":"Stångjärnsåsen","lat":58.7843901,"lon":14.5493841,"elevationM":null},{"id":"node:2898719753","kind":"peak","name":"Sörbytorp","lat":58.8210494,"lon":14.6393217,"elevationM":183},{"id":"node:2902787844","kind":"peak","name":"Illersjön","lat":58.7664572,"lon":14.9987107,"elevationM":205},{"id":"node:3092258988","kind":"peak","name":"Baggetorp","lat":58.9052779,"lon":14.6080425,"elevationM":154},{"id":"node:3092258998","kind":"peak","name":"Mörthult","lat":58.8745927,"lon":14.7381992,"elevationM":171},{"id":"node:3927385716","kind":"peak","name":"Lilla Risberg","lat":58.9279198,"lon":14.7017991,"elevationM":186},{"id":"node:3964883385","kind":"peak","name":"Spjuthultsmossen","lat":58.920853,"lon":14.7041613,"elevationM":151},{"id":"node:4235867240","kind":"peak","name":"Klinten","lat":58.6780768,"lon":14.6587696,"elevationM":168},{"id":"node:4340791287","kind":"peak","name":"Göstrings häradsallmänning","lat":58.2325434,"lon":14.9351691,"elevationM":187},{"id":"node:4340791288","kind":"peak","name":"Jordsfälle","lat":58.3002853,"lon":14.9921875,"elevationM":150},{"id":"node:4340791389","kind":"peak","name":"Lysings häradsallmänning","lat":58.1914554,"lon":14.7824656,"elevationM":190},{"id":"node:4340791390","kind":"peak","name":"Lönnemålen","lat":58.0481718,"lon":14.5732941,"elevationM":312},{"id":"node:4340791391","kind":"peak","name":"Marsafällan","lat":58.3752697,"lon":14.6811747,"elevationM":171},{"id":"node:4340791392","kind":"peak","name":"Renstadfällan","lat":58.3291031,"lon":14.6798979,"elevationM":204},{"id":"node:4340791393","kind":"peak","name":"Sjöstuguberget","lat":58.2139721,"lon":14.8589086,"elevationM":181},{"id":"node:4340791394","kind":"peak","name":"Sjötuna","lat":58.340352,"lon":14.875093,"elevationM":96},{"id":"node:4340791395","kind":"peak","name":"Stava","lat":58.1301479,"lon":14.5678889,"elevationM":190},{"id":"node:4340791396","kind":"peak","name":"Susabacken","lat":58.4161898,"lon":14.7619091,"elevationM":115},{"id":"node:4340791397","kind":"peak","name":"Svanakullen","lat":58.0214134,"lon":14.5045458,"elevationM":316},{"id":"node:4340791398","kind":"peak","name":"Svartsvall","lat":58.3575752,"lon":14.667254,"elevationM":237},{"id":"node:4340791399","kind":"peak","name":"Topphultabacken","lat":58.1795638,"lon":14.7195892,"elevationM":186},{"id":"node:4340791400","kind":"peak","name":"Tällekullen","lat":58.1371459,"lon":14.6313982,"elevationM":200},{"id":"node:4340873626","kind":"peak","name":"Björnemossen","lat":58.8987913,"lon":14.5081561,"elevationM":222},{"id":"node:4340873627","kind":"peak","name":"Edsbergsmon","lat":58.9206835,"lon":14.201585,"elevationM":138},{"id":"node:4340873628","kind":"peak","name":"Hedensås","lat":58.8822139,"lon":14.2394256,"elevationM":138},{"id":"node:4340873629","kind":"peak","name":"Hällasjön","lat":58.9883942,"lon":14.8813908,"elevationM":177},{"id":"node:4340873630","kind":"peak","name":"Högås","lat":58.8715083,"lon":14.3769531,"elevationM":215},{"id":"node:4340873631","kind":"peak","name":"Igeltjärn","lat":58.8795437,"lon":14.8327035,"elevationM":181},{"id":"node:4340873633","kind":"peak","name":"Nybygget","lat":58.8952636,"lon":14.4438582,"elevationM":229},{"id":"node:4340873635","kind":"peak","name":"Rom","lat":58.9237323,"lon":14.5208697,"elevationM":204},{"id":"node:4340873636","kind":"peak","name":"Simonstorp","lat":58.9824681,"lon":14.7714739,"elevationM":191},{"id":"node:4340873638","kind":"peak","name":"Skaterud","lat":58.8309156,"lon":14.2002117,"elevationM":149},{"id":"node:4340873639","kind":"peak","name":"Stenkulla","lat":58.7953507,"lon":14.722419,"elevationM":197},{"id":"node:4340873640","kind":"peak","name":"Stora Lassåna","lat":58.9668104,"lon":14.6134918,"elevationM":142},{"id":"node:4340873641","kind":"peak","name":"Udden","lat":58.8247653,"lon":14.8691787,"elevationM":164},{"id":"node:4340873642","kind":"peak","name":"Västermosse","lat":58.7999279,"lon":14.1720914,"elevationM":135},{"id":"node:4340873643","kind":"peak","name":"Åsebol","lat":58.8258011,"lon":14.3495034,"elevationM":172},{"id":"node:4340884502","kind":"peak","name":"Sörhult","lat":58.9525179,"lon":14.1505211,"elevationM":null},{"id":"node:4340898690","kind":"peak","name":"Hovet","lat":58.6892773,"lon":14.3735561,"elevationM":196},{"id":"node:4340898691","kind":"peak","name":"Humlegårdsliden","lat":58.6656555,"lon":14.5646058,"elevationM":235},{"id":"node:4340898692","kind":"peak","name":"Iglasjöberg","lat":58.6374196,"lon":14.4343403,"elevationM":205},{"id":"node:4340898693","kind":"peak","name":"Släta bergen","lat":58.7375396,"lon":14.6596855,"elevationM":247},{"id":"node:4340898694","kind":"peak","name":"Tutterskulle","lat":58.6925891,"lon":14.5731071,"elevationM":208},{"id":"node:4340898950","kind":"peak","name":"Ekefallet","lat":58.7567514,"lon":14.3717054,"elevationM":170},{"id":"node:4340900749","kind":"peak","name":"Baggakull","lat":58.42456,"lon":14.3451837,"elevationM":219},{"id":"node:4340900750","kind":"peak","name":"Västerberget","lat":58.5187657,"lon":14.3602899,"elevationM":201},{"id":"node:4340900751","kind":"peak","name":"Prästebolet","lat":58.444889,"lon":14.2890907,"elevationM":240},{"id":"node:4340900753","kind":"peak","name":"Östra Stöpen","lat":58.486566,"lon":14.1120984,"elevationM":108},{"id":"node:4341244367","kind":"peak","name":"Högmon","lat":58.899099,"lon":14.9692099,"elevationM":164},{"id":"node:4341675191","kind":"peak","name":"Klevaberget","lat":58.7702496,"lon":14.0541442,"elevationM":123},{"id":"node:4341707397","kind":"peak","name":"Binneberg","lat":58.1863607,"lon":14.1487806,"elevationM":231},{"id":"node:4341707399","kind":"peak","name":"Kleven","lat":58.1398213,"lon":14.1024749,"elevationM":279},{"id":"node:4341720542","kind":"peak","name":"Aspanässkog","lat":58.5552959,"lon":14.1251879,"elevationM":101},{"id":"node:4341720543","kind":"peak","name":"Fägremon","lat":58.6567142,"lon":14.1537641,"elevationM":126},{"id":"node:4341720544","kind":"peak","name":"Gärdesbodaskog","lat":58.6894746,"lon":14.051647,"elevationM":95},{"id":"node:4341721387","kind":"peak","name":"Ödetorpet","lat":58.8636573,"lon":14.0975128,"elevationM":119},{"id":"node:4346801905","kind":"peak","name":"Sisjön","lat":58.7653233,"lon":14.2169845,"elevationM":132},{"id":"node:5007325872","kind":"peak","name":"Oxaberget","lat":58.7145782,"lon":14.5945859,"elevationM":null},{"id":"node:5351737452","kind":"peak","name":"Grotteberget","lat":58.6443608,"lon":14.4038487,"elevationM":204},{"id":"node:5426086153","kind":"peak","name":"Gallaberget","lat":58.9864842,"lon":14.8309636,"elevationM":null},{"id":"node:7206852930","kind":"peak","name":"Kalkugnsberget","lat":58.9676399,"lon":14.9004113,"elevationM":null},{"id":"node:7843436430","kind":"peak","name":"Pukeberg","lat":58.6211737,"lon":14.5183038,"elevationM":216},{"id":"node:11007406357","kind":"peak","name":"Vaberget","lat":58.5375551,"lon":14.4429688,"elevationM":224},{"id":"node:11007406358","kind":"peak","name":"Vaberget","lat":58.5377795,"lon":14.4432546,"elevationM":224},{"id":"node:11736410881","kind":"peak","name":"Norra Kulla","lat":58.982947,"lon":14.5055697,"elevationM":189},{"id":"node:12138725436","kind":"peak","name":"Grännaberget","lat":58.0180363,"lon":14.4737931,"elevationM":251},{"id":"node:12138725437","kind":"peak","name":"Kramboberget","lat":58.0128946,"lon":14.4929952,"elevationM":324}]}