{"tileKey":"la_p57_lo_p13","version":"v1-1775891056926","entries":[{"id":"node:245944928","kind":"peak","name":"Galtåsen","lat":57.7843024,"lon":13.5504367,"elevationM":361},{"id":"node:260299433","kind":"peak","name":"Isaberg","lat":57.4316222,"lon":13.6102073,"elevationM":308},{"id":"node:1594550689","kind":"peak","name":"Hybergsås","lat":57.7595014,"lon":13.0129675,"elevationM":null},{"id":"node:1779733522","kind":"peak","name":"Brollsberget","lat":57.4275456,"lon":13.692311,"elevationM":null},{"id":"node:3868724690","kind":"peak","name":"Klämman","lat":57.1969053,"lon":13.6448746,"elevationM":196},{"id":"node:4952333812","kind":"peak","name":"Ölmesberg","lat":57.0324796,"lon":13.5853176,"elevationM":238},{"id":"node:5194842769","kind":"peak","name":"Ängaberget","lat":57.9547125,"lon":13.5612917,"elevationM":278},{"id":"node:5197698337","kind":"peak","name":"Valtesten","lat":57.8872772,"lon":13.485589,"elevationM":304},{"id":"node:5197941749","kind":"peak","name":"Råberget","lat":57.8120404,"lon":13.6054194,"elevationM":316},{"id":"node:5198109920","kind":"peak","name":"Hattåsen","lat":57.7852832,"lon":13.6927628,"elevationM":345},{"id":"node:5198109921","kind":"peak","name":"Pannkakeberget","lat":57.7921002,"lon":13.7061846,"elevationM":330},{"id":"node:5226612851","kind":"peak","name":"Påboskog","lat":57.7136158,"lon":13.5495329,"elevationM":350},{"id":"node:5423125196","kind":"peak","name":"Kohesterberget","lat":57.8940235,"lon":13.6395049,"elevationM":296},{"id":"node:5452289330","kind":"peak","name":"Knaggebo","lat":57.8672487,"lon":13.7610645,"elevationM":332},{"id":"node:6129547309","kind":"peak","name":"Hallabergen","lat":57.9869978,"lon":13.896718,"elevationM":353},{"id":"node:6506555448","kind":"peak","name":"Klackåsaberget","lat":57.7009722,"lon":13.3971958,"elevationM":null},{"id":"node:7405977370","kind":"peak","name":"Klevaberget","lat":57.688983,"lon":13.3900889,"elevationM":null},{"id":"node:7462713435","kind":"peak","name":"Aplaberget","lat":57.0196911,"lon":13.7584499,"elevationM":null},{"id":"node:7462713462","kind":"peak","name":"Bockahagen","lat":57.0386624,"lon":13.7800214,"elevationM":null},{"id":"node:7810783456","kind":"peak","name":"Ugglekullen","lat":57.6990705,"lon":13.2969481,"elevationM":185},{"id":"node:9197979434","kind":"peak","name":"Håkesberg","lat":57.9821251,"lon":13.9035869,"elevationM":null},{"id":"node:10019533311","kind":"peak","name":"Jonasboberget","lat":57.1407336,"lon":13.9742017,"elevationM":244},{"id":"node:12138725438","kind":"peak","name":"Tykås","lat":57.7460036,"lon":13.8074377,"elevationM":340},{"id":"node:12394805651","kind":"peak","name":"Stråkevedsberg","lat":57.3425912,"lon":13.9912909,"elevationM":247},{"id":"node:12901374049","kind":"peak","name":"Börselidshöjden","lat":57.396628,"lon":13.0288357,"elevationM":248},{"id":"node:13112975220","kind":"peak","name":"Borgaråsen","lat":57.5929722,"lon":13.0661111,"elevationM":292},{"id":"node:13112985636","kind":"peak","name":"Halleberg","lat":57.7180278,"lon":13.0440833,"elevationM":324},{"id":"node:13112985637","kind":"peak","name":"Häglared","lat":57.7243611,"lon":13.054,"elevationM":324}]}