{"tileKey":"la_p43_lo_m79","version":"v1-1775891056926","entries":[{"id":"node:357552591","kind":"peak","name":"Casswell Hill","lat":43.0536714,"lon":-78.0730701,"elevationM":223},{"id":"node:357560241","kind":"peak","name":"Forsythe Hill","lat":43.0853381,"lon":-78.0341807,"elevationM":214},{"id":"node:357563627","kind":"peak","name":"Harris Hill","lat":43.0853382,"lon":-78.0200137,"elevationM":209},{"id":"node:357569020","kind":"peak","name":"Lidke Hill","lat":43.1231157,"lon":-78.043626,"elevationM":214},{"id":"node:357573518","kind":"peak","name":"Nichols Hill","lat":43.0961702,"lon":-78.3277992,"elevationM":225},{"id":"node:357577051","kind":"peak","name":"Pine Hill","lat":43.180171,"lon":-78.2645951,"elevationM":217},{"id":"node:357593236","kind":"peak","name":"Tower Hill","lat":43.0895044,"lon":-78.1141828,"elevationM":220},{"id":"node:924775470","kind":"peak","name":"Roseberry Hill","lat":43.9586452,"lon":-78.4308532,"elevationM":null},{"id":"node:1128916072","kind":"peak","name":"Pidgeon Hill","lat":43.958848,"lon":-78.3054993,"elevationM":null},{"id":"node:1128916073","kind":"peak","name":"Monkey Mountain","lat":43.9639072,"lon":-78.3005767,"elevationM":null},{"id":"node:7393736692","kind":"peak","name":"Sledding hill","lat":43.1825616,"lon":-78.9102446,"elevationM":null}]}