{"tileKey":"la_p19_lo_p42","version":"v1-1775891056926","entries":[{"id":"node:1236685641","kind":"peak","name":"الصايرة البيضاء","lat":19.9308115,"lon":42.6895986,"elevationM":null},{"id":"node:1236685740","kind":"peak","name":"جبال الدرعاء","lat":19.7090097,"lon":42.7349245,"elevationM":null},{"id":"node:1236685779","kind":"peak","name":"قبة جلالة","lat":19.5995553,"lon":42.6726322,"elevationM":null},{"id":"node:1236687484","kind":"peak","name":"جبل حرفة","lat":19.383333,"lon":42.033333,"elevationM":null},{"id":"node:6918748341","kind":"peak","name":"جبل بو غضوي","lat":19.3278141,"lon":42.6156006,"elevationM":null},{"id":"node:6918757852","kind":"peak","name":"جبال بني لوان","lat":19.401701,"lon":42.5618896,"elevationM":null},{"id":"node:7579830179","kind":"peak","name":"جبل لبد","lat":19.727371,"lon":42.5885663,"elevationM":null},{"id":"node:7579836926","kind":"peak","name":"جبل مسول","lat":19.4719251,"lon":42.8692845,"elevationM":null},{"id":"node:7774682452","kind":"peak","name":"جندف","lat":19.5186952,"lon":42.3437991,"elevationM":null},{"id":"node:7782255884","kind":"peak","name":"جبل امعقا","lat":19.7814,"lon":42.9246,"elevationM":null},{"id":"node:7782289045","kind":"peak","name":"الحنثرية","lat":19.787,"lon":42.9588,"elevationM":null},{"id":"node:8600936560","kind":"peak","name":"جبال الحصاصة","lat":19.299511,"lon":42.981205,"elevationM":null},{"id":"node:8612950000","kind":"peak","name":"اللسان","lat":19.1243401,"lon":42.9623642,"elevationM":null},{"id":"node:8613124293","kind":"peak","name":"الضور","lat":19.0484818,"lon":42.9073219,"elevationM":null},{"id":"node:8613204734","kind":"peak","name":"أبو مُرَّة","lat":19.340804,"lon":42.8579083,"elevationM":null},{"id":"node:8734265655","kind":"peak","name":"حيشان","lat":19.0089169,"lon":42.1269226,"elevationM":null},{"id":"node:8739030182","kind":"peak","name":"قمة جبل حرفة","lat":19.3905063,"lon":42.026401,"elevationM":2491},{"id":"node:8770918107","kind":"peak","name":"الضور الصغير","lat":19.4404498,"lon":42.0404849,"elevationM":null},{"id":"node:8770935671","kind":"peak","name":"الضور","lat":19.4244736,"lon":42.0579177,"elevationM":null},{"id":"node:8822017327","kind":"peak","name":"إبن هيكل","lat":19.4485321,"lon":42.9564819,"elevationM":null},{"id":"node:8918985937","kind":"peak","name":"جبل مومة","lat":19.0046128,"lon":42.097276,"elevationM":2636},{"id":"node:8951325524","kind":"peak","name":"الصايرة الحمراء","lat":19.8753087,"lon":42.7141443,"elevationM":null},{"id":"node:8951380308","kind":"peak","name":"الحاجون","lat":19.355851,"lon":42.8168473,"elevationM":null},{"id":"node:9004889534","kind":"peak","name":"الخشب","lat":19.1075872,"lon":42.3151721,"elevationM":null},{"id":"node:9004901446","kind":"peak","name":"القرن الأبيض","lat":19.1622012,"lon":42.1899447,"elevationM":null},{"id":"node:9005026434","kind":"peak","name":"أبو شكاعة","lat":19.273062,"lon":42.7343066,"elevationM":null},{"id":"node:9005054365","kind":"peak","name":"الرُّبضة","lat":19.2734293,"lon":42.7252972,"elevationM":null},{"id":"node:9005057766","kind":"peak","name":"ضور إبن سرَّار","lat":19.161154,"lon":42.6654689,"elevationM":null},{"id":"node:9005059809","kind":"peak","name":"كويشل","lat":19.28369,"lon":42.641195,"elevationM":null},{"id":"node:9005063028","kind":"peak","name":"جبال محرَّقة","lat":19.2092121,"lon":42.6963144,"elevationM":null},{"id":"node:9005067445","kind":"peak","name":"جبال العُضُبات","lat":19.253006,"lon":42.6901817,"elevationM":null},{"id":"node:9055090938","kind":"peak","name":"بيضه","lat":19.1107597,"lon":42.0074692,"elevationM":null},{"id":"node:9091390454","kind":"peak","name":"العكام","lat":19.7037106,"lon":42.9259148,"elevationM":null},{"id":"node:9091391959","kind":"peak","name":"الأنصب","lat":19.676939,"lon":42.9854393,"elevationM":null},{"id":"node:9091395726","kind":"peak","name":"الحشوش","lat":19.67046,"lon":42.8752097,"elevationM":null},{"id":"node:9091400423","kind":"peak","name":"المختبيات","lat":19.670315,"lon":42.9103121,"elevationM":null},{"id":"node:9339548991","kind":"peak","name":"عصيف","lat":19.859891,"lon":42.4059158,"elevationM":null},{"id":"node:9380796765","kind":"peak","name":"الضور","lat":19.340124,"lon":42.8124697,"elevationM":null},{"id":"node:9513450978","kind":"peak","name":"الأنبش","lat":19.0259637,"lon":42.1251517,"elevationM":null},{"id":"node:9531773404","kind":"peak","name":"الأسود","lat":19.794813,"lon":42.162542,"elevationM":null},{"id":"node:9531937633","kind":"peak","name":"غايق","lat":19.5284214,"lon":42.3107643,"elevationM":null},{"id":"node:9532420712","kind":"peak","name":"الصليعاء","lat":19.6784109,"lon":42.3666446,"elevationM":null},{"id":"node:9532471845","kind":"peak","name":"حضا","lat":19.7043171,"lon":42.4175491,"elevationM":null},{"id":"node:9532484503","kind":"peak","name":"الحلاة","lat":19.7086124,"lon":42.3857994,"elevationM":null},{"id":"node:9534771657","kind":"peak","name":"أم نجم","lat":19.8877525,"lon":42.7042198,"elevationM":null},{"id":"node:9536096396","kind":"peak","name":"تباشعة","lat":19.4243312,"lon":42.7958207,"elevationM":null},{"id":"node:9657469066","kind":"peak","name":"غلامة","lat":19.0192909,"lon":42.1401329,"elevationM":null},{"id":"node:9666551383","kind":"peak","name":"مرير","lat":19.1913395,"lon":42.0682983,"elevationM":null},{"id":"node:9784356944","kind":"peak","name":"جبال هروب","lat":19.1227994,"lon":42.6050636,"elevationM":null},{"id":"node:9796049142","kind":"peak","name":"الصفا الأملس","lat":19.731596,"lon":42.5731195,"elevationM":null},{"id":"node:9796052673","kind":"peak","name":"الصويرة","lat":19.869169,"lon":42.572855,"elevationM":null},{"id":"node:9796054775","kind":"peak","name":"يافع","lat":19.3244267,"lon":42.055306,"elevationM":null},{"id":"node:9796059920","kind":"peak","name":"الركبات","lat":19.441049,"lon":42.190138,"elevationM":null},{"id":"node:9800815904","kind":"peak","name":"الأشفة","lat":19.7327461,"lon":42.5544205,"elevationM":null},{"id":"node:9801806880","kind":"peak","name":"الوعلاء","lat":19.438574,"lon":42.20716,"elevationM":null},{"id":"node:9801835756","kind":"peak","name":"قُنة الطباق","lat":19.3809874,"lon":42.2126661,"elevationM":null},{"id":"node:9801839474","kind":"peak","name":"مناف","lat":19.3356567,"lon":42.1606696,"elevationM":null},{"id":"node:9969439000","kind":"peak","name":"أضرس","lat":19.8572165,"lon":42.8662028,"elevationM":null},{"id":"node:10738355738","kind":"peak","name":"قرن الحديد","lat":19.9568893,"lon":42.5851459,"elevationM":null},{"id":"node:10738435930","kind":"peak","name":"الكربة الحمراء","lat":19.688413,"lon":42.7412084,"elevationM":null},{"id":"node:10738445317","kind":"peak","name":"سوادة المدراء","lat":19.9071142,"lon":42.5773616,"elevationM":null},{"id":"node:10738447806","kind":"peak","name":"ريدة","lat":19.8979264,"lon":42.5649713,"elevationM":null},{"id":"node:10738461705","kind":"peak","name":"دحلة الشري","lat":19.9450536,"lon":42.5863017,"elevationM":null},{"id":"node:10738473895","kind":"peak","name":"الأبقع","lat":19.6154507,"lon":42.7305746,"elevationM":null},{"id":"node:10738494044","kind":"peak","name":"الضيقة","lat":19.6832069,"lon":42.6890251,"elevationM":null},{"id":"node:10738504367","kind":"peak","name":"أم لدمة","lat":19.5690139,"lon":42.7651216,"elevationM":null},{"id":"node:10743364499","kind":"peak","name":"الشهيلاء","lat":19.9062068,"lon":42.605452,"elevationM":null},{"id":"node:10759186011","kind":"peak","name":"جبل المعزق","lat":19.8938137,"lon":42.5819925,"elevationM":null},{"id":"node:10759757530","kind":"peak","name":"جبل ابو سنون","lat":19.9393428,"lon":42.6250119,"elevationM":null},{"id":"node:10759839714","kind":"peak","name":"جبل وقط","lat":19.9457233,"lon":42.6586539,"elevationM":null},{"id":"node:11201492204","kind":"peak","name":"أم الجعار","lat":19.9097595,"lon":42.681324,"elevationM":null},{"id":"node:11295899846","kind":"peak","name":"الأنايف","lat":19.6422615,"lon":42.8720131,"elevationM":null},{"id":"node:11846752823","kind":"peak","name":"النفر والنفير","lat":19.8326002,"lon":42.299039,"elevationM":null},{"id":"node:11870259023","kind":"peak","name":"جبال بني بغث","lat":19.310835,"lon":42.671118,"elevationM":null},{"id":"node:11870737855","kind":"peak","name":"جبال رفضة","lat":19.5418668,"lon":42.8956385,"elevationM":null},{"id":"node:11871306424","kind":"peak","name":"نمرة","lat":19.4808763,"lon":42.7078942,"elevationM":null},{"id":"node:11871651869","kind":"peak","name":"جبل أم موامر","lat":19.4872161,"lon":42.666081,"elevationM":null},{"id":"node:11871768904","kind":"peak","name":"جبال رفضة","lat":19.5417875,"lon":42.8958419,"elevationM":null},{"id":"node:11871768907","kind":"peak","name":"جبل أزّرّإن","lat":19.4243238,"lon":42.0846745,"elevationM":null},{"id":"node:11871883172","kind":"peak","name":"الميثب","lat":19.9053057,"lon":42.9135245,"elevationM":null},{"id":"node:11871883204","kind":"peak","name":"الهضبة","lat":19.7741198,"lon":42.7750911,"elevationM":null},{"id":"node:11871883223","kind":"peak","name":"جبل الرميداء","lat":19.953524,"lon":42.540075,"elevationM":null},{"id":"node:11871883591","kind":"peak","name":"جبال شقراء","lat":19.5563932,"lon":42.9459337,"elevationM":null},{"id":"node:11871883630","kind":"peak","name":"سترة بيشة","lat":19.9147663,"lon":42.7932342,"elevationM":null},{"id":"node:12506571949","kind":"peak","name":"خبل الوزر","lat":19.5338733,"lon":42.2765468,"elevationM":null},{"id":"node:12574536601","kind":"peak","name":"جبل الشقراء","lat":19.5313323,"lon":42.2617346,"elevationM":null},{"id":"node:12574536602","kind":"peak","name":"جبل الدجيج","lat":19.522499,"lon":42.2628144,"elevationM":null},{"id":"node:12574546501","kind":"peak","name":"حيد البانه","lat":19.4992237,"lon":42.1768473,"elevationM":null},{"id":"node:12574546601","kind":"peak","name":"جبل القطعاء","lat":19.5222512,"lon":42.2847411,"elevationM":null},{"id":"node:12861760975","kind":"peak","name":"ربوعة٦","lat":19.4979019,"lon":42.8303833,"elevationM":null}]}