{"tileKey":"la_p52_lo_m128","version":"v1-1775891056926","entries":[{"id":"node:8916074385","kind":"peak","name":"Mount Keyes","lat":52.3260869,"lon":-127.89283,"elevationM":1215},{"id":"node:10163203131","kind":"peak","name":"Bentinck Spire","lat":52.1796817,"lon":-127.0532019,"elevationM":2117},{"id":"node:10163390699","kind":"peak","name":"Mount D'Arcy","lat":52.1375293,"lon":-127.9489675,"elevationM":606},{"id":"node:10163400870","kind":"peak","name":"Salisbury Cone","lat":52.1457407,"lon":-127.8334267,"elevationM":706},{"id":"node:10163405340","kind":"peak","name":"Codville Hill","lat":52.0399588,"lon":-127.8825981,"elevationM":159},{"id":"node:10163406996","kind":"peak","name":"Sharp Cone","lat":52.0467893,"lon":-127.6332553,"elevationM":830},{"id":"node:10163474411","kind":"peak","name":"Corner Peak","lat":52.1656643,"lon":-127.7645634,"elevationM":936},{"id":"node:10165283524","kind":"peak","name":"Mount Harington","lat":52.3333734,"lon":-127.9776315,"elevationM":966},{"id":"node:10165328338","kind":"peak","name":"Mount Caro Marion","lat":52.3714262,"lon":-127.7024538,"elevationM":1234},{"id":"node:11621264400","kind":"peak","name":"Comet Mountain","lat":52.8518276,"lon":-127.1690496,"elevationM":1959},{"id":"node:11624988230","kind":"peak","name":"Cornice Peak","lat":52.9690174,"lon":-127.2095178,"elevationM":2005},{"id":"node:11624993460","kind":"peak","name":"Pollard Peak","lat":52.9202786,"lon":-127.2301897,"elevationM":1903},{"id":"node:11624995839","kind":"peak","name":"Kimsquit Ridge","lat":52.9991847,"lon":-127.1587012,"elevationM":848},{"id":"node:11625015096","kind":"peak","name":"Kimsquit Ridge","lat":52.9611248,"lon":-127.1462252,"elevationM":87}]}