{"tileKey":"la_p15_lo_m12","version":"v1-1775891056926","entries":[{"id":"node:4634414259","kind":"peak","name":"Haire Koro","lat":15.7704595,"lon":-11.8264829,"elevationM":null},{"id":"node:4634434803","kind":"peak","name":"Haire Seounde","lat":15.7080978,"lon":-11.8483279,"elevationM":null},{"id":"node:4644993890","kind":"peak","name":"Lezaila","lat":15.7947318,"lon":-11.5325461,"elevationM":120},{"id":"node:4645430683","kind":"peak","name":"Tabbal","lat":15.7648733,"lon":-11.3824572,"elevationM":null},{"id":"node:7734441887","kind":"peak","name":"Gleïb el Moména","lat":15.056711,"lon":-11.9791778,"elevationM":null},{"id":"node:7734441901","kind":"peak","name":"Gleïb Seï Hamar","lat":15.0148798,"lon":-11.9577123,"elevationM":null},{"id":"node:7734442030","kind":"peak","name":"El Aouedi","lat":15.720917,"lon":-11.292668,"elevationM":null},{"id":"node:7734442169","kind":"peak","name":"Chouaz","lat":15.715166,"lon":-11.235237,"elevationM":null},{"id":"node:7734442173","kind":"peak","name":"Haïré Daklé","lat":15.691284,"lon":-11.98026,"elevationM":null},{"id":"node:7734442184","kind":"peak","name":"Gleïb Douboulgui","lat":15.916576,"lon":-11.811735,"elevationM":null},{"id":"node:7734442217","kind":"peak","name":"Founounguidé","lat":15.622142,"lon":-11.385302,"elevationM":null},{"id":"node:7734442306","kind":"peak","name":"Touîjîlet Lemhéd","lat":15.7461074,"lon":-11.7605527,"elevationM":null},{"id":"node:7734442363","kind":"peak","name":"Mzalig","lat":15.646873,"lon":-11.026011,"elevationM":null},{"id":"node:13071413059","kind":"peak","name":"Haire Fout Fout","lat":15.6870564,"lon":-11.8223079,"elevationM":null}]}