{"tileKey":"la_p45_lo_m82","version":"v1-1775891056926","entries":[{"id":"node:1251655811","kind":"peak","name":"Boulder Bluff","lat":45.2318305,"lon":-81.2913219,"elevationM":null},{"id":"node:1391402936","kind":"peak","name":"McLeans Mountain","lat":45.9555034,"lon":-81.9543457,"elevationM":null},{"id":"node:1391411868","kind":"peak","name":"Fossil Hill","lat":45.6773979,"lon":-81.9004373,"elevationM":null},{"id":"node:1391448435","kind":"peak","name":"Sheguiandah Hill","lat":45.9099539,"lon":-81.9294298,"elevationM":null},{"id":"node:1391448585","kind":"peak","name":"Copper Rock","lat":45.7023666,"lon":-81.9756932,"elevationM":null},{"id":"node:1391464396","kind":"peak","name":"Columbus Mountain","lat":45.9509073,"lon":-81.9877348,"elevationM":null},{"id":"node:1391486119","kind":"peak","name":"The Rock","lat":45.7331788,"lon":-81.8172485,"elevationM":null},{"id":"node:1391830990","kind":"peak","name":"Black Summit","lat":45.4098216,"lon":-81.7753149,"elevationM":null},{"id":"node:1391872045","kind":"peak","name":"Church Hill","lat":45.727909,"lon":-81.68667,"elevationM":null},{"id":"node:1391880920","kind":"peak","name":"Burnt Summit","lat":45.6332517,"lon":-81.7411046,"elevationM":null},{"id":"node:1391881956","kind":"peak","name":"Murray Hill","lat":45.7802691,"lon":-81.7081435,"elevationM":null},{"id":"node:1391882461","kind":"peak","name":"Wikwemikong Hill","lat":45.8294508,"lon":-81.6932351,"elevationM":null},{"id":"node:1391883745","kind":"peak","name":"Horsburgh Hill","lat":45.6707371,"lon":-81.6954786,"elevationM":null},{"id":"node:2452372104","kind":"peak","name":"Lions Head","lat":45.9679312,"lon":-81.6161637,"elevationM":null},{"id":"node:2452372105","kind":"peak","name":"Lions Rump","lat":45.9674874,"lon":-81.6095264,"elevationM":null}]}