{"tileKey":"la_p58_lo_p132","version":"v1-1775891056926","entries":[{"id":"node:2581993521","kind":"peak","name":"Кёнгул-Хая","lat":58.9483684,"lon":132.8019501,"elevationM":667},{"id":"node:2581993522","kind":"peak","name":"Сараба-Города","lat":58.8906251,"lon":132.6929611,"elevationM":669},{"id":"node:4883895128","kind":"peak","name":"Легде","lat":58.8374197,"lon":132.2886703,"elevationM":null},{"id":"node:4883895130","kind":"peak","name":"Самалдя-Хаята","lat":58.4777974,"lon":132.0897003,"elevationM":null},{"id":"node:4883895131","kind":"peak","name":"Лиственничная гора","lat":58.6691438,"lon":132.3656367,"elevationM":null}]}