{"tileKey":"la_p39_lo_m78","version":"v1-1775891056926","entries":[{"id":"node:356514932","kind":"peak","name":"Loudoun Heights","lat":39.3078788,"lon":-77.738604,"elevationM":358},{"id":"node:356520482","kind":"peak","name":"Prospect Hill","lat":39.5945409,"lon":-77.9211088,"elevationM":178},{"id":"node:356520569","kind":"peak","name":"Raven Rocks","lat":39.1402245,"lon":-77.8349003,"elevationM":443},{"id":"node:356524950","kind":"peak","name":"High Knob","lat":39.5468114,"lon":-77.9965183,"elevationM":286},{"id":"node:356525208","kind":"peak","name":"Potato Hill","lat":39.5598191,"lon":-77.9905547,"elevationM":238},{"id":"node:356525287","kind":"peak","name":"Snyder Hill","lat":39.2681571,"lon":-77.7933273,"elevationM":200},{"id":"node:356535572","kind":"peak","name":"White Hill","lat":39.3187122,"lon":-77.9961092,"elevationM":170},{"id":"node:356535576","kind":"peak","name":"Camp Hill","lat":39.3240063,"lon":-77.7413067,"elevationM":164},{"id":"node:356560556","kind":"peak","name":"Buzzard Hill","lat":39.0815786,"lon":-77.9013896,"elevationM":397},{"id":"node:356566470","kind":"peak","name":"Taylors Hill","lat":39.0904461,"lon":-77.9197049,"elevationM":306},{"id":"node:356575877","kind":"peak","name":"Buzzard Rock","lat":39.3109345,"lon":-77.6922139,"elevationM":349},{"id":"node:356581936","kind":"peak","name":"Lewin Hill","lat":39.087175,"lon":-77.9398839,"elevationM":244},{"id":"node:356582041","kind":"peak","name":"Purcell Knob","lat":39.2581571,"lon":-77.7497153,"elevationM":368},{"id":"node:356582057","kind":"peak","name":"Round Top","lat":39.1184388,"lon":-77.7933277,"elevationM":267},{"id":"node:356582157","kind":"peak","name":"Toy Hill","lat":39.0748311,"lon":-77.9144948,"elevationM":363},{"id":"node:356583636","kind":"peak","name":"Hogback Mountain","lat":39.0959397,"lon":-77.6072136,"elevationM":187},{"id":"node:356583874","kind":"peak","name":"Steptoe Hill","lat":39.0384413,"lon":-77.677771,"elevationM":176},{"id":"node:356583931","kind":"peak","name":"Vesper Hill","lat":39.0478855,"lon":-77.6772153,"elevationM":122},{"id":"node:356583945","kind":"peak","name":"White Rock","lat":39.3048234,"lon":-77.6977697,"elevationM":346},{"id":"node:356586548","kind":"peak","name":"Bald Mountain","lat":39.2181586,"lon":-77.5691557,"elevationM":235},{"id":"node:356587005","kind":"peak","name":"Short Hill Mountain","lat":39.2691535,"lon":-77.7068245,"elevationM":441},{"id":"node:356593993","kind":"peak","name":"Grindstone Hill","lat":39.144827,"lon":-77.9649968,"elevationM":180},{"id":"node:356605152","kind":"peak","name":"Nokes Hill","lat":39.0224919,"lon":-77.4028827,"elevationM":100},{"id":"node:357274637","kind":"peak","name":"Sword Mountain","lat":39.7112054,"lon":-77.9544436,"elevationM":436},{"id":"node:357275955","kind":"peak","name":"Bakers Knob","lat":39.8084276,"lon":-77.4069321,"elevationM":405},{"id":"node:357276101","kind":"peak","name":"Bare Rock","lat":39.7484276,"lon":-77.4683229,"elevationM":501},{"id":"node:357276332","kind":"peak","name":"Bear Mountain","lat":39.9653704,"lon":-77.2991507,"elevationM":487},{"id":"node:357276670","kind":"peak","name":"Benner Hill","lat":39.8259815,"lon":-77.2143019,"elevationM":171},{"id":"node:357277335","kind":"peak","name":"Big Hill","lat":39.9214819,"lon":-77.356652,"elevationM":491},{"id":"node:357277370","kind":"peak","name":"Big Mountain","lat":39.9494466,"lon":-77.9374372,"elevationM":740},{"id":"node:357278369","kind":"peak","name":"Briar Mountain","lat":39.810133,"lon":-77.4907223,"elevationM":533},{"id":"node:357278484","kind":"peak","name":"Broad Mountain","lat":39.9823116,"lon":-77.8224955,"elevationM":623},{"id":"node:357279204","kind":"peak","name":"Burns Knob","lat":39.7800934,"lon":-77.518879,"elevationM":445},{"id":"node:357279264","kind":"peak","name":"Bushy Hill","lat":39.9245375,"lon":-77.3319294,"elevationM":386},{"id":"node:357279335","kind":"peak","name":"Buzzard Peak","lat":39.8187438,"lon":-77.4712134,"elevationM":593},{"id":"node:357279340","kind":"peak","name":"Buzzards Roost","lat":39.7456497,"lon":-77.4830453,"elevationM":458},{"id":"node:357279737","kind":"peak","name":"Cape Horn","lat":39.9337006,"lon":-77.9261103,"elevationM":527},{"id":"node:357280450","kind":"peak","name":"Chamberlains Hill","lat":39.841205,"lon":-77.3919314,"elevationM":403},{"id":"node:357280784","kind":"peak","name":"Chestnut Hill","lat":39.9570384,"lon":-77.1874823,"elevationM":290},{"id":"node:357280910","kind":"peak","name":"Chimney Rocks","lat":39.8170537,"lon":-77.4705557,"elevationM":535},{"id":"node:357280922","kind":"peak","name":"Chinquapin Hill","lat":39.918703,"lon":-77.4810984,"elevationM":463},{"id":"node:357282303","kind":"peak","name":"Cross Mountain","lat":39.728475,"lon":-77.9917132,"elevationM":627},{"id":"node:357282598","kind":"peak","name":"Curve Mountain","lat":39.7964821,"lon":-77.521101,"elevationM":513},{"id":"node:357282628","kind":"peak","name":"Mount Cydonia","lat":39.8942587,"lon":-77.5127661,"elevationM":386},{"id":"node:357283816","kind":"peak","name":"Eagle Rock","lat":39.8337039,"lon":-77.5205448,"elevationM":493},{"id":"node:357283820","kind":"peak","name":"Eagle Rock","lat":39.9375915,"lon":-77.533877,"elevationM":468},{"id":"node:357286294","kind":"peak","name":"Fox Hill","lat":39.8942605,"lon":-77.3197074,"elevationM":305},{"id":"node:357286660","kind":"peak","name":"Front Mountain","lat":39.9506455,"lon":-77.8327738,"elevationM":535},{"id":"node:357288029","kind":"peak","name":"Graefenburg Hill","lat":39.9137033,"lon":-77.4591537,"elevationM":464},{"id":"node:357288788","kind":"peak","name":"Grindstone Hill","lat":39.8562034,"lon":-77.6169353,"elevationM":283},{"id":"node:357289570","kind":"peak","name":"Harpers Hill","lat":39.7289865,"lon":-77.2649855,"elevationM":219},{"id":"node:357289815","kind":"peak","name":"Haycock","lat":39.731484,"lon":-77.4422111,"elevationM":397},{"id":"node:357290940","kind":"peak","name":"Hogback Mountain","lat":39.9534224,"lon":-77.921388,"elevationM":549},{"id":"node:357291936","kind":"peak","name":"Huckleberry Hill","lat":39.885648,"lon":-77.4747099,"elevationM":422},{"id":"node:357292687","kind":"peak","name":"Jacks Mountain","lat":39.7575949,"lon":-77.4180441,"elevationM":470},{"id":"node:357293430","kind":"peak","name":"Jordans Knob","lat":39.9309232,"lon":-77.8888868,"elevationM":505},{"id":"node:357293496","kind":"peak","name":"Kasies Knob","lat":39.7356495,"lon":-77.9147205,"elevationM":526},{"id":"node:357293745","kind":"peak","name":"Kepner Knob","lat":39.7856497,"lon":-77.4460998,"elevationM":512},{"id":"node:357293769","kind":"peak","name":"Kettle Springs Mountain","lat":39.8762034,"lon":-77.5099885,"elevationM":483},{"id":"node:357294262","kind":"peak","name":"Wilson Hill","lat":39.8195393,"lon":-77.3424864,"elevationM":301},{"id":"node:357295293","kind":"peak","name":"Little Mountain","lat":39.8848143,"lon":-77.5335999,"elevationM":364},{"id":"node:357295312","kind":"peak","name":"Little Mountain","lat":39.9487008,"lon":-77.8716639,"elevationM":590},{"id":"node:357295825","kind":"peak","name":"Ludwigs Hill","lat":39.8945365,"lon":-77.499988,"elevationM":454},{"id":"node:357296595","kind":"peak","name":"Marys Hill","lat":39.8292609,"lon":-77.3835981,"elevationM":418},{"id":"node:357296767","kind":"peak","name":"McGinley Hill","lat":39.7784287,"lon":-77.3591538,"elevationM":275},{"id":"node:357296772","kind":"peak","name":"McKee Hill","lat":39.7560356,"lon":-77.3693528,"elevationM":354},{"id":"node:357297536","kind":"peak","name":"Methodist Hill","lat":39.960647,"lon":-77.4777644,"elevationM":631},{"id":"node:357298226","kind":"peak","name":"Mitten Hill","lat":39.955925,"lon":-77.4552642,"elevationM":587},{"id":"node:357298598","kind":"peak","name":"Monterey Peak","lat":39.7445387,"lon":-77.471934,"elevationM":507},{"id":"node:357301746","kind":"peak","name":"Mount Newman","lat":39.887315,"lon":-77.4349871,"elevationM":544},{"id":"node:357302457","kind":"peak","name":"Oak Knob","lat":39.8345371,"lon":-77.5352674,"elevationM":445},{"id":"node:357302946","kind":"peak","name":"Orebank Hill","lat":39.9120362,"lon":-77.4999877,"elevationM":342},{"id":"node:357303371","kind":"peak","name":"Parnell Knob","lat":39.9170348,"lon":-77.8622192,"elevationM":614},{"id":"node:357303966","kind":"peak","name":"Pigeon Hill","lat":39.8587094,"lon":-77.007758,"elevationM":285},{"id":"node:357304224","kind":"peak","name":"Pine Knob","lat":39.8478704,"lon":-77.5269336,"elevationM":516},{"id":"node:357304491","kind":"peak","name":"Pleasant Peak","lat":39.9287027,"lon":-77.5058209,"elevationM":565},{"id":"node:357304758","kind":"peak","name":"Poke Hill","lat":39.9734244,"lon":-77.5119315,"elevationM":494},{"id":"node:357305082","kind":"peak","name":"Powers Hill","lat":39.8060119,"lon":-77.2210946,"elevationM":171},{"id":"node:357305286","kind":"peak","name":"Quarry Gap Hill","lat":39.9337029,"lon":-77.4783204,"elevationM":523},{"id":"node:357305289","kind":"peak","name":"Quarry Hill","lat":39.927314,"lon":-77.4863762,"elevationM":523},{"id":"node:357305319","kind":"peak","name":"Quincy Mountain","lat":39.816325,"lon":-77.5417244,"elevationM":530},{"id":"node:357305364","kind":"peak","name":"Ram Hill","lat":39.9753695,"lon":-77.4097077,"elevationM":595},{"id":"node:357305370","kind":"peak","name":"Rampike Hill","lat":39.9848148,"lon":-77.2419275,"elevationM":283},{"id":"node:357305407","kind":"peak","name":"Rattlesnake Hill","lat":39.9692595,"lon":-77.264428,"elevationM":326},{"id":"node:357305437","kind":"peak","name":"Raven Rock Mountain","lat":39.7339843,"lon":-77.4194329,"elevationM":462},{"id":"node:357306202","kind":"peak","name":"Rocky Knob","lat":39.9581473,"lon":-77.4410973,"elevationM":566},{"id":"node:357306205","kind":"peak","name":"Rocky Mountain","lat":39.860648,"lon":-77.5066552,"elevationM":570},{"id":"node:357306451","kind":"peak","name":"Round Hill","lat":39.9525956,"lon":-77.0733135,"elevationM":250},{"id":"node:357306517","kind":"peak","name":"Round Top","lat":39.8084263,"lon":-77.5827686,"elevationM":285},{"id":"node:357306521","kind":"peak","name":"Round Top","lat":39.9981478,"lon":-77.2638722,"elevationM":331},{"id":"node:357306735","kind":"peak","name":"Rupp Hill","lat":39.8153721,"lon":-77.3960985,"elevationM":452},{"id":"node:357312514","kind":"peak","name":"Shriners Knob","lat":39.8012043,"lon":-77.5019339,"elevationM":513},{"id":"node:357312653","kind":"peak","name":"Sier Hill","lat":39.964536,"lon":-77.4405416,"elevationM":586},{"id":"node:357312924","kind":"peak","name":"Snowy Mountain","lat":39.8346285,"lon":-77.494447,"elevationM":637},{"id":"node:357315089","kind":"peak","name":"Stone Jug Hill","lat":39.9203726,"lon":-77.1835937,"elevationM":216},{"id":"node:357315166","kind":"peak","name":"Stony Knob","lat":39.97148,"lon":-77.5222095,"elevationM":376},{"id":"node:357315240","kind":"peak","name":"Strasbaugh Hill","lat":39.9678696,"lon":-77.4172079,"elevationM":605},{"id":"node:357315414","kind":"peak","name":"Sugar Loaf","lat":39.807595,"lon":-77.35332,"elevationM":251},{"id":"node:357316126","kind":"peak","name":"The Knob","lat":39.8534265,"lon":-77.4441543,"elevationM":573},{"id":"node:357317253","kind":"peak","name":"Tunnel Hill","lat":39.748428,"lon":-77.4411002,"elevationM":451},{"id":"node:357317531","kind":"peak","name":"Tysons Hill","lat":39.9667596,"lon":-77.2524834,"elevationM":224},{"id":"node:357318874","kind":"peak","name":"Virginia Rock","lat":39.772594,"lon":-77.4641558,"elevationM":545},{"id":"node:357320392","kind":"peak","name":"Wigwam Hill","lat":39.9403696,"lon":-77.4658201,"elevationM":549},{"id":"node:357320418","kind":"peak","name":"Wildcat Hill","lat":39.9300921,"lon":-77.4480422,"elevationM":465},{"id":"node:357320421","kind":"peak","name":"Wildcat Knob","lat":39.9542594,"lon":-77.3149844,"elevationM":364},{"id":"node:357320424","kind":"peak","name":"Wildcat Rocks","lat":39.7598163,"lon":-77.4686006,"elevationM":533},{"id":"node:357320778","kind":"peak","name":"Wolf Hill","lat":39.9492585,"lon":-77.453042,"elevationM":551},{"id":"node:357320812","kind":"peak","name":"Wolfpit Hill","lat":39.9892596,"lon":-77.2127603,"elevationM":295},{"id":"node:357321052","kind":"peak","name":"Yellow Hill","lat":39.9495375,"lon":-77.2805395,"elevationM":350},{"id":"node:357321660","kind":"peak","name":"Claylick Mountain","lat":39.7567602,"lon":-77.9133317,"elevationM":312},{"id":"node:357321748","kind":"peak","name":"Mount Dunlop","lat":39.7289834,"lon":-77.4894341,"elevationM":513},{"id":"node:357322250","kind":"peak","name":"Montalto Mountain","lat":39.8586671,"lon":-77.5185677,"elevationM":522},{"id":"node:357322473","kind":"peak","name":"Piney Mountain","lat":39.9606477,"lon":-77.3888743,"elevationM":513},{"id":"node:357322510","kind":"peak","name":"Rickard Mountain","lat":39.7259274,"lon":-77.9213874,"elevationM":472},{"id":"node:357322525","kind":"peak","name":"Rock Top","lat":39.8892601,"lon":-77.3641525,"elevationM":363},{"id":"node:357323141","kind":"peak","name":"Two Top Mountain","lat":39.7392605,"lon":-77.9530548,"elevationM":462},{"id":"node:357344522","kind":"peak","name":"McCarrys Knob","lat":39.7959273,"lon":-77.4413774,"elevationM":511},{"id":"node:357344619","kind":"peak","name":"Pivot Rock","lat":39.8637035,"lon":-77.504433,"elevationM":563},{"id":"node:357365539","kind":"peak","name":"Pine Mountain","lat":39.7561386,"lon":-77.4473073,"elevationM":480},{"id":"node:358238059","kind":"peak","name":"Abe Mills Mountain","lat":39.6703138,"lon":-77.9701711,"elevationM":409},{"id":"node:358238080","kind":"peak","name":"Annapolis Rock","lat":39.5583667,"lon":-77.5987066,"elevationM":538},{"id":"node:358238205","kind":"peak","name":"Black Rock","lat":39.589806,"lon":-77.4776331,"elevationM":526},{"id":"node:358238230","kind":"peak","name":"Boyd Mountain","lat":39.648151,"lon":-77.9569433,"elevationM":302},{"id":"node:358238281","kind":"peak","name":"Bullskin Mountain","lat":39.7084275,"lon":-77.9972225,"elevationM":471},{"id":"node:358238325","kind":"peak","name":"Carrick Knob","lat":39.6906091,"lon":-77.3788434,"elevationM":495},{"id":"node:358238451","kind":"peak","name":"College Mountain","lat":39.6907948,"lon":-77.3740602,"elevationM":520},{"id":"node:358238732","kind":"peak","name":"Fairview Mountain","lat":39.6559285,"lon":-77.9691659,"elevationM":505},{"id":"node:358238833","kind":"peak","name":"Gillians Knob","lat":39.6850947,"lon":-77.9505545,"elevationM":479},{"id":"node:358238970","kind":"peak","name":"Hawks Hill","lat":39.4012114,"lon":-77.7083254,"elevationM":287},{"id":"node:358238977","kind":"peak","name":"Hearthstone Mountain","lat":39.7119803,"lon":-77.9726662,"elevationM":616},{"id":"node:358239173","kind":"peak","name":"Laurel Hill","lat":39.5253787,"lon":-77.3027612,"elevationM":163},{"id":"node:358239212","kind":"peak","name":"Little Piney Mountain","lat":39.6734304,"lon":-77.4072096,"elevationM":395},{"id":"node:358239383","kind":"peak","name":"Miller Hill","lat":39.5140228,"lon":-77.5188536,"elevationM":416},{"id":"node:358239864","kind":"peak","name":"Pine Knob","lat":39.542081,"lon":-77.5965403,"elevationM":518},{"id":"node:358239868","kind":"peak","name":"Pine Rock","lat":39.315211,"lon":-77.5311655,"elevationM":346},{"id":"node:358239907","kind":"peak","name":"Piney Mountain","lat":39.6620416,"lon":-77.4235987,"elevationM":524},{"id":"node:358239987","kind":"peak","name":"Powell Mountain","lat":39.7059277,"lon":-77.9197205,"elevationM":432},{"id":"node:358240040","kind":"peak","name":"Rickard Mountain","lat":39.7256497,"lon":-77.9213874,"elevationM":470},{"id":"node:358240109","kind":"peak","name":"Round Top","lat":39.6834301,"lon":-77.3963596,"elevationM":520},{"id":"node:358240404","kind":"peak","name":"Salamander Rock","lat":39.5761788,"lon":-77.4880136,"elevationM":562},{"id":"node:358240602","kind":"peak","name":"Sword Mountain","lat":39.7111976,"lon":-77.9544463,"elevationM":436},{"id":"node:358240786","kind":"peak","name":"Wertenbaker Hill","lat":39.6914853,"lon":-77.4247102,"elevationM":493},{"id":"node:358241470","kind":"peak","name":"Black Hill","lat":39.1872001,"lon":-77.2983564,"elevationM":148},{"id":"node:358241472","kind":"peak","name":"Black Rock","lat":39.5732753,"lon":-77.5971889,"elevationM":549},{"id":"node:358241474","kind":"peak","name":"Bob's Hill","lat":39.6000877,"lon":-77.461608,"elevationM":535},{"id":"node:358241489","kind":"peak","name":"Buzzard Knob","lat":39.6607852,"lon":-77.538233,"elevationM":475},{"id":"node:358241491","kind":"peak","name":"Cat Rock","lat":39.6161502,"lon":-77.4487719,"elevationM":476},{"id":"node:358241493","kind":"peak","name":"Catoctin Mountain","lat":39.6485039,"lon":-77.4662658,"elevationM":572},{"id":"node:358241497","kind":"peak","name":"Chestnut Hill","lat":39.5395449,"lon":-77.3341508,"elevationM":203},{"id":"node:358241498","kind":"peak","name":"Chimney Rock","lat":39.6290672,"lon":-77.4328129,"elevationM":432},{"id":"node:358241507","kind":"peak","name":"Derr Hill","lat":39.7009297,"lon":-77.4022099,"elevationM":454},{"id":"node:358241510","kind":"peak","name":"Devils Backbone","lat":39.5478761,"lon":-77.7044367,"elevationM":156},{"id":"node:358241541","kind":"peak","name":"High Knob","lat":39.4624205,"lon":-77.4953109,"elevationM":472},{"id":"node:358241542","kind":"peak","name":"High Rock","lat":39.6950954,"lon":-77.5224899,"elevationM":559},{"id":"node:358241546","kind":"peak","name":"Hunting Hill","lat":39.0848305,"lon":-77.1980364,"elevationM":156},{"id":"node:358241551","kind":"peak","name":"Jigger Hill","lat":39.4285771,"lon":-77.4970803,"elevationM":341},{"id":"node:358241552","kind":"peak","name":"Johnson Mountain","lat":39.675095,"lon":-77.9344429,"elevationM":348},{"id":"node:358241571","kind":"peak","name":"Maryland Heights","lat":39.341074,"lon":-77.7164159,"elevationM":444},{"id":"node:358241577","kind":"peak","name":"Monument Knob","lat":39.5006558,"lon":-77.6227677,"elevationM":468},{"id":"node:358241604","kind":"peak","name":"Quirauk Mountain","lat":39.6964843,"lon":-77.5127675,"elevationM":654},{"id":"node:358241605","kind":"peak","name":"Raven Rock","lat":39.6706517,"lon":-77.5322119,"elevationM":515},{"id":"node:358241611","kind":"peak","name":"Ridge Hill","lat":39.4356572,"lon":-77.4955422,"elevationM":373},{"id":"node:358252980","kind":"peak","name":"Ferry Hill","lat":39.4388183,"lon":-77.7976229,"elevationM":134},{"id":"node:358253035","kind":"peak","name":"Nicodemus Heights","lat":39.4850991,"lon":-77.7586045,"elevationM":152},{"id":"node:358253040","kind":"peak","name":"Red Hill","lat":39.4531554,"lon":-77.7002697,"elevationM":318},{"id":"node:358253813","kind":"peak","name":"Hauser Ridge","lat":39.4750992,"lon":-77.7583267,"elevationM":152},{"id":"node:1025322704","kind":"peak","name":"Lambs Knoll","lat":39.4483299,"lon":-77.6268713,"elevationM":536},{"id":"node:1772554971","kind":"peak","name":"Sugarloaf Mountain","lat":39.2624778,"lon":-77.3932316,"elevationM":387},{"id":"node:3633459062","kind":"peak","name":"Wolf Rock","lat":39.6339432,"lon":-77.437662,"elevationM":427},{"id":"node:3984344539","kind":"peak","name":"Waterford Peak","lat":39.1856186,"lon":-77.5730475,"elevationM":361},{"id":"node:4247059182","kind":"peak","name":"Huckleberry Hill","lat":39.3421097,"lon":-77.7496899,"elevationM":196},{"id":"node:5991507250","kind":"peak","name":"Neersville","lat":39.2380578,"lon":-77.77116,"elevationM":467},{"id":"node:6683539569","kind":"peak","name":"Little Round Top","lat":39.7910945,"lon":-77.2357439,"elevationM":200},{"id":"node:7128731210","kind":"peak","name":"Big Round Top","lat":39.786749,"lon":-77.2394101,"elevationM":235},{"id":"node:7244933702","kind":"peak","name":"Culps Hill","lat":39.8198058,"lon":-77.2211481,"elevationM":192},{"id":"node:7246028638","kind":"peak","name":"Cemetery Hill","lat":39.8217575,"lon":-77.2295011,"elevationM":184},{"id":"node:7276091728","kind":"peak","name":"Wolf's Hill","lat":39.8160182,"lon":-77.2079583,"elevationM":206},{"id":"node:7286565751","kind":"peak","name":"Granite Hill","lat":39.8506352,"lon":-77.1605461,"elevationM":223},{"id":"node:7500066689","kind":"peak","name":"Carr Hill","lat":39.8253941,"lon":-77.3282409,"elevationM":267},{"id":"node:7523676428","kind":"peak","name":"Sheep Heaven","lat":39.8080489,"lon":-77.2067588,"elevationM":182},{"id":"node:8905344405","kind":"peak","name":"Paris Mountain","lat":39.0326223,"lon":-77.927294,"elevationM":587},{"id":"node:9139124138","kind":"peak","name":"Oak Mountain","lat":39.8295036,"lon":-77.5391861,"elevationM":null},{"id":"node:9146798305","kind":"peak","name":"White Rocks","lat":39.869334,"lon":-77.521894,"elevationM":466},{"id":"node:9147567245","kind":"peak","name":"Reservoir Hill","lat":39.8133843,"lon":-77.4514018,"elevationM":null},{"id":"node:11373852153","kind":"peak","name":"Negro Mountain","lat":39.0025,"lon":-77.58527,"elevationM":null},{"id":"node:11373852163","kind":"peak","name":"Furnace Mountain","lat":39.2645387,"lon":-77.5535969,"elevationM":null},{"id":"node:11373918202","kind":"peak","name":"Short Hill","lat":39.5359325,"lon":-77.6333238,"elevationM":null}]}