{"tileKey":"la_p30_lo_p106","version":"v1-1775891056926","entries":[{"id":"node:3494897502","kind":"peak","name":"义总会梁子","lat":30.1835888,"lon":106.2441593,"elevationM":null},{"id":"node:3496419905","kind":"peak","name":"华蓥山","lat":30.123589,"lon":106.6974322,"elevationM":null},{"id":"node:4791141723","kind":"peak","name":"长顶山","lat":30.7319845,"lon":106.0562784,"elevationM":null},{"id":"node:4791141724","kind":"peak","name":"大尖山","lat":30.7315602,"lon":106.0438114,"elevationM":null},{"id":"node:4791141725","kind":"peak","name":"凤垭山","lat":30.7331464,"lon":106.0478669,"elevationM":null},{"id":"node:5241217582","kind":"peak","name":"银鼎山","lat":30.3386815,"lon":106.9255757,"elevationM":null},{"id":"node:5667649293","kind":"peak","name":"尖峰岭 565","lat":30.9518399,"lon":106.6633396,"elevationM":null},{"id":"node:5667649294","kind":"peak","name":"尖山子 640.3","lat":30.9353584,"lon":106.6155844,"elevationM":null},{"id":"node:5667649295","kind":"peak","name":"保风寨 698.2","lat":30.9227413,"lon":106.6461729,"elevationM":null},{"id":"node:5915623729","kind":"peak","name":"白云山","lat":30.8595104,"lon":106.6060371,"elevationM":null},{"id":"node:5915623732","kind":"peak","name":"磨刀岭","lat":30.9685675,"lon":106.6169376,"elevationM":null},{"id":"node:5915623734","kind":"peak","name":"石家山","lat":30.9551722,"lon":106.5864677,"elevationM":null},{"id":"node:5915623737","kind":"peak","name":"梨子垭","lat":30.9213811,"lon":106.5968533,"elevationM":null},{"id":"node:5915623747","kind":"peak","name":"马鞍山","lat":30.9450876,"lon":106.5999432,"elevationM":null},{"id":"node:5915623761","kind":"peak","name":"白岩寨","lat":30.9182149,"lon":106.6132426,"elevationM":null},{"id":"node:7207808647","kind":"peak","name":"华蓥山","lat":30.231193,"lon":106.7752236,"elevationM":null},{"id":"node:7273593019","kind":"peak","name":"腰子岩","lat":30.1017132,"lon":106.0298272,"elevationM":null},{"id":"node:7312270425","kind":"peak","name":"纯阳山","lat":30.0004164,"lon":106.2660291,"elevationM":null},{"id":"node:7312270426","kind":"peak","name":"蟠龙山","lat":30.0029493,"lon":106.2635575,"elevationM":null},{"id":"node:7312270428","kind":"peak","name":"牟山","lat":30.0150418,"lon":106.2453362,"elevationM":null},{"id":"node:7327224917","kind":"peak","name":"小花山","lat":30.0278034,"lon":106.2854356,"elevationM":270},{"id":"node:7327240629","kind":"peak","name":"黄桷树梁梁","lat":30.0272385,"lon":106.3104614,"elevationM":240},{"id":"node:7327240631","kind":"peak","name":"鹅石口梁梁","lat":30.0281394,"lon":106.3088263,"elevationM":257},{"id":"node:7327240634","kind":"peak","name":"老坟山","lat":30.0294107,"lon":106.3114708,"elevationM":240},{"id":"node:7327240640","kind":"peak","name":"打架坪","lat":30.0320954,"lon":106.3089606,"elevationM":252},{"id":"node:7366820367","kind":"peak","name":"云门山","lat":30.0635652,"lon":106.3280432,"elevationM":432},{"id":"node:7834307102","kind":"peak","name":"平安山","lat":30.0062891,"lon":106.1529922,"elevationM":404},{"id":"node:7962307556","kind":"peak","name":"尖山子","lat":30.0100341,"lon":106.3875708,"elevationM":297},{"id":"node:8115225196","kind":"peak","name":"黄桷梁","lat":30.0374781,"lon":106.2422726,"elevationM":null},{"id":"node:8115225207","kind":"peak","name":"沙坝堡","lat":30.0302362,"lon":106.2472825,"elevationM":267},{"id":"node:8115225225","kind":"peak","name":"磨盘山","lat":30.0324231,"lon":106.2612147,"elevationM":260},{"id":"node:8753520386","kind":"peak","name":"簸箕岩","lat":30.0218191,"lon":106.3252666,"elevationM":null},{"id":"node:9013942867","kind":"peak","name":"钓鱼山","lat":30.0067238,"lon":106.3101521,"elevationM":null},{"id":"node:9013942868","kind":"peak","name":"梭子岭岗","lat":30.0113691,"lon":106.323091,"elevationM":null},{"id":"node:9013942869","kind":"peak","name":"脑顶坪","lat":30.004273,"lon":106.3201929,"elevationM":null},{"id":"node:9013942871","kind":"peak","name":"团山堡","lat":30.009069,"lon":106.3313349,"elevationM":null},{"id":"node:9013942872","kind":"peak","name":"狮子山","lat":30.007694,"lon":106.326185,"elevationM":null},{"id":"node:9013942877","kind":"peak","name":"董家岩口","lat":30.0004749,"lon":106.3463602,"elevationM":null},{"id":"node:9013942878","kind":"peak","name":"小二岩","lat":30.0027283,"lon":106.3569749,"elevationM":null},{"id":"node:9013942879","kind":"peak","name":"双山子","lat":30.0051998,"lon":106.3629616,"elevationM":null},{"id":"node:9013942880","kind":"peak","name":"香炉山","lat":30.009174,"lon":106.3722641,"elevationM":null},{"id":"node:9013942888","kind":"peak","name":"马鞍山","lat":30.0104719,"lon":106.3130712,"elevationM":null},{"id":"node:9140937842","kind":"peak","name":"量金斗","lat":30.9627807,"lon":106.4002908,"elevationM":520},{"id":"node:9838694252","kind":"peak","name":"濮岩山","lat":30.0133647,"lon":106.2562066,"elevationM":null},{"id":"node:12069525471","kind":"peak","name":"元宝山","lat":30.9489491,"lon":106.203388,"elevationM":null},{"id":"node:12069550585","kind":"peak","name":"亭子山","lat":30.9395729,"lon":106.2143392,"elevationM":null}]}