{"tileKey":"la_p7_lo_m9","version":"v1-1775891056926","entries":[{"id":"node:321543750","kind":"peak","name":"Nimba","lat":7.6225882,"lon":-8.4080587,"elevationM":1752},{"id":"node:2750909407","kind":"peak","name":"Mount Nuon-Fa","lat":7.555619,"lon":-8.471162,"elevationM":1250},{"id":"node:2768582124","kind":"peak","name":"Mont Momi","lat":7.4342472,"lon":-8.0842337,"elevationM":1250},{"id":"node:3050691603","kind":"peak","name":"Blédokanton","lat":7.333333,"lon":-8.016667,"elevationM":null},{"id":"node:3050691604","kind":"peak","name":"Bou","lat":7.5750643,"lon":-8.0077264,"elevationM":null},{"id":"node:3050691605","kind":"peak","name":"Danton","lat":7.4806275,"lon":-8.0048641,"elevationM":null},{"id":"node:3050691606","kind":"peak","name":"Daton","lat":7.493048,"lon":-8.0200429,"elevationM":null},{"id":"node:3050691607","kind":"peak","name":"Drangouine","lat":7.4262053,"lon":-8.0599912,"elevationM":null},{"id":"node:3050691608","kind":"peak","name":"Ganzé","lat":7.3309873,"lon":-8.0463673,"elevationM":null},{"id":"node:3050691609","kind":"peak","name":"Gao","lat":7.5321448,"lon":-8.0982468,"elevationM":null},{"id":"node:3050691610","kind":"peak","name":"Goton","lat":7.5867371,"lon":-8.0543427,"elevationM":null},{"id":"node:3050691629","kind":"peak","name":"Mont Momi","lat":7.437983,"lon":-8.086395,"elevationM":null},{"id":"node:3050691630","kind":"peak","name":"Niéton","lat":7.592265,"lon":-8.136065,"elevationM":1004},{"id":"node:3050691738","kind":"peak","name":"Oulousse Ye","lat":7.348571,"lon":-8.094413,"elevationM":null},{"id":"node:3050691739","kind":"peak","name":"Tonréi","lat":7.52198,"lon":-8.176243,"elevationM":null},{"id":"node:3050691740","kind":"peak","name":"Tuoton","lat":7.5598846,"lon":-8.0487009,"elevationM":null},{"id":"node:3050691742","kind":"peak","name":"Zouamouton","lat":7.3270473,"lon":-8.0154671,"elevationM":null},{"id":"node:3915963078","kind":"peak","name":"Tiéton","lat":7.5645188,"lon":-8.2171563,"elevationM":null},{"id":"node:3915963079","kind":"peak","name":"Tonki","lat":7.5379417,"lon":-8.1898637,"elevationM":null},{"id":"node:3915963080","kind":"peak","name":"Tonréi","lat":7.52198,"lon":-8.176243,"elevationM":null},{"id":"node:3916755614","kind":"peak","name":"Gangra","lat":7.5455614,"lon":-8.6362362,"elevationM":null},{"id":"node:3916755615","kind":"peak","name":"Tombu","lat":7.6247286,"lon":-8.6664369,"elevationM":null},{"id":"node:3916755616","kind":"peak","name":"Yulitohn","lat":7.5697201,"lon":-8.6293853,"elevationM":null},{"id":"node:3916856591","kind":"peak","name":"Bulleton","lat":7.6477261,"lon":-8.5808776,"elevationM":null},{"id":"node:3916856592","kind":"peak","name":"Bume","lat":7.6706077,"lon":-8.5844198,"elevationM":null},{"id":"node:3916856593","kind":"peak","name":"Gbaam","lat":7.563333,"lon":-8.52,"elevationM":null},{"id":"node:3916856594","kind":"peak","name":"Gletohn","lat":7.62273,"lon":-8.5583097,"elevationM":null},{"id":"node:3916856595","kind":"peak","name":"Maatohn","lat":7.6643931,"lon":-8.6077284,"elevationM":null},{"id":"node:3917456582","kind":"peak","name":"Bili","lat":7.3991019,"lon":-8.6046488,"elevationM":null},{"id":"node:3917456583","kind":"peak","name":"Dohn","lat":7.4229123,"lon":-8.44936,"elevationM":null},{"id":"node:3917456584","kind":"peak","name":"Kuahn","lat":7.3630633,"lon":-8.47365,"elevationM":null},{"id":"node:3917456585","kind":"peak","name":"Lah","lat":7.3538953,"lon":-8.5067737,"elevationM":null},{"id":"node:3917456586","kind":"peak","name":"Shroh","lat":7.427662,"lon":-8.46101,"elevationM":null},{"id":"node:3918199173","kind":"peak","name":"Gleton","lat":7.521998,"lon":-8.6620039,"elevationM":null},{"id":"node:3918199174","kind":"peak","name":"Kanh","lat":7.5417776,"lon":-8.7031943,"elevationM":null},{"id":"node:3918199175","kind":"peak","name":"Tokadeh","lat":7.4503836,"lon":-8.6731281,"elevationM":null},{"id":"node:3920309893","kind":"peak","name":"Njamussa","lat":7.4283505,"lon":-8.7282627,"elevationM":null},{"id":"node:3920309894","kind":"peak","name":"Yidoinye","lat":7.4198699,"lon":-8.7344635,"elevationM":null},{"id":"node:3920631370","kind":"peak","name":"Demina","lat":7.3309862,"lon":-8.8157562,"elevationM":null},{"id":"node:3920631371","kind":"peak","name":"Goklu","lat":7.330877,"lon":-8.8376024,"elevationM":null},{"id":"node:3920631372","kind":"peak","name":"Kpaya","lat":7.2471649,"lon":-8.9435596,"elevationM":null},{"id":"node:3920631373","kind":"peak","name":"Morris","lat":7.3018493,"lon":-8.823518,"elevationM":null},{"id":"node:3924246725","kind":"peak","name":"Mlantan","lat":7.2358487,"lon":-8.6307166,"elevationM":null},{"id":"node:3924246726","kind":"peak","name":"Soho","lat":7.3125131,"lon":-8.6790984,"elevationM":null},{"id":"node:3924246727","kind":"peak","name":"Willitohn","lat":7.3559562,"lon":-8.6724887,"elevationM":null},{"id":"node:13358157694","kind":"peak","name":"Sra","lat":7.5066483,"lon":-8.146085,"elevationM":null},{"id":"node:13358158052","kind":"peak","name":"Mont Bablé","lat":7.733114,"lon":-8.0000518,"elevationM":null},{"id":"node:13445068171","kind":"peak","name":"Miagblé","lat":7.3611901,"lon":-8.0240536,"elevationM":null}]}