{"tileKey":"la_p30_lo_m9","version":"v1-1775891056926","entries":[{"id":"node:364733759","kind":"peak","name":"Jebel Aklim","lat":30.1112766,"lon":-8.2714437,"elevationM":2531},{"id":"node:2361719581","kind":"peak","name":"Imaradene","lat":30.8983064,"lon":-8.6528201,"elevationM":3310},{"id":"node:2362723778","kind":"peak","name":"Awrir-n-Said","lat":30.9458145,"lon":-8.5557421,"elevationM":3400},{"id":"node:2362723779","kind":"peak","name":"Mtdadene","lat":30.8575854,"lon":-8.7300213,"elevationM":3300},{"id":"node:2362723780","kind":"peak","name":"MouLay Ali","lat":30.8954683,"lon":-8.6917408,"elevationM":3349},{"id":"node:2362723785","kind":"peak","name":"Jbel Awlim","lat":30.8206586,"lon":-8.8059111,"elevationM":3450},{"id":"node:2366881935","kind":"peak","name":"Igdat","lat":30.9643406,"lon":-8.4436351,"elevationM":3580},{"id":"node:2371110731","kind":"peak","name":"Azrou Asdim","lat":30.9357126,"lon":-8.5967529,"elevationM":3101},{"id":"node:2371111010","kind":"peak","name":"Amendach","lat":30.9354917,"lon":-8.5656393,"elevationM":3350},{"id":"node:4078852927","kind":"peak","name":"Jbel Tinergwet","lat":30.8133909,"lon":-8.8281329,"elevationM":3555},{"id":"node:6174742967","kind":"peak","name":"Adrar N'Dern","lat":30.8109056,"lon":-8.8162428,"elevationM":null},{"id":"node:8724479440","kind":"peak","name":"Mgount","lat":30.8102048,"lon":-8.8537622,"elevationM":3135},{"id":"node:9176576010","kind":"peak","name":"Aguer Skawn","lat":30.8632747,"lon":-8.7333431,"elevationM":3255}]}