{"tileKey":"la_p68_lo_p18","version":"v1-1775891056926","entries":[{"id":"node:26862452","kind":"peak","name":"Adnjetjårro","lat":68.2073895,"lon":18.6787402,"elevationM":1755},{"id":"node:26862473","kind":"peak","name":"Alip Vealevárri","lat":68.1469454,"lon":18.9843325,"elevationM":1528},{"id":"node:26862567","kind":"peak","name":"Bjoernen","lat":68.77,"lon":18.4408333,"elevationM":null},{"id":"node:26863146","kind":"peak","name":"Hestryggen","lat":68.8708333,"lon":18.7388889,"elevationM":null},{"id":"node:26863157","kind":"peak","name":"Hjeleelvtinden","lat":68.6104733,"lon":18.6438748,"elevationM":1569},{"id":"node:26863160","kind":"peak","name":"Hjerttinden","lat":68.9954313,"lon":18.2269454,"elevationM":1381},{"id":"node:26863246","kind":"peak","name":"Isogaisse","lat":68.835,"lon":18.8638889,"elevationM":null},{"id":"node:26863262","kind":"peak","name":"Den","lat":68.5727778,"lon":18.0863889,"elevationM":null},{"id":"node:26863350","kind":"peak","name":"Kåtotjåkka","lat":68.1448882,"lon":18.6217824,"elevationM":1991},{"id":"node:26863367","kind":"peak","name":"Gielasčohkka","lat":68.1977004,"lon":18.8264559,"elevationM":1803},{"id":"node:26863413","kind":"peak","name":"Koparskardtinden","lat":68.7405556,"lon":18.8272222,"elevationM":1387},{"id":"node:26863505","kind":"peak","name":"Langfjellet - Nuorttat Duolljegáisi","lat":68.818296,"lon":18.7303066,"elevationM":1330},{"id":"node:26863555","kind":"peak","name":"Livelttinden","lat":68.7263889,"lon":18.3744444,"elevationM":null},{"id":"node:26863674","kind":"peak","name":"Melkefjellet","lat":68.6497222,"lon":18.0044444,"elevationM":null},{"id":"node:26864089","kind":"peak","name":"Nissončorru","lat":68.2525851,"lon":18.933661,"elevationM":null},{"id":"node:26864107","kind":"peak","name":"Oallacak'ka","lat":68.2819444,"lon":18.0347222,"elevationM":null},{"id":"node:26864444","kind":"peak","name":"Rieppicak'ka","lat":68.59,"lon":18.5088889,"elevationM":1459},{"id":"node:26864592","kind":"peak","name":"Šielmmáčohkka","lat":68.0398254,"lon":18.4481238,"elevationM":2004},{"id":"node:26864804","kind":"peak","name":"Storala","lat":68.9084457,"lon":18.3300072,"elevationM":1237},{"id":"node:26864923","kind":"peak","name":"Tjåmuhas","lat":68.2530966,"lon":18.7139507,"elevationM":1730},{"id":"node:26865036","kind":"peak","name":"Vássečohkka","lat":68.3688723,"lon":18.3227602,"elevationM":null},{"id":"node:26865106","kind":"peak","name":"Unna Visttasčohkka","lat":68.0998089,"lon":18.4707393,"elevationM":1682},{"id":"node:342300978","kind":"peak","name":"Nállu","lat":68.0217003,"lon":18.430387,"elevationM":1585},{"id":"node:408494999","kind":"peak","name":"Varden","lat":68.8399939,"lon":18.3132129,"elevationM":289},{"id":"node:510337249","kind":"peak","name":"Nuolja","lat":68.3725622,"lon":18.6987697,"elevationM":1164},{"id":"node:510337266","kind":"peak","name":"Giron","lat":68.2710721,"lon":18.660041,"elevationM":1551},{"id":"node:1210479706","kind":"peak","name":"Miesákčohkka","lat":68.1635141,"lon":18.5912275,"elevationM":1701},{"id":"node:1575566980","kind":"peak","name":"Gravare","lat":68.4817086,"lon":18.9633274,"elevationM":1163},{"id":"node:1698306827","kind":"peak","name":"Kåbbletjåkko","lat":68.3834602,"lon":18.3831929,"elevationM":1448},{"id":"node:1698306831","kind":"peak","name":"Kåppasåive","lat":68.3867323,"lon":18.5020515,"elevationM":1428},{"id":"node:1698306832","kind":"peak","name":"Lullehačorru","lat":68.4943928,"lon":18.7348091,"elevationM":869},{"id":"node:1698306833","kind":"peak","name":"Loktačohkka","lat":68.4051307,"lon":18.4614014,"elevationM":1426},{"id":"node:1698306850","kind":"peak","name":"Njunis","lat":68.5235548,"lon":18.5534602,"elevationM":1125},{"id":"node:1698306856","kind":"peak","name":"Rohččevárri","lat":68.4629681,"lon":18.1663712,"elevationM":726},{"id":"node:1698306860","kind":"peak","name":"Beaivvečohkka","lat":68.5428328,"lon":18.3093311,"elevationM":1326},{"id":"node:1698306861","kind":"peak","name":"Láirečohkka","lat":68.4589849,"lon":18.9700341,"elevationM":1142},{"id":"node:1698306879","kind":"peak","name":"Bolnováráš","lat":68.501293,"lon":18.6011895,"elevationM":601},{"id":"node:1698306886","kind":"peak","name":"Jiebrenčohkka","lat":68.4737608,"lon":18.893812,"elevationM":1019},{"id":"node:1698306889","kind":"peak","name":"Vádvečohkka","lat":68.5311138,"lon":18.4455706,"elevationM":1109},{"id":"node:1698314528","kind":"peak","name":"Jorba Gearbil","lat":68.3065202,"lon":18.2575175,"elevationM":1346},{"id":"node:1698314532","kind":"peak","name":"Vássečohkka","lat":68.4009,"lon":18.2219051,"elevationM":1412},{"id":"node:1698328043","kind":"peak","name":"Miesákčohkka","lat":68.1721337,"lon":18.5918097,"elevationM":1601},{"id":"node:1698328068","kind":"peak","name":"Visttasvárri","lat":68.1497172,"lon":18.4879516,"elevationM":1299},{"id":"node:1698342568","kind":"peak","name":"Gállanvárri","lat":68.14826,"lon":18.149286,"elevationM":1499},{"id":"node:1698342572","kind":"peak","name":"Alisbuoldda","lat":68.1469165,"lon":18.354658,"elevationM":1167},{"id":"node:1698342576","kind":"peak","name":"Gárddečohkka","lat":68.1439718,"lon":18.3071071,"elevationM":1510},{"id":"node:1698342586","kind":"peak","name":"Påssustjåkka","lat":68.0658478,"lon":18.4481621,"elevationM":1935},{"id":"node:3299590504","kind":"peak","name":"Báhkkabahokčohkka","lat":68.1958762,"lon":18.8511346,"elevationM":1687},{"id":"node:3776254670","kind":"peak","name":"Blåberget","lat":68.8491361,"lon":18.5782924,"elevationM":1218},{"id":"node:3776254671","kind":"peak","name":"Holtet","lat":68.8747219,"lon":18.4156552,"elevationM":533},{"id":"node:3787228253","kind":"peak","name":"Gråhøgda - Ápmunoaivi","lat":68.8974801,"lon":18.4846758,"elevationM":994},{"id":"node:3787228254","kind":"peak","name":"Grønfjellet","lat":68.8761425,"lon":18.5222623,"elevationM":875},{"id":"node:3982882588","kind":"peak","name":"Sjupynten","lat":68.8643162,"lon":18.2659412,"elevationM":null},{"id":"node:4337281491","kind":"peak","name":"Gátterjunni","lat":68.4185778,"lon":18.098204,"elevationM":902},{"id":"node:4337281992","kind":"peak","name":"Gátterjohkka","lat":68.4064988,"lon":18.0892853,"elevationM":1052},{"id":"node:4337281993","kind":"peak","name":"Sørdalstinden","lat":68.365361,"lon":18.0004826,"elevationM":919},{"id":"node:4337568491","kind":"peak","name":"Bjørnfjellet","lat":68.4489083,"lon":18.0882882,"elevationM":761},{"id":"node:4337587489","kind":"peak","name":"Stoakčeváraš","lat":68.5171552,"lon":18.1942713,"elevationM":668},{"id":"node:4346518002","kind":"peak","name":"Paddus","lat":68.3189162,"lon":18.8654378,"elevationM":606},{"id":"node:4428156194","kind":"peak","name":"Šiellanjunni","lat":68.2340379,"lon":18.6510509,"elevationM":1461},{"id":"node:4428175473","kind":"peak","name":"Suorivárri","lat":68.157426,"lon":18.7565073,"elevationM":1161},{"id":"node:4428199244","kind":"peak","name":"Giegaborri","lat":68.1461587,"lon":18.8845691,"elevationM":992},{"id":"node:4428210786","kind":"peak","name":"Njuikkostak","lat":68.143308,"lon":18.5457794,"elevationM":1835},{"id":"node:4428241427","kind":"peak","name":"Påssustjåkka","lat":68.0474948,"lon":18.4022627,"elevationM":1792},{"id":"node:5091037077","kind":"peak","name":"Láirečorru","lat":68.4831999,"lon":18.9663398,"elevationM":1157},{"id":"node:5126502474","kind":"peak","name":"Istind","lat":68.9498363,"lon":18.5667924,"elevationM":1489},{"id":"node:5635643921","kind":"peak","name":"Skjellhaugen","lat":68.9971767,"lon":18.5011643,"elevationM":265},{"id":"node:5699873360","kind":"peak","name":"Rävnabben","lat":68.3362217,"lon":18.8224071,"elevationM":514},{"id":"node:5699873367","kind":"peak","name":"Kransnabben","lat":68.330479,"lon":18.8214549,"elevationM":526},{"id":"node:5699873382","kind":"peak","name":"Älgnabben","lat":68.3337303,"lon":18.8278735,"elevationM":null},{"id":"node:5699873597","kind":"peak","name":"Stornabben","lat":68.3400751,"lon":18.8246334,"elevationM":495},{"id":"node:5719749606","kind":"peak","name":"Istindaksla","lat":68.9743022,"lon":18.5740184,"elevationM":851},{"id":"node:5859257908","kind":"peak","name":"Pallentjåkka","lat":68.2481491,"lon":18.8137435,"elevationM":1737},{"id":"node:6419503829","kind":"peak","name":"Dildočohkka","lat":68.9026261,"lon":18.5939795,"elevationM":1424},{"id":"node:6419503830","kind":"peak","name":"Söre Istinden","lat":68.9318245,"lon":18.5672992,"elevationM":1483},{"id":"node:6419503831","kind":"peak","name":"Austre Istinden","lat":68.9497208,"lon":18.6254238,"elevationM":1267},{"id":"node:6419503832","kind":"peak","name":"Tolvtinden","lat":68.9476446,"lon":18.5862976,"elevationM":null},{"id":"node:6484228089","kind":"peak","name":"Nissončorru","lat":68.2536221,"lon":18.9444934,"elevationM":1738},{"id":"node:6484228092","kind":"peak","name":"Slåttatjåkka","lat":68.3565521,"lon":18.6779166,"elevationM":1186},{"id":"node:6484228094","kind":"peak","name":"Latnjačorru","lat":68.364393,"lon":18.5241741,"elevationM":1446},{"id":"node:6484228095","kind":"peak","name":"Latnjačohkka","lat":68.366976,"lon":18.4536231,"elevationM":1397},{"id":"node:9196331739","kind":"peak","name":"Várddut","lat":68.2104736,"lon":18.4894323,"elevationM":1087},{"id":"node:9196331741","kind":"peak","name":"Hárpocohkka","lat":68.1952872,"lon":18.4547567,"elevationM":1069},{"id":"node:9196363276","kind":"peak","name":"Ribakbákti","lat":68.224249,"lon":18.5328626,"elevationM":946},{"id":"node:9196391809","kind":"peak","name":"Gárddenvárri","lat":68.2450937,"lon":18.5744756,"elevationM":1156},{"id":"node:9196406818","kind":"peak","name":"Bossosváráš","lat":68.0963539,"lon":18.3265685,"elevationM":1080},{"id":"node:9196413529","kind":"peak","name":"Gaskačohkka","lat":68.0625652,"lon":18.327341,"elevationM":1641},{"id":"node:9743556873","kind":"peak","name":"Vesleala","lat":68.9444993,"lon":18.4026091,"elevationM":1106},{"id":"node:9831773396","kind":"peak","name":"Snøhetta","lat":68.6617399,"lon":18.3515039,"elevationM":1444},{"id":"node:9927486411","kind":"peak","name":"Dáskoriehppi","lat":68.3421523,"lon":18.0555309,"elevationM":1421},{"id":"node:11536612090","kind":"peak","name":"Snøhetta","lat":68.6894206,"lon":18.3278936,"elevationM":1506},{"id":"node:12469076170","kind":"peak","name":"Bajip Suonjiroaivi","lat":68.2619499,"lon":18.290129,"elevationM":1023},{"id":"node:13432582185","kind":"peak","name":"Dihttioalgi","lat":68.6339268,"lon":18.6904904,"elevationM":1289},{"id":"node:13432582186","kind":"peak","name":"Bajit Dihttičohkka","lat":68.6090218,"lon":18.7685965,"elevationM":1245},{"id":"node:13432582187","kind":"peak","name":"Čorrovárri","lat":68.5919227,"lon":18.7370108,"elevationM":1324},{"id":"node:13432582197","kind":"peak","name":"Dittlinden","lat":68.5947421,"lon":18.6846542,"elevationM":1428},{"id":"node:13432614522","kind":"peak","name":"Sávzanjunni","lat":68.5489611,"lon":18.6975288,"elevationM":1319},{"id":"node:13432614523","kind":"peak","name":"Čáhppesbákti","lat":68.5547359,"lon":18.7233638,"elevationM":1326},{"id":"node:13432614524","kind":"peak","name":"Riksočohkka","lat":68.5631757,"lon":18.6913489,"elevationM":1470},{"id":"node:13432614525","kind":"peak","name":"Ruovdoaivvit","lat":68.5729921,"lon":18.6722944,"elevationM":1550},{"id":"node:13432614526","kind":"peak","name":"Isberget","lat":68.6580545,"lon":18.415489,"elevationM":1357},{"id":"node:13432614527","kind":"peak","name":"Veslesklettan","lat":68.634302,"lon":18.3753203,"elevationM":1419},{"id":"node:13432614528","kind":"peak","name":"Veslesklettan","lat":68.6129659,"lon":18.3698271,"elevationM":1374},{"id":"node:13432614546","kind":"peak","name":"Jalges","lat":68.5605092,"lon":18.5305021,"elevationM":1164},{"id":"node:13516746713","kind":"peak","name":"Jokkevuolli","lat":68.5203792,"lon":18.3334349,"elevationM":1079},{"id":"node:13524782462","kind":"peak","name":"Veslfjellet","lat":68.7121844,"lon":18.7275695,"elevationM":1064},{"id":"node:13524782474","kind":"peak","name":"Grønfjellet","lat":68.6936983,"lon":18.8338278,"elevationM":1146},{"id":"node:13524805553","kind":"peak","name":"Dihttičohkka","lat":68.6264206,"lon":18.8002681,"elevationM":1036},{"id":"node:13524805559","kind":"peak","name":"Jertarøysa","lat":68.5170573,"lon":18.9840263,"elevationM":1146},{"id":"node:13524805575","kind":"peak","name":"Jorbačohkka","lat":68.5308425,"lon":18.8171767,"elevationM":1209},{"id":"node:13524805576","kind":"peak","name":"Unna Skadjoaivi","lat":68.5488355,"lon":18.8176059,"elevationM":1209},{"id":"node:13524805579","kind":"peak","name":"Skadjoaivvit","lat":68.5447546,"lon":18.8933943,"elevationM":1356},{"id":"node:13524805603","kind":"peak","name":"Salvasskardfjellet Noaidun","lat":68.6113539,"lon":18.9580679,"elevationM":1336},{"id":"node:13704438844","kind":"peak","name":"Sautinden","lat":68.8649639,"lon":18.5837388,"elevationM":1074},{"id":"node:13704438922","kind":"peak","name":"Suorregáisi","lat":68.8903342,"lon":18.6229312,"elevationM":1310},{"id":"node:13704439119","kind":"peak","name":"Rypelars","lat":68.905337,"lon":18.6718547,"elevationM":1238},{"id":"node:13709726116","kind":"peak","name":"Dildogáisi","lat":68.9009925,"lon":18.6290145,"elevationM":1066},{"id":"node:13720333978","kind":"peak","name":"Vesle Istinden - Gákkašgáisi","lat":68.9151949,"lon":18.7228435,"elevationM":1332},{"id":"node:13720337179","kind":"peak","name":"Tolvtinden","lat":68.9304683,"lon":18.7253594,"elevationM":1408}]}