{"tileKey":"la_p29_lo_p44","version":"v1-1775891056926","entries":[{"id":"node:1237548354","kind":"peak","name":"قارة خربقاء","lat":29.191824,"lon":44.554729,"elevationM":null},{"id":"node:1237548640","kind":"peak","name":"ضليعات الهمل","lat":29.200138,"lon":44.011617,"elevationM":null},{"id":"node:1237550518","kind":"peak","name":"السادة","lat":29.117638,"lon":44.805134,"elevationM":null},{"id":"node:1237550603","kind":"peak","name":"بريقاء غنم","lat":29.171785,"lon":44.673793,"elevationM":null},{"id":"node:2485671801","kind":"peak","name":"باكور","lat":29.766667,"lon":44.8,"elevationM":null},{"id":"node:6787671321","kind":"peak","name":"غار ابن شرهان","lat":29.020107,"lon":44.930263,"elevationM":null},{"id":"node:6787671324","kind":"peak","name":"ضليعات الهمل","lat":29.2549659,"lon":44.0684621,"elevationM":null},{"id":"node:6787671340","kind":"peak","name":"حزوم الحوايا","lat":29.286418,"lon":44.044619,"elevationM":null},{"id":"node:6787671351","kind":"peak","name":"حزم الصداوي","lat":29.295902,"lon":44.592476,"elevationM":null},{"id":"node:11870265324","kind":"peak","name":"قصاص الجريبة الشمالي","lat":29.076278,"lon":44.6495947,"elevationM":null},{"id":"node:11871768153","kind":"peak","name":"جال الشعبة","lat":29.0566801,"lon":44.6908256,"elevationM":null},{"id":"node:11871883307","kind":"peak","name":"قور القنينة","lat":29.0942817,"lon":44.8611387,"elevationM":null},{"id":"node:11871883824","kind":"peak","name":"حقي الغصص","lat":29.6134428,"lon":44.0838587,"elevationM":null}]}