{"tileKey":"la_p24_lo_m108","version":"v1-1775891056926","entries":[{"id":"node:5960690718","kind":"peak","name":"El Tigre","lat":24.9689239,"lon":-107.8280697,"elevationM":570},{"id":"node:5960751682","kind":"peak","name":"La Mole","lat":24.9985982,"lon":-107.5988132,"elevationM":null},{"id":"node:5960751683","kind":"peak","name":"Agua Fría","lat":24.9781928,"lon":-107.5822719,"elevationM":181},{"id":"node:5960760632","kind":"peak","name":"Cerro Verde","lat":24.9702148,"lon":-107.5807129,"elevationM":null},{"id":"node:5960760633","kind":"peak","name":"La Mancha del Novillo","lat":24.9622517,"lon":-107.5907804,"elevationM":326},{"id":"node:9791484367","kind":"peak","name":"C. El Chípil","lat":24.7869489,"lon":-107.2532344,"elevationM":null},{"id":"node:9791484416","kind":"peak","name":"C. Las Siete Gotas","lat":24.737789,"lon":-107.3253108,"elevationM":null},{"id":"node:9791484417","kind":"peak","name":"Lomas Bichis","lat":24.7163107,"lon":-107.2714949,"elevationM":null},{"id":"node:9791484418","kind":"peak","name":"C. El Sombrero","lat":24.7114766,"lon":-107.2860003,"elevationM":null},{"id":"node:9791484419","kind":"peak","name":"C. El Salto","lat":24.741141,"lon":-107.3007203,"elevationM":null},{"id":"node:9791484420","kind":"peak","name":"C. Bola","lat":24.7656935,"lon":-107.2949696,"elevationM":null},{"id":"node:9791532766","kind":"peak","name":"C. Palo Colorado","lat":24.8906409,"lon":-107.3285723,"elevationM":null},{"id":"node:9791543331","kind":"peak","name":"C. El Elefante","lat":24.6687024,"lon":-107.2953558,"elevationM":null},{"id":"node:9791543332","kind":"peak","name":"C. La Piedra","lat":24.6927623,"lon":-107.3560381,"elevationM":null},{"id":"node:9791543333","kind":"peak","name":"C. El Tule","lat":24.7198192,"lon":-107.3563815,"elevationM":null},{"id":"node:9791543334","kind":"peak","name":"C. El Chiche","lat":24.72668,"lon":-107.3725605,"elevationM":null},{"id":"node:9816489260","kind":"peak","name":"C. La Garrapata","lat":24.2225454,"lon":-107.0626259,"elevationM":null},{"id":"node:9816489261","kind":"peak","name":"C. Loma Panda","lat":24.2302943,"lon":-107.083869,"elevationM":null},{"id":"node:9816489262","kind":"peak","name":"Cerro de los Monos","lat":24.2437559,"lon":-107.0763588,"elevationM":null},{"id":"node:9816489263","kind":"peak","name":"Loma de las Jarrillas","lat":24.2421516,"lon":-107.0643425,"elevationM":null},{"id":"node:9816489264","kind":"peak","name":"Loma Prieta","lat":24.2540859,"lon":-107.0077586,"elevationM":null},{"id":"node:9816489265","kind":"peak","name":"C. El Guachichile","lat":24.260307,"lon":-107.0170284,"elevationM":null},{"id":"node:9816489266","kind":"peak","name":"C. El Otatal","lat":24.2647086,"lon":-107.0050764,"elevationM":null},{"id":"node:9816489267","kind":"peak","name":"C. Boca La Quebrada","lat":24.2705966,"lon":-107.0163417,"elevationM":null},{"id":"node:9816489268","kind":"peak","name":"Cañada Agua Honda","lat":24.2786947,"lon":-107.0142389,"elevationM":null},{"id":"node:9816489269","kind":"peak","name":"Puerto Lloradero","lat":24.2989962,"lon":-107.0027161,"elevationM":null},{"id":"node:9816489270","kind":"peak","name":"C. Loma Las Sagras","lat":24.2966494,"lon":-107.0081664,"elevationM":null},{"id":"node:9816489271","kind":"peak","name":"C. Las Güeras","lat":24.3181408,"lon":-107.0134449,"elevationM":null},{"id":"node:9816489272","kind":"peak","name":"C. Las Guasimitas","lat":24.3150513,"lon":-107.0168138,"elevationM":null},{"id":"node:9816489273","kind":"peak","name":"C. El Jiote","lat":24.3190207,"lon":-107.0232725,"elevationM":null},{"id":"node:9816489274","kind":"peak","name":"C. El Trozado","lat":24.3224426,"lon":-107.0354605,"elevationM":null},{"id":"node:9816489275","kind":"peak","name":"C. Los Platanitos","lat":24.314797,"lon":-107.0452881,"elevationM":null},{"id":"node:9816489276","kind":"peak","name":"C. El Cuervo","lat":24.2969623,"lon":-107.0685053,"elevationM":null},{"id":"node:9816489277","kind":"peak","name":"Cerro del Nato","lat":24.2967667,"lon":-107.0832682,"elevationM":null},{"id":"node:9816489278","kind":"peak","name":"Cerros El Obispo","lat":24.3141322,"lon":-107.1076656,"elevationM":null},{"id":"node:9816489279","kind":"peak","name":"C. Los Capules","lat":24.3225599,"lon":-107.0532274,"elevationM":null},{"id":"node:9816489280","kind":"peak","name":"C. La Campana","lat":24.3220515,"lon":-107.0673895,"elevationM":null},{"id":"node:9816489281","kind":"peak","name":"C.Agua Escondida","lat":24.33347,"lon":-107.0797062,"elevationM":null},{"id":"node:9816489282","kind":"peak","name":"C. El Cañon","lat":24.3400196,"lon":-107.0800495,"elevationM":null},{"id":"node:9816489283","kind":"peak","name":"Loma El Mango","lat":24.3533523,"lon":-107.0592141,"elevationM":null},{"id":"node:9816489284","kind":"peak","name":"Loma Don Chón","lat":24.3505177,"lon":-107.0682907,"elevationM":null},{"id":"node:9816489285","kind":"peak","name":"Loma El Aguaje","lat":24.3509087,"lon":-107.0755005,"elevationM":null},{"id":"node:9816489286","kind":"peak","name":"C. Loma Picuda","lat":24.3630284,"lon":-107.092731,"elevationM":null},{"id":"node:9816489287","kind":"peak","name":"Loma Panda","lat":24.3830623,"lon":-107.1034599,"elevationM":null},{"id":"node:9816489288","kind":"peak","name":"C. La Chilla","lat":24.3986964,"lon":-107.1171713,"elevationM":null},{"id":"node:9816489289","kind":"peak","name":"C. La Chaparrita","lat":24.4052816,"lon":-107.1226859,"elevationM":null},{"id":"node:9816489290","kind":"peak","name":"Cerro Gordo","lat":24.4094632,"lon":-107.1284366,"elevationM":null},{"id":"node:9816489291","kind":"peak","name":"C. El Cerrito","lat":24.4157353,"lon":-107.1357537,"elevationM":null},{"id":"node:9816489292","kind":"peak","name":"C. El Nabor","lat":24.4177477,"lon":-107.1446371,"elevationM":null},{"id":"node:9816581936","kind":"peak","name":"Cerro Atravesado","lat":24.9846188,"lon":-107.5938321,"elevationM":null},{"id":"node:9816581937","kind":"peak","name":"Loma Redonda","lat":24.9789783,"lon":-107.6006556,"elevationM":null},{"id":"node:9816581938","kind":"peak","name":"C. La Cuevita","lat":24.9879252,"lon":-107.5140953,"elevationM":null},{"id":"node:9816581946","kind":"peak","name":"Cerro Colorado","lat":24.9982717,"lon":-107.4297238,"elevationM":null},{"id":"node:9816581947","kind":"peak","name":"C. Cabeza de Toro","lat":24.9911926,"lon":-107.4480486,"elevationM":null},{"id":"node:9816581948","kind":"peak","name":"C. El Guaco","lat":24.9821681,"lon":-107.4165059,"elevationM":null},{"id":"node:9816581949","kind":"peak","name":"C. El Guayabo","lat":24.9708476,"lon":-107.4556017,"elevationM":null},{"id":"node:9816581950","kind":"peak","name":"Loma Tapo","lat":24.9619384,"lon":-107.4433709,"elevationM":null},{"id":"node:9816581951","kind":"peak","name":"C. Los Mapaches","lat":24.9450907,"lon":-107.4241019,"elevationM":null},{"id":"node:9816581952","kind":"peak","name":"Cerro Orejón","lat":24.9289801,"lon":-107.3356533,"elevationM":null},{"id":"node:9816581953","kind":"peak","name":"Mesa de las Siete Gotas","lat":24.773292,"lon":-107.3276711,"elevationM":null},{"id":"node:9816581954","kind":"peak","name":"C. El Cuervo","lat":24.6740061,"lon":-107.1996975,"elevationM":null},{"id":"node:9816581955","kind":"peak","name":"C. Las Varas","lat":24.6783347,"lon":-107.1823168,"elevationM":null},{"id":"node:9816581956","kind":"peak","name":"C. San Juan","lat":24.6204126,"lon":-107.1358395,"elevationM":null},{"id":"node:9816581957","kind":"peak","name":"C. Lomas de las Minas","lat":24.5441369,"lon":-107.1027303,"elevationM":null},{"id":"node:9816581958","kind":"peak","name":"C. El Apomal","lat":24.5158314,"lon":-107.089169,"elevationM":null},{"id":"node:9816581959","kind":"peak","name":"C. El Apomito","lat":24.5026135,"lon":-107.0843411,"elevationM":null},{"id":"node:9816581960","kind":"peak","name":"Loma La Calavera","lat":24.4880664,"lon":-107.0894695,"elevationM":null},{"id":"node:9816581961","kind":"peak","name":"Loma La Zacatosa","lat":24.4902339,"lon":-107.0798564,"elevationM":null},{"id":"node:9816581962","kind":"peak","name":"Loma La Cuaridora","lat":24.4960724,"lon":-107.0813585,"elevationM":null},{"id":"node:9816581963","kind":"peak","name":"Loma Los Cochis","lat":24.4975759,"lon":-107.0643855,"elevationM":null},{"id":"node:9816581964","kind":"peak","name":"C. Loma El Prieto","lat":24.4907807,"lon":-107.036748,"elevationM":null},{"id":"node:9816581965","kind":"peak","name":"C. La Joya","lat":24.4949204,"lon":-107.03722,"elevationM":null},{"id":"node:9816581966","kind":"peak","name":"C. El Picacho","lat":24.4703537,"lon":-107.0491934,"elevationM":null},{"id":"node:9816581967","kind":"peak","name":"C. El Colorado","lat":24.4759783,"lon":-107.0719815,"elevationM":null},{"id":"node:9816581968","kind":"peak","name":"Loma Larga","lat":24.4114758,"lon":-107.1069146,"elevationM":null},{"id":"node:9882832848","kind":"peak","name":"C. La Chiva","lat":24.9627359,"lon":-107.5058985,"elevationM":null},{"id":"node:9882832849","kind":"peak","name":"C. Ojo de Agua","lat":24.8834388,"lon":-107.4362469,"elevationM":null},{"id":"node:9882832850","kind":"peak","name":"C. Los Zopilotes","lat":24.8714863,"lon":-107.4227929,"elevationM":null},{"id":"node:9905481630","kind":"peak","name":"C. El Picacho","lat":24.9408978,"lon":-107.543444,"elevationM":null}]}