{"tileKey":"la_p50_lo_m118","version":"v1-1775891056926","entries":[{"id":"node:6050936777","kind":"peak","name":"Mount Cooper","lat":50.1797758,"lon":-117.1998962,"elevationM":3094},{"id":"node:6176003701","kind":"peak","name":"Azurite Mountain","lat":50.9329114,"lon":-117.004921,"elevationM":2730},{"id":"node:6369183602","kind":"peak","name":"International Mountain","lat":50.968408,"lon":-117.0942201,"elevationM":3099},{"id":"node:6376963231","kind":"peak","name":"Upper Saddle Mountain","lat":50.1724659,"lon":-117.8999968,"elevationM":2325},{"id":"node:6376964880","kind":"peak","name":"Mount Ferrie","lat":50.1860257,"lon":-117.5557675,"elevationM":2337},{"id":"node:7742576467","kind":"peak","name":"Rugged Peak","lat":50.1098569,"lon":-117.5918502,"elevationM":2453},{"id":"node:7742576823","kind":"peak","name":"Big Sister Mountain","lat":50.1059623,"lon":-117.5789901,"elevationM":2465},{"id":"node:7742577296","kind":"peak","name":"Cascade Mountain","lat":50.2919526,"lon":-117.2486059,"elevationM":2918},{"id":"node:7742577777","kind":"peak","name":"Whitewater Mountain","lat":50.0900664,"lon":-117.1831174,"elevationM":2762},{"id":"node:7742577834","kind":"peak","name":"Mount Emmens","lat":50.3211756,"lon":-117.2312667,"elevationM":2672},{"id":"node:7742577835","kind":"peak","name":"Mount Marion","lat":50.2666417,"lon":-117.2256231,"elevationM":2933},{"id":"node:7742578157","kind":"peak","name":"Mount Stubbs","lat":50.1649497,"lon":-117.2271336,"elevationM":2822},{"id":"node:7742578158","kind":"peak","name":"Mount McHardy","lat":50.1433988,"lon":-117.2406938,"elevationM":2764},{"id":"node:7742578159","kind":"peak","name":"Mount Dryden","lat":50.1081091,"lon":-117.1692567,"elevationM":2775},{"id":"node:8947088994","kind":"peak","name":"Foremast Peak","lat":50.9776322,"lon":-117.3317662,"elevationM":2681},{"id":"node:9176285393","kind":"peak","name":"Mount Jardine","lat":50.0442804,"lon":-117.0408173,"elevationM":2442},{"id":"node:9840526444","kind":"peak","name":"Saddle Mountain","lat":50.1551398,"lon":-117.8950347,"elevationM":2300},{"id":"node:10588281918","kind":"peak","name":"Battle Mountain","lat":50.9624364,"lon":-117.5205364,"elevationM":2390},{"id":"node:10588281919","kind":"peak","name":"Mount Hillman","lat":50.7609581,"lon":-117.5114998,"elevationM":2851},{"id":"node:10588281920","kind":"peak","name":"Goat Tower","lat":50.7542911,"lon":-117.5238102,"elevationM":2792},{"id":"node:10588281921","kind":"peak","name":"Mount Kenneth","lat":50.9710638,"lon":-117.8879185,"elevationM":2504},{"id":"node:10588281922","kind":"peak","name":"Comaplix Mountain","lat":50.8276866,"lon":-117.7597231,"elevationM":2639},{"id":"node:10588281923","kind":"peak","name":"McCrae Peak","lat":50.8104045,"lon":-117.9156325,"elevationM":2500},{"id":"node:10588281924","kind":"peak","name":"Mount Sproat","lat":50.7532484,"lon":-117.8969049,"elevationM":2440},{"id":"node:10588281925","kind":"peak","name":"Mount Darling","lat":50.9056631,"lon":-117.7700316,"elevationM":2664},{"id":"node:10588281926","kind":"peak","name":"Mount McDonnell","lat":50.9557173,"lon":-117.6789709,"elevationM":2553},{"id":"node:10588281927","kind":"peak","name":"Beak Peak","lat":50.7512768,"lon":-117.5338224,"elevationM":2800},{"id":"node:10588281928","kind":"peak","name":"Beowulf Peak","lat":50.9557425,"lon":-117.5244433,"elevationM":2826},{"id":"node:10588281929","kind":"peak","name":"Grendel Peak","lat":50.957828,"lon":-117.5184047,"elevationM":2776},{"id":"node:10588281930","kind":"peak","name":"Illusion Peak","lat":50.9786942,"lon":-117.5180835,"elevationM":2764},{"id":"node:10588281931","kind":"peak","name":"Mount Pool","lat":50.7531327,"lon":-117.51608,"elevationM":2863},{"id":"node:10588281932","kind":"peak","name":"Mount MacKinlay","lat":50.9501854,"lon":-117.7999386,"elevationM":2413},{"id":"node:10588281933","kind":"peak","name":"Mount McKinnon","lat":50.8751394,"lon":-117.7484425,"elevationM":2587},{"id":"node:10588281934","kind":"peak","name":"Lexington Mountain","lat":50.8035553,"lon":-117.5721546,"elevationM":2490},{"id":"node:10588281935","kind":"peak","name":"Mount Ernest","lat":50.8872928,"lon":-117.7794569,"elevationM":2547},{"id":"node:10588281936","kind":"peak","name":"Mount Goldsmith","lat":50.8492514,"lon":-117.5661106,"elevationM":2488},{"id":"node:10588281937","kind":"peak","name":"Mount Llewelyn","lat":50.9926313,"lon":-117.9173798,"elevationM":2529},{"id":"node:10590098997","kind":"peak","name":"Sandilands Peak","lat":50.9772931,"lon":-117.1317929,"elevationM":2697},{"id":"node:10590098998","kind":"peak","name":"Carbonate Mountain","lat":50.9932865,"lon":-117.0413779,"elevationM":2632},{"id":"node:10590098999","kind":"peak","name":"Thumb Spire","lat":50.8973127,"lon":-117.2969861,"elevationM":2815},{"id":"node:10590099000","kind":"peak","name":"Scylla Mountain","lat":50.9013987,"lon":-117.4076448,"elevationM":2918},{"id":"node:10590099001","kind":"peak","name":"Charybdis Mountain","lat":50.8782531,"lon":-117.4818716,"elevationM":2779},{"id":"node:10590099002","kind":"peak","name":"Mount Nemo","lat":50.9478875,"lon":-117.253039,"elevationM":2876},{"id":"node:10590099003","kind":"peak","name":"Big Green Peak","lat":50.8975759,"lon":-117.3742856,"elevationM":2807},{"id":"node:10590099004","kind":"peak","name":"White Jacket Mountain","lat":50.9536099,"lon":-117.4231619,"elevationM":3108},{"id":"node:10590146805","kind":"peak","name":"Harpoon Peak","lat":50.9490405,"lon":-117.4375892,"elevationM":3078},{"id":"node:10590146806","kind":"peak","name":"Pequod Mountain","lat":50.961869,"lon":-117.3989362,"elevationM":2974},{"id":"node:10590146807","kind":"peak","name":"Jigger Peak","lat":50.9990915,"lon":-117.2842555,"elevationM":2659},{"id":"node:10590146808","kind":"peak","name":"Krinkletop Peak","lat":50.8677162,"lon":-117.0841881,"elevationM":2764},{"id":"node:10590146809","kind":"peak","name":"Mount Proteus","lat":50.9490731,"lon":-117.430064,"elevationM":3182},{"id":"node:10590146810","kind":"peak","name":"Escalade Peak","lat":50.9430753,"lon":-117.4481769,"elevationM":2923},{"id":"node:10590146811","kind":"peak","name":"Squab Peak","lat":50.8676884,"lon":-117.1102293,"elevationM":2746},{"id":"node:10590146812","kind":"peak","name":"Forecastle Peak","lat":50.9572861,"lon":-117.3926657,"elevationM":2904},{"id":"node:10590146813","kind":"peak","name":"Benito Cereno Mountain","lat":50.9569099,"lon":-117.4157673,"elevationM":3045},{"id":"node:10590146814","kind":"peak","name":"Vistamount","lat":50.9145142,"lon":-117.3483529,"elevationM":2854},{"id":"node:10590146815","kind":"peak","name":"Outrigger Peak","lat":50.9597751,"lon":-117.362961,"elevationM":2825},{"id":"node:10590146816","kind":"peak","name":"Moby Dick Mountain","lat":50.9610457,"lon":-117.4089654,"elevationM":3080},{"id":"node:10590146817","kind":"peak","name":"Snowman Peak","lat":50.8848765,"lon":-117.0769622,"elevationM":2732},{"id":"node:10590146818","kind":"peak","name":"Vere Summit","lat":50.9324123,"lon":-117.4362065,"elevationM":2439},{"id":"node:10590146819","kind":"peak","name":"Obstacle Mountain","lat":50.9484373,"lon":-117.4763226,"elevationM":2719},{"id":"node:10590146820","kind":"peak","name":"Mount Sibbald","lat":50.9765262,"lon":-117.162629,"elevationM":2688},{"id":"node:10590146821","kind":"peak","name":"Typee Mountain","lat":50.9584155,"lon":-117.3766926,"elevationM":2874},{"id":"node:10590146822","kind":"peak","name":"Tetragon Peak","lat":50.8142567,"lon":-117.0408105,"elevationM":2891},{"id":"node:10590146823","kind":"peak","name":"Mount Goodrich","lat":50.9040822,"lon":-117.3884172,"elevationM":2821},{"id":"node:10590146824","kind":"peak","name":"Wrong Peak","lat":50.8930992,"lon":-117.3679832,"elevationM":2859},{"id":"node:10590146825","kind":"peak","name":"Crystalline Mountain","lat":50.8362405,"lon":-117.047968,"elevationM":2848},{"id":"node:10590146826","kind":"peak","name":"Syncline Mountain","lat":50.9348996,"lon":-117.0581446,"elevationM":2985},{"id":"node:10590146827","kind":"peak","name":"Mount Butters","lat":50.9928293,"lon":-117.3885493,"elevationM":3125},{"id":"node:10590146828","kind":"peak","name":"Hanover Mountain","lat":50.9018371,"lon":-117.3803119,"elevationM":2754},{"id":"node:10590146829","kind":"peak","name":"Malachite Spire","lat":50.9754327,"lon":-117.0685399,"elevationM":2978},{"id":"node:10590146830","kind":"peak","name":"Mazinaw Mountain","lat":50.9264696,"lon":-117.2602064,"elevationM":2973},{"id":"node:10590146831","kind":"peak","name":"Mount Hatteras","lat":50.8629976,"lon":-117.0964253,"elevationM":2951},{"id":"node:10590146832","kind":"peak","name":"Mount Fafnir","lat":50.9412928,"lon":-117.4562083,"elevationM":2810},{"id":"node:10590146833","kind":"peak","name":"Iron Ridge","lat":50.898955,"lon":-117.2809584,"elevationM":2643},{"id":"node:10590146834","kind":"peak","name":"Evening Mountain","lat":50.942828,"lon":-117.2618167,"elevationM":2863},{"id":"node:10590146835","kind":"peak","name":"Piton Peaks","lat":50.7518635,"lon":-117.3082004,"elevationM":2597},{"id":"node:10590146836","kind":"peak","name":"Nautilus Mountain","lat":50.9206563,"lon":-117.2693207,"elevationM":3094},{"id":"node:10590146837","kind":"peak","name":"Mizzenmast Peak","lat":50.9890146,"lon":-117.3105438,"elevationM":2762},{"id":"node:10590146838","kind":"peak","name":"The Chinese Wall","lat":50.9057957,"lon":-117.4139537,"elevationM":2596},{"id":"node:10590146839","kind":"peak","name":"Horseman Spire","lat":50.9713957,"lon":-117.0713362,"elevationM":2953},{"id":"node:10590146840","kind":"peak","name":"Mount Ahab","lat":50.986966,"lon":-117.3984026,"elevationM":3046},{"id":"node:10590146841","kind":"peak","name":"Richards Peak","lat":50.9698254,"lon":-117.0776644,"elevationM":2952},{"id":"node:10590146842","kind":"peak","name":"Cuestaform Peak","lat":50.8220872,"lon":-117.0430871,"elevationM":2782},{"id":"node:10590146844","kind":"peak","name":"Claggart Peak","lat":50.9283455,"lon":-117.4116302,"elevationM":2753},{"id":"node:10590146845","kind":"peak","name":"Mount Billy Budd","lat":50.9254633,"lon":-117.4192168,"elevationM":2766},{"id":"node:10590146846","kind":"peak","name":"Sugarplum Spire","lat":50.8764713,"lon":-117.1216349,"elevationM":2781},{"id":"node:10590146847","kind":"peak","name":"Deluge Mountain","lat":50.8584604,"lon":-117.0462363,"elevationM":2809},{"id":"node:10590146848","kind":"peak","name":"The Steeples","lat":50.8269456,"lon":-117.0497768,"elevationM":2817},{"id":"node:10590146849","kind":"peak","name":"Mainmast Peak","lat":50.9829683,"lon":-117.3212746,"elevationM":2851},{"id":"node:10590146850","kind":"peak","name":"Mount Syphax","lat":50.9577288,"lon":-117.0377835,"elevationM":2878},{"id":"node:10590146851","kind":"peak","name":"Strutt Peak","lat":50.9757108,"lon":-117.138954,"elevationM":2711},{"id":"node:10590146852","kind":"peak","name":"Battlement Mountain","lat":50.9640618,"lon":-117.1171481,"elevationM":2861},{"id":"node:10590146853","kind":"peak","name":"Feather Spire","lat":50.929821,"lon":-117.2891506,"elevationM":2917},{"id":"node:10590146854","kind":"peak","name":"Lakes Peak","lat":50.9304281,"lon":-117.0641935,"elevationM":2781},{"id":"node:10590146855","kind":"peak","name":"Omoo Peak","lat":50.9666682,"lon":-117.3491434,"elevationM":2651},{"id":"node:10667366946","kind":"peak","name":"Scalping Knife Mountain","lat":50.08074,"lon":-117.8723516,"elevationM":2170},{"id":"node:10667366947","kind":"peak","name":"Box Mountain","lat":50.1860019,"lon":-117.7449509,"elevationM":1784},{"id":"node:10667366948","kind":"peak","name":"Allshouse Peak","lat":50.1790266,"lon":-117.7081865,"elevationM":1877},{"id":"node:10667366949","kind":"peak","name":"Mount Vingolf","lat":50.0457729,"lon":-117.5699231,"elevationM":2577},{"id":"node:10667366950","kind":"peak","name":"Summit Peak","lat":50.1808243,"lon":-117.6325977,"elevationM":2263},{"id":"node:10667366951","kind":"peak","name":"Silver Mountain","lat":50.0657831,"lon":-117.7069201,"elevationM":2379},{"id":"node:10667366952","kind":"peak","name":"Mount Ingersoll","lat":50.0242946,"lon":-117.9848936,"elevationM":2211},{"id":"node:10667366953","kind":"peak","name":"Blue Grouse Mountain","lat":50.0536093,"lon":-117.7301231,"elevationM":2013},{"id":"node:10672358083","kind":"peak","name":"Razors Edge","lat":50.6695298,"lon":-117.1906501,"elevationM":2788},{"id":"node:10672358084","kind":"peak","name":"Nettie L. Mountain","lat":50.6960225,"lon":-117.4218273,"elevationM":2447},{"id":"node:10672358085","kind":"peak","name":"Mohican Mountain","lat":50.7124933,"lon":-117.2642822,"elevationM":2537},{"id":"node:10672358086","kind":"peak","name":"Redcliff Peak","lat":50.6711816,"lon":-117.2800534,"elevationM":2685},{"id":"node:10672358087","kind":"peak","name":"Abbott Peak","lat":50.6266053,"lon":-117.1353569,"elevationM":2948},{"id":"node:10672358088","kind":"peak","name":"Mount Aldridge","lat":50.5996771,"lon":-117.1675908,"elevationM":2659},{"id":"node:10672358089","kind":"peak","name":"Spine Mountain","lat":50.7021354,"lon":-117.3721336,"elevationM":2828},{"id":"node:10672358090","kind":"peak","name":"Mount Jowett","lat":50.7185028,"lon":-117.4024087,"elevationM":2833},{"id":"node:10672358091","kind":"peak","name":"Corner Hill","lat":50.7004114,"lon":-117.2641,"elevationM":2333},{"id":"node:10672358092","kind":"peak","name":"Mount Homer","lat":50.7035318,"lon":-117.4096492,"elevationM":2595},{"id":"node:10672358093","kind":"peak","name":"Mount Templeman","lat":50.6896457,"lon":-117.2048521,"elevationM":3063},{"id":"node:10672358094","kind":"peak","name":"Badshot Mountain","lat":50.7332855,"lon":-117.3013316,"elevationM":2530},{"id":"node:10672358095","kind":"peak","name":"Mount Hadow","lat":50.5114914,"lon":-117.4565546,"elevationM":2516},{"id":"node:10672358096","kind":"peak","name":"Similarity Mountain","lat":50.6736297,"lon":-117.2001011,"elevationM":2836},{"id":"node:10672358097","kind":"peak","name":"Lade Peak","lat":50.7277874,"lon":-117.3170438,"elevationM":2576},{"id":"node:10672358098","kind":"peak","name":"Fays Peak","lat":50.5814056,"lon":-117.2995048,"elevationM":2801},{"id":"node:10672358099","kind":"peak","name":"Triune Mountain","lat":50.6210891,"lon":-117.3533556,"elevationM":2620},{"id":"node:10672358100","kind":"peak","name":"Mount Wagner","lat":50.6544098,"lon":-117.2553604,"elevationM":2706},{"id":"node:10684704286","kind":"peak","name":"Great Northern Mountain","lat":50.6993084,"lon":-117.53911,"elevationM":2289},{"id":"node:10684704287","kind":"peak","name":"Mount Thompson","lat":50.7294193,"lon":-117.618187,"elevationM":2539},{"id":"node:10684704288","kind":"peak","name":"Trout Mountain","lat":50.5944005,"lon":-117.5934088,"elevationM":2683},{"id":"node:10684704289","kind":"peak","name":"McPherson Hill","lat":50.6520703,"lon":-117.5135959,"elevationM":1133},{"id":"node:10684704290","kind":"peak","name":"Halcyon Mountain","lat":50.5418781,"lon":-117.8280429,"elevationM":2060},{"id":"node:10684704291","kind":"peak","name":"Mount Murray","lat":50.643466,"lon":-117.7030491,"elevationM":2444},{"id":"node:10703399047","kind":"peak","name":"Mount Carpenter","lat":50.0167712,"lon":-117.3430886,"elevationM":1909},{"id":"node:10703399048","kind":"peak","name":"Mount Davis","lat":50.1133268,"lon":-117.0854841,"elevationM":2621},{"id":"node:10703399049","kind":"peak","name":"Mount Dolly Varden","lat":50.1197737,"lon":-117.2757685,"elevationM":2565},{"id":"node:10703399050","kind":"peak","name":"Marten Mountain","lat":50.1227859,"lon":-117.2432326,"elevationM":2726},{"id":"node:10703399051","kind":"peak","name":"Mount Schroeder","lat":50.0568426,"lon":-117.0283855,"elevationM":2390},{"id":"node:10703399052","kind":"peak","name":"Inverness Mountain","lat":50.1088135,"lon":-117.2337258,"elevationM":2335},{"id":"node:10703399082","kind":"peak","name":"Mount Brennan","lat":50.0850347,"lon":-117.1230942,"elevationM":2849},{"id":"node:10707060053","kind":"peak","name":"Mount Keen","lat":50.3945784,"lon":-117.2144303,"elevationM":2384},{"id":"node:10707060054","kind":"peak","name":"The Ramparts","lat":50.4501722,"lon":-117.3177782,"elevationM":2146},{"id":"node:10707060055","kind":"peak","name":"Superposed Mountain","lat":50.4282674,"lon":-117.2453851,"elevationM":2346},{"id":"node:10707060056","kind":"peak","name":"Gallo Peak","lat":50.4129298,"lon":-117.2839199,"elevationM":2635},{"id":"node:10707060057","kind":"peak","name":"Howser Ridge","lat":50.4200504,"lon":-117.0210554,"elevationM":2111},{"id":"node:10707060058","kind":"peak","name":"Meadow Mountain","lat":50.2539993,"lon":-117.0774701,"elevationM":2544},{"id":"node:10707060059","kind":"peak","name":"Mount Bentley","lat":50.4424662,"lon":-117.3470632,"elevationM":2521},{"id":"node:10707060060","kind":"peak","name":"Spyglass Mountain","lat":50.3737117,"lon":-117.3046719,"elevationM":2818},{"id":"node:10707060061","kind":"peak","name":"Tenderfoot Mountain","lat":50.4008945,"lon":-117.335392,"elevationM":2824},{"id":"node:10707060062","kind":"peak","name":"Clark Peak","lat":50.4134031,"lon":-117.2989476,"elevationM":2594},{"id":"node:10707060063","kind":"peak","name":"Mount Wilkie","lat":50.4838833,"lon":-117.4275976,"elevationM":2585},{"id":"node:10708309797","kind":"peak","name":"Mount Jordan","lat":50.2628585,"lon":-117.7223688,"elevationM":1848},{"id":"node:10708309798","kind":"peak","name":"Mount Islip","lat":50.3230136,"lon":-117.7090181,"elevationM":2059},{"id":"node:10708309799","kind":"peak","name":"Mount St. Leon","lat":50.3887912,"lon":-117.7985943,"elevationM":2194},{"id":"node:10708309800","kind":"peak","name":"Mount Hohenleitner","lat":50.3570637,"lon":-117.5469775,"elevationM":2294},{"id":"node:10708309801","kind":"peak","name":"Kuskanax Mountain","lat":50.3154429,"lon":-117.7804122,"elevationM":2135},{"id":"node:10708309802","kind":"peak","name":"Mount Sanderson","lat":50.4004698,"lon":-117.8417099,"elevationM":2105},{"id":"node:10708309803","kind":"peak","name":"Mount Steenhoff","lat":50.4585863,"lon":-117.6657191,"elevationM":2333},{"id":"node:10708309804","kind":"peak","name":"Mount Shelling","lat":50.3850814,"lon":-117.6509054,"elevationM":2312},{"id":"node:10708312105","kind":"peak","name":"Mount Abriel","lat":50.3376667,"lon":-117.8264859,"elevationM":1784},{"id":"node:10708312106","kind":"peak","name":"Mount Herridge","lat":50.4149667,"lon":-117.6242123,"elevationM":2249},{"id":"node:10708312107","kind":"peak","name":"Mount Leary","lat":50.3578287,"lon":-117.6902024,"elevationM":2306},{"id":"node:10708312108","kind":"peak","name":"Mount Benton","lat":50.357245,"lon":-117.576873,"elevationM":2260},{"id":"node:11419167822","kind":"peak","name":"Fish Lookout","lat":50.9480327,"lon":-117.5631541,"elevationM":1964},{"id":"node:11419167823","kind":"peak","name":"Baby Bear","lat":50.9555947,"lon":-117.5337073,"elevationM":2657},{"id":"node:11419167824","kind":"peak","name":"Witch","lat":50.9617925,"lon":-117.5572915,"elevationM":2257},{"id":"node:11419167825","kind":"peak","name":"Snowfall Peak","lat":50.9552224,"lon":-117.5358118,"elevationM":2699},{"id":"node:11419167826","kind":"peak","name":"South Illusion Peak","lat":50.9762078,"lon":-117.5212158,"elevationM":2657},{"id":"node:12982932852","kind":"peak","name":"Mount Hinkel","lat":50.0280619,"lon":-117.0087719,"elevationM":null}]}