{"tileKey":"la_p38_lo_p70","version":"v1-1775891056926","entries":[{"id":"node:7640700927","kind":"peak","name":"Hazrati Shoh","lat":38.5052418,"lon":70.4334134,"elevationM":4096},{"id":"node:7650084591","kind":"peak","name":"Кӯҳи Шавруз","lat":38.8141502,"lon":70.1296607,"elevationM":2750},{"id":"node:7855742212","kind":"peak","name":"Khojamanor","lat":38.4858832,"lon":70.4129097,"elevationM":3755},{"id":"node:7857570952","kind":"peak","name":"Childukhtaron","lat":38.3191606,"lon":70.1815958,"elevationM":null},{"id":"node:7859475684","kind":"peak","name":"Rubobak","lat":38.5499297,"lon":70.1821188,"elevationM":2800},{"id":"node:8515965640","kind":"peak","name":"Shivars","lat":38.3755662,"lon":70.5237873,"elevationM":null},{"id":"node:8519116794","kind":"peak","name":"Хамтарга","lat":38.4461887,"lon":70.5192419,"elevationM":null},{"id":"node:8519148105","kind":"peak","name":"Siyohkuh","lat":38.2386819,"lon":70.3731412,"elevationM":null},{"id":"node:8519148106","kind":"peak","name":"Kuhifrush","lat":38.1261534,"lon":70.3398063,"elevationM":4440},{"id":"node:8526820088","kind":"peak","name":"Changoki Poyon","lat":38.6499979,"lon":70.1376284,"elevationM":2759},{"id":"node:8716529229","kind":"peak","name":"Кухишикофи","lat":38.6821247,"lon":70.7883489,"elevationM":null},{"id":"node:8716529231","kind":"peak","name":"Гишун","lat":38.6772499,"lon":70.8300962,"elevationM":3547},{"id":"node:9603666780","kind":"peak","name":"Сиёҳкӯҳ","lat":38.9156624,"lon":70.4180819,"elevationM":3610},{"id":"node:10815357151","kind":"peak","name":"Кавдал","lat":38.9719914,"lon":70.6906156,"elevationM":4700},{"id":"node:10815388117","kind":"peak","name":"Ҷагрик","lat":38.9669502,"lon":70.8566344,"elevationM":4280},{"id":"node:10824742054","kind":"peak","name":"Кӯҳи Хона","lat":38.9638441,"lon":70.9361016,"elevationM":4200},{"id":"node:10856598685","kind":"peak","name":"Фолума","lat":38.9935944,"lon":70.5209373,"elevationM":null},{"id":"node:11303636308","kind":"peak","name":"Yakhtosh","lat":38.5121242,"lon":70.5538856,"elevationM":null},{"id":"node:11303636309","kind":"peak","name":"Safedkuh","lat":38.4971268,"lon":70.5515545,"elevationM":null},{"id":"node:11380429037","kind":"peak","name":"Nauraz","lat":38.8009787,"lon":70.0453367,"elevationM":null}]}