{"tileKey":"la_p48_lo_m108","version":"v1-1775891056926","entries":[{"id":"node:357956254","kind":"peak","name":"Fanny Hill","lat":48.5622224,"lon":-107.7784402,"elevationM":795},{"id":"node:357956263","kind":"peak","name":"Tea Kettle Butte","lat":48.7691734,"lon":-107.5739763,"elevationM":814},{"id":"node:357956344","kind":"peak","name":"Turkey Track Hill","lat":48.5547245,"lon":-107.3561941,"elevationM":708},{"id":"node:357956347","kind":"peak","name":"Double S Hill","lat":48.5688933,"lon":-107.2992456,"elevationM":709},{"id":"node:357956379","kind":"peak","name":"Button Butte","lat":48.0866634,"lon":-107.8909526,"elevationM":755},{"id":"node:357956385","kind":"peak","name":"Spencer Point","lat":48.2647236,"lon":-107.2689763,"elevationM":733},{"id":"node:357957646","kind":"peak","name":"Dead Mans Hill","lat":48.2144458,"lon":-107.2787003,"elevationM":729},{"id":"node:11367655390","kind":"peak","name":"Papoose Hills","lat":48.658346,"lon":-107.0897866,"elevationM":null}]}