{"tileKey":"la_p42_lo_p20","version":"v1-1775891056926","entries":[{"id":"node:26862768","kind":"peak","name":"Gjeravicë","lat":42.5329446,"lon":20.1405592,"elevationM":2656},{"id":"node:26863590","kind":"peak","name":"Maja e Dobrejt","lat":42.2952749,"lon":20.1620666,"elevationM":null},{"id":"node:26863601","kind":"peak","name":"Maja e Malit","lat":42.1458333,"lon":20.11,"elevationM":null},{"id":"node:26863635","kind":"peak","name":"Maja e Gjallicës","lat":42.0166667,"lon":20.4741667,"elevationM":2489},{"id":"node:26864156","kind":"peak","name":"Oshlak","lat":42.1966236,"lon":20.8919069,"elevationM":2212},{"id":"node:26865082","kind":"peak","name":"Çfërla","lat":42.6203611,"lon":20.2081146,"elevationM":2461},{"id":"node:519596964","kind":"peak","name":"Пескови / Bistër","lat":42.1398794,"lon":20.9795993,"elevationM":2651},{"id":"node:691483212","kind":"peak","name":"Maja Kraliçës","lat":42.3096401,"lon":20.3533992,"elevationM":1003},{"id":"node:694454715","kind":"peak","name":"Maja Potgurit","lat":42.298649,"lon":20.3947711,"elevationM":785},{"id":"node:1067434496","kind":"peak","name":"Maja e Shkukës","lat":42.2785126,"lon":20.4248214,"elevationM":735},{"id":"node:1379508785","kind":"peak","name":"Mala Krasta","lat":42.4027087,"lon":20.6712741,"elevationM":612},{"id":"node:1379511734","kind":"peak","name":"Velika Krasta","lat":42.410816,"lon":20.665908,"elevationM":708},{"id":"node:1449704877","kind":"peak","name":"Врх Леденице / Vrh Ledenice","lat":42.8531725,"lon":20.4637444,"elevationM":null},{"id":"node:1449714227","kind":"peak","name":"Maugaljeva glava","lat":42.942187,"lon":20.2317341,"elevationM":1224},{"id":"node:1903189786","kind":"peak","name":"Bandera od Starca (Crni krš)","lat":42.6300645,"lon":20.0538903,"elevationM":2426},{"id":"node:1903195392","kind":"peak","name":"Starac","lat":42.6274709,"lon":20.0456292,"elevationM":2352},{"id":"node:1974093119","kind":"peak","name":"Gjarpër ujë","lat":42.9672326,"lon":20.8595913,"elevationM":1001},{"id":"node:2113593788","kind":"peak","name":"Попова Шапка","lat":42.0165842,"lon":20.886045,"elevationM":1853},{"id":"node:2333045149","kind":"peak","name":"Radopolje","lat":42.8858888,"lon":20.5886331,"elevationM":null},{"id":"node:2333120325","kind":"peak","name":"Berim","lat":42.8991203,"lon":20.5775644,"elevationM":null},{"id":"node:2335056316","kind":"peak","name":"Rezalska glava","lat":42.9251676,"lon":20.6184369,"elevationM":null},{"id":"node:3448527905","kind":"peak","name":"Maja e Pashtrikut","lat":42.2104974,"lon":20.5244637,"elevationM":1988},{"id":"node:3475554946","kind":"peak","name":"Maja e Zatriqit","lat":42.4459705,"lon":20.6221852,"elevationM":1042},{"id":"node:3607118416","kind":"peak","name":"Maja e Strellcit","lat":42.5983168,"lon":20.2285574,"elevationM":2377},{"id":"node:3642698748","kind":"peak","name":"Mali Starac","lat":42.6340336,"lon":20.0387738,"elevationM":2061},{"id":"node:3642711335","kind":"peak","name":"Mladica","lat":42.639208,"lon":20.0547145,"elevationM":null},{"id":"node:3642714804","kind":"peak","name":"Emir brdo","lat":42.6452075,"lon":20.0700606,"elevationM":2010},{"id":"node:3642717510","kind":"peak","name":"Djevojački krš","lat":42.6549181,"lon":20.013094,"elevationM":null},{"id":"node:3642722399","kind":"peak","name":"Ćete","lat":42.680953,"lon":20.0076413,"elevationM":1952},{"id":"node:3642722400","kind":"peak","name":"Planinica","lat":42.6824294,"lon":20.014893,"elevationM":2077},{"id":"node:3642724759","kind":"peak","name":"Vreteno","lat":42.6792657,"lon":20.0271338,"elevationM":1977},{"id":"node:3642729344","kind":"peak","name":"Vaganica","lat":42.6896503,"lon":20.0029652,"elevationM":2112},{"id":"node:3642731971","kind":"peak","name":"Vaganički krš","lat":42.6949654,"lon":20.0019889,"elevationM":1983},{"id":"node:3642734527","kind":"peak","name":"Šipovački krš","lat":42.7044035,"lon":20.0018066,"elevationM":1964},{"id":"node:3642833690","kind":"peak","name":"Ploçat","lat":42.533697,"lon":20.0151171,"elevationM":1994},{"id":"node:3642833703","kind":"peak","name":"Maja Horolac","lat":42.5466311,"lon":20.0135927,"elevationM":2199},{"id":"node:3642834731","kind":"peak","name":"Ravno brdo (Zavoj)","lat":42.6202276,"lon":20.0677753,"elevationM":2243},{"id":"node:3642836133","kind":"peak","name":"Maja e Karafilit","lat":42.526599,"lon":20.0136596,"elevationM":2075},{"id":"node:3642837327","kind":"peak","name":"Krš Bogićevica (Hridski)","lat":42.5723499,"lon":20.0526364,"elevationM":2374},{"id":"node:3642838568","kind":"peak","name":"Hridski krš","lat":42.5686497,"lon":20.0456049,"elevationM":2358},{"id":"node:3642839375","kind":"peak","name":"Maja e Madhe","lat":42.5884969,"lon":20.0853705,"elevationM":2372},{"id":"node:3642839384","kind":"peak","name":"Maja e Vogël / Mali Pasji vrh","lat":42.6046165,"lon":20.0745107,"elevationM":2284},{"id":"node:3642840179","kind":"peak","name":"Mali Hrid","lat":42.5800698,"lon":20.04298,"elevationM":2089},{"id":"node:3642840240","kind":"peak","name":"Tepsijica","lat":42.5842219,"lon":20.0425262,"elevationM":2092},{"id":"node:3642840353","kind":"peak","name":"Maja e Qenit / Pasji vrh","lat":42.5981731,"lon":20.0778599,"elevationM":2405},{"id":"node:3642842563","kind":"peak","name":"Arifova glava","lat":42.6213895,"lon":20.0206425,"elevationM":1921},{"id":"node:3648453274","kind":"peak","name":"Velika Glođija","lat":42.7551031,"lon":20.0066584,"elevationM":1926},{"id":"node:3648453566","kind":"peak","name":"Mala Glođija","lat":42.7498083,"lon":20.0113244,"elevationM":1897},{"id":"node:3648453585","kind":"peak","name":"Gizdavac","lat":42.7742723,"lon":20.0194032,"elevationM":1718},{"id":"node:3648454737","kind":"peak","name":"Mečkin krš","lat":42.7679985,"lon":20.0317644,"elevationM":1854},{"id":"node:3648456481","kind":"peak","name":"Krš Camov","lat":42.7810951,"lon":20.067684,"elevationM":1972},{"id":"node:3648456601","kind":"peak","name":"Gizdavac","lat":42.7926585,"lon":20.0172575,"elevationM":1718},{"id":"node:3648456602","kind":"peak","name":"Mali Vrh","lat":42.7871503,"lon":20.0300259,"elevationM":1868},{"id":"node:3648456892","kind":"peak","name":"Krstac","lat":42.7778003,"lon":20.0543631,"elevationM":1872},{"id":"node:3648458176","kind":"peak","name":"Strugovi","lat":42.7859928,"lon":20.0496167,"elevationM":1894},{"id":"node:3648458454","kind":"peak","name":"Orlovski krš","lat":42.7921263,"lon":20.0903219,"elevationM":1572},{"id":"node:3648459767","kind":"peak","name":"Maja e Dromodolit","lat":42.7757232,"lon":20.090771,"elevationM":2120},{"id":"node:3648460317","kind":"peak","name":"Bisernice","lat":42.8009828,"lon":20.0750226,"elevationM":1640},{"id":"node:3648464611","kind":"peak","name":"Žarski krš","lat":42.8093737,"lon":20.0625127,"elevationM":1649},{"id":"node:3648466530","kind":"peak","name":"Dobrobuće","lat":42.81216,"lon":20.087747,"elevationM":1407},{"id":"node:3648467273","kind":"peak","name":"Cikovci","lat":42.8037065,"lon":20.001272,"elevationM":1677},{"id":"node:3648467448","kind":"peak","name":"Cmiljevica","lat":42.7967004,"lon":20.0290817,"elevationM":1963},{"id":"node:3648468415","kind":"peak","name":"Rožajski vrh","lat":42.8098947,"lon":20.0338343,"elevationM":1818},{"id":"node:3648468620","kind":"peak","name":"Plana","lat":42.8206316,"lon":20.0150505,"elevationM":1636},{"id":"node:3648469226","kind":"peak","name":"Kožurovac","lat":42.8196051,"lon":20.0283093,"elevationM":1688},{"id":"node:3648470319","kind":"peak","name":"Čardak","lat":42.8327348,"lon":20.0309904,"elevationM":1556},{"id":"node:3680819062","kind":"peak","name":"Golesh","lat":42.5686273,"lon":20.9778764,"elevationM":1018},{"id":"node:3755662774","kind":"peak","name":"Плоча","lat":42.1051176,"lon":20.9659367,"elevationM":2467},{"id":"node:3852417754","kind":"peak","name":"Čakor","lat":42.6753599,"lon":20.0095422,"elevationM":1911},{"id":"node:3853938815","kind":"peak","name":"Pčelji krš","lat":42.5931067,"lon":20.0808554,"elevationM":null},{"id":"node:3922197788","kind":"peak","name":"Антени","lat":42.0094878,"lon":20.8453975,"elevationM":2531},{"id":"node:3922197997","kind":"peak","name":"Церипашина","lat":42.0158157,"lon":20.8534467,"elevationM":2437},{"id":"node:3941596453","kind":"peak","name":"Malji Nedžinat","lat":42.6639549,"lon":20.0849781,"elevationM":2275},{"id":"node:3941601193","kind":"peak","name":"Ravno brdo","lat":42.6574131,"lon":20.0111394,"elevationM":2040},{"id":"node:3941715839","kind":"peak","name":"Leqinat","lat":42.6560868,"lon":20.1019268,"elevationM":2341},{"id":"node:3941722545","kind":"peak","name":"Pišljiv krš","lat":42.6331012,"lon":20.0905542,"elevationM":2131},{"id":"node:3941919691","kind":"peak","name":"Lisac (Lice)","lat":42.6930086,"lon":20.0558594,"elevationM":1799},{"id":"node:3941929227","kind":"peak","name":"Javorsko brdo","lat":42.6278897,"lon":20.0297255,"elevationM":null},{"id":"node:3949546718","kind":"peak","name":"Orlov krš","lat":42.5575546,"lon":20.0092476,"elevationM":null},{"id":"node:3949592185","kind":"peak","name":"Omerov krš","lat":42.5816497,"lon":20.0490301,"elevationM":null},{"id":"node:3949612601","kind":"peak","name":"Strmec","lat":42.6159261,"lon":20.0618404,"elevationM":2040},{"id":"node:3949619930","kind":"peak","name":"Maja e Male","lat":42.6028491,"lon":20.0862399,"elevationM":2286},{"id":"node:3949630357","kind":"peak","name":"Ravno brdo","lat":42.5646861,"lon":20.081936,"elevationM":null},{"id":"node:3951453518","kind":"peak","name":"Treskavica","lat":42.5854515,"lon":20.0011035,"elevationM":1701},{"id":"node:3951455384","kind":"peak","name":"Kërrshi i Gjonbalajve","lat":42.5209982,"lon":20.0109525,"elevationM":null},{"id":"node:3951455385","kind":"peak","name":"B26","lat":42.5436825,"lon":20.0180121,"elevationM":2156},{"id":"node:3951457468","kind":"peak","name":"B24","lat":42.5088918,"lon":20.0033329,"elevationM":2044},{"id":"node:3951457934","kind":"peak","name":"Maja e Markorcit","lat":42.506069,"lon":20.0073906,"elevationM":2122},{"id":"node:3951458085","kind":"peak","name":"Maja e Trokusit","lat":42.5110984,"lon":20.0253303,"elevationM":2034},{"id":"node:3952390854","kind":"peak","name":"Pičeta","lat":42.7171701,"lon":20.0164584,"elevationM":null},{"id":"node:3955456191","kind":"peak","name":"Maja e Cundeve","lat":42.7631936,"lon":20.0355316,"elevationM":1910},{"id":"node:3955457409","kind":"peak","name":"Maja e Podit","lat":42.7546307,"lon":20.0375059,"elevationM":1910},{"id":"node:3955493141","kind":"peak","name":"Mušino brdo","lat":42.8146154,"lon":20.0192321,"elevationM":null},{"id":"node:3955493726","kind":"peak","name":"Golješ","lat":42.8127265,"lon":20.009265,"elevationM":1666},{"id":"node:3955503204","kind":"peak","name":"Bregi i Mujit","lat":42.7751569,"lon":20.070355,"elevationM":1941},{"id":"node:3955503955","kind":"peak","name":"Hajla e Shkrelit","lat":42.7751805,"lon":20.0808692,"elevationM":2011},{"id":"node:3955542086","kind":"peak","name":"Stupče brdo","lat":42.837198,"lon":20.018223,"elevationM":null},{"id":"node:3955542262","kind":"peak","name":"Krš","lat":42.8405179,"lon":20.0228579,"elevationM":1573},{"id":"node:3955542713","kind":"peak","name":"Ljuti palj","lat":42.8200605,"lon":20.0708158,"elevationM":1513},{"id":"node:3955544233","kind":"peak","name":"Kočine","lat":42.8353963,"lon":20.0564627,"elevationM":1446},{"id":"node:3955547719","kind":"peak","name":"Garevine","lat":42.8235073,"lon":20.0873382,"elevationM":1376},{"id":"node:3955567423","kind":"peak","name":"Maja e Shiut","lat":42.7621925,"lon":20.0509889,"elevationM":1827},{"id":"node:3955642498","kind":"peak","name":"Đonov krš","lat":42.7778722,"lon":20.1079721,"elevationM":1801},{"id":"node:3955661390","kind":"peak","name":"Kroni i Delojsit","lat":42.7637171,"lon":20.0718802,"elevationM":null},{"id":"node:3955670856","kind":"peak","name":"Bila","lat":42.8556595,"lon":20.0490182,"elevationM":1461},{"id":"node:3955673539","kind":"peak","name":"Gusinjske ravni","lat":42.8160269,"lon":20.109002,"elevationM":1495},{"id":"node:3955681484","kind":"peak","name":"Bukovik","lat":42.8408125,"lon":20.0076381,"elevationM":1454},{"id":"node:3955691905","kind":"peak","name":"Mali vrh","lat":42.8707478,"lon":20.0199639,"elevationM":1319},{"id":"node:3955715144","kind":"peak","name":"Ravna gora","lat":42.8648018,"lon":20.0652734,"elevationM":1409},{"id":"node:3955716164","kind":"peak","name":"Simova glava","lat":42.8486636,"lon":20.1091313,"elevationM":1288},{"id":"node:3955717142","kind":"peak","name":"Striževci","lat":42.8667214,"lon":20.098359,"elevationM":1352},{"id":"node:3955720788","kind":"peak","name":"Omerova glava","lat":42.8643772,"lon":20.076882,"elevationM":1333},{"id":"node:3955725384","kind":"peak","name":"Korjen","lat":42.8714967,"lon":20.0399222,"elevationM":1279},{"id":"node:3955727247","kind":"peak","name":"Slijepa glavica","lat":42.8590303,"lon":20.0759143,"elevationM":1301},{"id":"node:3955777542","kind":"peak","name":"Maja e Ujks","lat":42.7523107,"lon":20.0938743,"elevationM":null},{"id":"node:3955821144","kind":"peak","name":"Bakrnjača","lat":42.8058422,"lon":20.1496008,"elevationM":1479},{"id":"node:3955829669","kind":"peak","name":"Ujkin krš","lat":42.7570585,"lon":20.1735824,"elevationM":2082},{"id":"node:3955830507","kind":"peak","name":"Amhica","lat":42.7564879,"lon":20.1852983,"elevationM":2272},{"id":"node:3955832699","kind":"peak","name":"Maja e bregut","lat":42.7695878,"lon":20.154932,"elevationM":1974},{"id":"node:3955832705","kind":"peak","name":"Crni vrh","lat":42.7739985,"lon":20.1825072,"elevationM":1923},{"id":"node:3955834605","kind":"peak","name":"Ašte","lat":42.7693085,"lon":20.2057126,"elevationM":1832},{"id":"node:3955836200","kind":"peak","name":"Smailkućin vrh","lat":42.7867112,"lon":20.2150467,"elevationM":2007},{"id":"node:3955843968","kind":"peak","name":"Suvi vrh","lat":42.7909314,"lon":20.1863578,"elevationM":1611},{"id":"node:3955849811","kind":"peak","name":"Maja e Malsorit","lat":42.7744277,"lon":20.1463178,"elevationM":1937},{"id":"node:3955849982","kind":"peak","name":"Krš i bari","lat":42.7825222,"lon":20.1415971,"elevationM":1760},{"id":"node:3955850294","kind":"peak","name":"Krši i borsit","lat":42.7751845,"lon":20.1230362,"elevationM":null},{"id":"node:3955851721","kind":"peak","name":"Ravnine","lat":42.7949623,"lon":20.1310614,"elevationM":1542},{"id":"node:3955851722","kind":"peak","name":"Crni vrh","lat":42.7983947,"lon":20.1240039,"elevationM":1574},{"id":"node:3955852181","kind":"peak","name":"Maja e ljugut","lat":42.7919364,"lon":20.1381728,"elevationM":1653},{"id":"node:3955855016","kind":"peak","name":"Bjeluško brdo","lat":42.8002227,"lon":20.1443243,"elevationM":1510},{"id":"node:3955855884","kind":"peak","name":"Hodžin krš","lat":42.8185138,"lon":20.1447084,"elevationM":1276},{"id":"node:3955859558","kind":"peak","name":"Vijenac","lat":42.8421184,"lon":20.2331773,"elevationM":1519},{"id":"node:3955863232","kind":"peak","name":"Subabe","lat":42.8457842,"lon":20.143936,"elevationM":1273},{"id":"node:3955863333","kind":"peak","name":"Husića glava","lat":42.8488205,"lon":20.1585132,"elevationM":1132},{"id":"node:3955864438","kind":"peak","name":"Glavica","lat":42.870951,"lon":20.1480129,"elevationM":1268},{"id":"node:3955866298","kind":"peak","name":"Borova glava","lat":42.8587008,"lon":20.1265327,"elevationM":1297},{"id":"node:3955867935","kind":"peak","name":"Zeljensko brdo","lat":42.8589823,"lon":20.1765334,"elevationM":1084},{"id":"node:3955869881","kind":"peak","name":"Šuplji krš","lat":42.8210305,"lon":20.2416317,"elevationM":1606},{"id":"node:3955870658","kind":"peak","name":"Srednji krš","lat":42.798268,"lon":20.1911203,"elevationM":1442},{"id":"node:3955871691","kind":"peak","name":"Krš","lat":42.7801591,"lon":20.2072994,"elevationM":1881},{"id":"node:3955871703","kind":"peak","name":"Muratov vrh","lat":42.7949316,"lon":20.1710831,"elevationM":1562},{"id":"node:3955872865","kind":"peak","name":"Peškovski krš","lat":42.7922533,"lon":20.1515524,"elevationM":1563},{"id":"node:3955873935","kind":"peak","name":"Vrhovje","lat":42.865254,"lon":20.2377371,"elevationM":1280},{"id":"node:3955874249","kind":"peak","name":"Sokolov krš","lat":42.8217859,"lon":20.2137367,"elevationM":null},{"id":"node:3955876059","kind":"peak","name":"Alagin vrh","lat":42.8072418,"lon":20.2342931,"elevationM":null},{"id":"node:3955878871","kind":"peak","name":"Moljikovo brdo","lat":42.7980011,"lon":20.2086308,"elevationM":null},{"id":"node:3955879424","kind":"peak","name":"Škale","lat":42.8328035,"lon":20.232127,"elevationM":1536},{"id":"node:3955880844","kind":"peak","name":"Veliki krš","lat":42.8036075,"lon":20.1865316,"elevationM":1533},{"id":"node:3955886838","kind":"peak","name":"Brezovačko brdo","lat":42.8427312,"lon":20.1886323,"elevationM":1126},{"id":"node:3955887437","kind":"peak","name":"Ćoka","lat":42.8579874,"lon":20.2179102,"elevationM":1179},{"id":"node:3955894268","kind":"peak","name":"Šušter","lat":42.8630081,"lon":20.1600078,"elevationM":1194},{"id":"node:3955894402","kind":"peak","name":"Srednji brijeg","lat":42.8394901,"lon":20.1406529,"elevationM":1163},{"id":"node:3955898857","kind":"peak","name":"Grabov krš","lat":42.8109576,"lon":20.1499441,"elevationM":null},{"id":"node:3955900078","kind":"peak","name":"Jelin krš","lat":42.8142002,"lon":20.2033523,"elevationM":null},{"id":"node:3955901465","kind":"peak","name":"Glavica","lat":42.8529216,"lon":20.2353124,"elevationM":1404},{"id":"node:3955904880","kind":"peak","name":"Golo brdo","lat":42.8494969,"lon":20.1829889,"elevationM":null},{"id":"node:3955905173","kind":"peak","name":"Kalenice","lat":42.8608061,"lon":20.2003911,"elevationM":1207},{"id":"node:3955907189","kind":"peak","name":"Kardovo brdo","lat":42.8241648,"lon":20.1271561,"elevationM":null},{"id":"node:3961748145","kind":"peak","name":"Jelečko brdo","lat":42.8695404,"lon":20.2785196,"elevationM":1332},{"id":"node:3961750552","kind":"peak","name":"Anđuša","lat":42.8417762,"lon":20.2510109,"elevationM":1533},{"id":"node:3961751212","kind":"peak","name":"Bjeluha","lat":42.8474722,"lon":20.2616775,"elevationM":1446},{"id":"node:3961751426","kind":"peak","name":"Glavica","lat":42.8700585,"lon":20.2456035,"elevationM":1152},{"id":"node:3961754102","kind":"peak","name":"Borovar","lat":42.873817,"lon":20.302402,"elevationM":1266},{"id":"node:3961754200","kind":"peak","name":"Malinjak","lat":42.8681242,"lon":20.3193965,"elevationM":1411},{"id":"node:3961754803","kind":"peak","name":"Paljevine","lat":42.8515459,"lon":20.3185382,"elevationM":1580},{"id":"node:3961755304","kind":"peak","name":"Bandera","lat":42.8262395,"lon":20.3201668,"elevationM":2098},{"id":"node:3961757858","kind":"peak","name":"Brija e vogël","lat":42.819588,"lon":20.2989473,"elevationM":1954},{"id":"node:3961758665","kind":"peak","name":"Crni vrh","lat":42.8347437,"lon":20.2827682,"elevationM":1611},{"id":"node:3961760260","kind":"peak","name":"Asan Agin vrh","lat":42.8042254,"lon":20.2485003,"elevationM":1869},{"id":"node:3961765078","kind":"peak","name":"Beleg","lat":42.8353316,"lon":20.341095,"elevationM":2006},{"id":"node:3961774293","kind":"peak","name":"Škram","lat":42.7860254,"lon":20.247598,"elevationM":1822},{"id":"node:3961783856","kind":"peak","name":"Hom šur","lat":42.7889167,"lon":20.2634326,"elevationM":1873},{"id":"node:3961789100","kind":"peak","name":"Ibrova litica","lat":42.8215703,"lon":20.265365,"elevationM":null},{"id":"node:3961867063","kind":"peak","name":"Shkëmbi i Bardhë/Bijeli krš","lat":42.8284021,"lon":20.2923598,"elevationM":null},{"id":"node:3961889970","kind":"peak","name":"Vučji krš","lat":42.831108,"lon":20.2508178,"elevationM":1586},{"id":"node:3961897229","kind":"peak","name":"Пашини чадорови","lat":42.8540699,"lon":20.3512482,"elevationM":null},{"id":"node:3961897360","kind":"peak","name":"Смаилова кула","lat":42.8464961,"lon":20.3525915,"elevationM":1947},{"id":"node:3964217590","kind":"peak","name":"Siljevica","lat":42.9326681,"lon":20.0045068,"elevationM":1286},{"id":"node:3964225542","kind":"peak","name":"Veliki Golaš","lat":42.8896735,"lon":20.0175853,"elevationM":1246},{"id":"node:3964226775","kind":"peak","name":"Kamenita lazina","lat":42.9244871,"lon":20.0292797,"elevationM":1319},{"id":"node:3964228666","kind":"peak","name":"Kršanjak","lat":42.8762901,"lon":20.0024684,"elevationM":1035},{"id":"node:3964231336","kind":"peak","name":"Husovo brdo","lat":42.9312109,"lon":20.0494252,"elevationM":1327},{"id":"node:3964232181","kind":"peak","name":"Sječine","lat":42.9142253,"lon":20.0170059,"elevationM":1251},{"id":"node:3964237583","kind":"peak","name":"Gradina","lat":42.9278016,"lon":20.0194092,"elevationM":1192},{"id":"node:3964239029","kind":"peak","name":"Kobiljača","lat":42.9562338,"lon":20.002758,"elevationM":null},{"id":"node:3964240074","kind":"peak","name":"Mujov vrh","lat":42.9526209,"lon":20.1026403,"elevationM":1754},{"id":"node:3964242891","kind":"peak","name":"Vrhovi","lat":42.9433541,"lon":20.0029511,"elevationM":1327},{"id":"node:3964242925","kind":"peak","name":"Grebenica","lat":42.9524332,"lon":20.010309,"elevationM":1284},{"id":"node:3964247008","kind":"peak","name":"Goveđi vrh","lat":42.9754835,"lon":20.0884514,"elevationM":1591},{"id":"node:3964247167","kind":"peak","name":"Krnja jela","lat":42.9891404,"lon":20.0365753,"elevationM":1545},{"id":"node:3964247266","kind":"peak","name":"Šučki vrh","lat":42.9746357,"lon":20.0750243,"elevationM":1584},{"id":"node:3964248207","kind":"peak","name":"Шупљи камен","lat":42.9849053,"lon":20.0982827,"elevationM":1586},{"id":"node:3964248208","kind":"peak","name":"Калем","lat":42.9735995,"lon":20.115429,"elevationM":1621},{"id":"node:3964250853","kind":"peak","name":"Козјача","lat":42.986268,"lon":20.1162659,"elevationM":1541},{"id":"node:3964256980","kind":"peak","name":"Bandera (Begluk)","lat":42.9823123,"lon":20.0050969,"elevationM":1587},{"id":"node:3964259159","kind":"peak","name":"Mustafin krš","lat":42.9904746,"lon":20.0133581,"elevationM":1578},{"id":"node:3964259308","kind":"peak","name":"Bršljanov krš","lat":42.9477049,"lon":20.0603043,"elevationM":1329},{"id":"node:3964260306","kind":"peak","name":"Velika glavica","lat":42.9290585,"lon":20.0588237,"elevationM":1403},{"id":"node:3964260307","kind":"peak","name":"Mala glavica","lat":42.9269854,"lon":20.0554119,"elevationM":null},{"id":"node:3964263508","kind":"peak","name":"Usovača","lat":42.8795607,"lon":20.0752292,"elevationM":1508},{"id":"node:3964264774","kind":"peak","name":"Među krše","lat":42.900312,"lon":20.0778685,"elevationM":1476},{"id":"node:3964265494","kind":"peak","name":"Crni krš","lat":42.8880676,"lon":20.0893054,"elevationM":null},{"id":"node:3964267537","kind":"peak","name":"Kalender brdo","lat":42.8769356,"lon":20.0655732,"elevationM":1446},{"id":"node:3964269251","kind":"peak","name":"Veliko brdo","lat":42.8804578,"lon":20.112072,"elevationM":1384},{"id":"node:3964273714","kind":"peak","name":"Lom","lat":42.9361132,"lon":20.118564,"elevationM":1598},{"id":"node:3964277016","kind":"peak","name":"Čukar","lat":42.972736,"lon":20.0059123,"elevationM":1579},{"id":"node:3964277658","kind":"peak","name":"Strmenjača","lat":42.9222394,"lon":20.1084553,"elevationM":1558},{"id":"node:3964279123","kind":"peak","name":"Borovo brdo","lat":42.9007993,"lon":20.0505314,"elevationM":1505},{"id":"node:3964280803","kind":"peak","name":"Ozren","lat":42.9983807,"lon":20.0678022,"elevationM":1518},{"id":"node:3964280966","kind":"peak","name":"Amirova padališta","lat":42.8929081,"lon":20.0628481,"elevationM":1484},{"id":"node:3964283945","kind":"peak","name":"Ograđenik","lat":42.9864258,"lon":20.0821911,"elevationM":1531},{"id":"node:3964283981","kind":"peak","name":"Ostrimica","lat":42.9991693,"lon":20.0527083,"elevationM":1519},{"id":"node:3964286116","kind":"peak","name":"Međusten","lat":42.9547882,"lon":20.0829636,"elevationM":1660},{"id":"node:3964286770","kind":"peak","name":"Самари","lat":42.9976007,"lon":20.0830494,"elevationM":1519},{"id":"node:3964291431","kind":"peak","name":"Golubovac","lat":42.9370833,"lon":20.0685988,"elevationM":1465},{"id":"node:3964295296","kind":"peak","name":"Mali Golaš","lat":42.8933687,"lon":20.0154395,"elevationM":null},{"id":"node:3964296464","kind":"peak","name":"Veliki vrh","lat":42.9345376,"lon":20.072268,"elevationM":null},{"id":"node:3964306141","kind":"peak","name":"Gutavice","lat":42.9908363,"lon":20.0518285,"elevationM":1488},{"id":"node:3964307880","kind":"peak","name":"Dugi laz","lat":42.9652136,"lon":20.0295383,"elevationM":null},{"id":"node:3964308136","kind":"peak","name":"Borovi vrt","lat":42.9683398,"lon":20.0478374,"elevationM":1631},{"id":"node:3964310475","kind":"peak","name":"Vučkovo brdo","lat":42.9795306,"lon":20.0144396,"elevationM":1564},{"id":"node:3964310538","kind":"peak","name":"Lađevski krš","lat":42.9878533,"lon":20.006599,"elevationM":null},{"id":"node:3964311061","kind":"peak","name":"Zdravac","lat":42.9879161,"lon":20.0651323,"elevationM":1576},{"id":"node:3964314012","kind":"peak","name":"Ramovića brdo","lat":42.9642574,"lon":20.0804101,"elevationM":null},{"id":"node:3964317877","kind":"peak","name":"Pšenični vrh","lat":42.887175,"lon":20.0236245,"elevationM":null},{"id":"node:3964344200","kind":"peak","name":"Velika glavica","lat":42.9412649,"lon":20.028357,"elevationM":1232},{"id":"node:3964344201","kind":"peak","name":"Mala glavica","lat":42.9423182,"lon":20.0171347,"elevationM":1191},{"id":"node:3964616313","kind":"peak","name":"Rudova glavica","lat":42.9298535,"lon":20.0959369,"elevationM":1599},{"id":"node:3964616622","kind":"peak","name":"Đerkovo brdo","lat":42.8864325,"lon":20.0783405,"elevationM":null},{"id":"node:3964618242","kind":"peak","name":"Nebeska soha","lat":42.8874379,"lon":20.1090035,"elevationM":1472},{"id":"node:3964618326","kind":"peak","name":"Žarevo","lat":42.8887718,"lon":20.1204749,"elevationM":1385},{"id":"node:3964621095","kind":"peak","name":"Vlahov","lat":42.9158133,"lon":20.091139,"elevationM":1588},{"id":"node:3964623085","kind":"peak","name":"Hodžino brado","lat":42.9033613,"lon":20.0828466,"elevationM":null},{"id":"node:3964630957","kind":"peak","name":"Стари крст","lat":42.9949167,"lon":20.1116235,"elevationM":1597},{"id":"node:3964637237","kind":"peak","name":"Radulova glava","lat":42.9242236,"lon":20.1127914,"elevationM":null},{"id":"node:3964644642","kind":"peak","name":"Ječmeno brdo","lat":42.9757001,"lon":20.0468857,"elevationM":1620},{"id":"node:3964647760","kind":"peak","name":"Bumbulovac","lat":42.9777755,"lon":20.0040455,"elevationM":null},{"id":"node:3977856503","kind":"peak","name":"Shpati Peak","lat":42.5591799,"lon":20.0564771,"elevationM":2203},{"id":"node:3977876032","kind":"peak","name":"Zahov lom","lat":42.8766059,"lon":20.2873963,"elevationM":1111},{"id":"node:3977876036","kind":"peak","name":"Čukar","lat":42.8762592,"lon":20.2594992,"elevationM":1112},{"id":"node:3977877821","kind":"peak","name":"Debelo brdo","lat":42.9018694,"lon":20.2903124,"elevationM":1064},{"id":"node:3977879097","kind":"peak","name":"Rapše","lat":42.8788859,"lon":20.2766245,"elevationM":1243},{"id":"node:3977881049","kind":"peak","name":"Osojnja","lat":42.8841682,"lon":20.3206964,"elevationM":1182},{"id":"node:3977882955","kind":"peak","name":"Главица","lat":42.8823326,"lon":20.3562078,"elevationM":1202},{"id":"node:3977883952","kind":"peak","name":"Krlje","lat":42.8887268,"lon":20.3360387,"elevationM":1248},{"id":"node:3977884057","kind":"peak","name":"Glave","lat":42.8797177,"lon":20.3353542,"elevationM":1361},{"id":"node:3977884924","kind":"peak","name":"Kadijev krš","lat":42.9020573,"lon":20.3121992,"elevationM":891},{"id":"node:3977885487","kind":"peak","name":"Sokolovac","lat":42.9050122,"lon":20.300891,"elevationM":1092},{"id":"node:3977885544","kind":"peak","name":"Hajrova glava","lat":42.9150234,"lon":20.2785557,"elevationM":1123},{"id":"node:3977888080","kind":"peak","name":"Mujino brdo","lat":42.9027017,"lon":20.2639216,"elevationM":1070},{"id":"node:3977888325","kind":"peak","name":"Bugarac","lat":42.893899,"lon":20.2593296,"elevationM":1093},{"id":"node:3977890675","kind":"peak","name":"Brničanina","lat":42.8896719,"lon":20.2540727,"elevationM":1102},{"id":"node:3977891086","kind":"peak","name":"Čerišta","lat":42.8885557,"lon":20.281377,"elevationM":1178},{"id":"node:3977912357","kind":"peak","name":"Врелин крш","lat":42.8917359,"lon":20.3509852,"elevationM":1146},{"id":"node:3977917819","kind":"peak","name":"Debeli brijeg","lat":42.8928947,"lon":20.3440978,"elevationM":null},{"id":"node:3977925607","kind":"peak","name":"Škale","lat":42.8949533,"lon":20.3130056,"elevationM":1068},{"id":"node:3977926308","kind":"peak","name":"Radovo brdo","lat":42.9178066,"lon":20.2693178,"elevationM":null},{"id":"node:3977927992","kind":"peak","name":"Mujov krš","lat":42.8943873,"lon":20.2982428,"elevationM":1032},{"id":"node:3977935417","kind":"peak","name":"Смрдан","lat":42.9410293,"lon":20.2745374,"elevationM":1088},{"id":"node:3977939160","kind":"peak","name":"Suho brdo","lat":42.8850811,"lon":20.2802183,"elevationM":null},{"id":"node:3977940223","kind":"peak","name":"Čukari","lat":42.8753796,"lon":20.2464439,"elevationM":null},{"id":"node:3977942489","kind":"peak","name":"Главица","lat":42.9196781,"lon":20.3291043,"elevationM":1033},{"id":"node:3977942490","kind":"peak","name":"Карина глава","lat":42.9422859,"lon":20.3067668,"elevationM":1005},{"id":"node:3977942507","kind":"peak","name":"Дедово брдо","lat":42.9486167,"lon":20.2940639,"elevationM":985},{"id":"node:3977989486","kind":"peak","name":"Gospođin vrh","lat":42.9148948,"lon":20.1987732,"elevationM":1559},{"id":"node:3977995010","kind":"peak","name":"Kosmatica","lat":42.9034463,"lon":20.1642907,"elevationM":1472},{"id":"node:3978001063","kind":"peak","name":"Karačeva glavica","lat":42.934064,"lon":20.1925933,"elevationM":1244},{"id":"node:3978001070","kind":"peak","name":"Karačeva glava","lat":42.9378351,"lon":20.1863706,"elevationM":null},{"id":"node:3978006224","kind":"peak","name":"Sinanov krš","lat":42.9018831,"lon":20.1858556,"elevationM":1562},{"id":"node:3978006362","kind":"peak","name":"Tepe","lat":42.9053725,"lon":20.2146518,"elevationM":1336},{"id":"node:3978006363","kind":"peak","name":"Gola brda","lat":42.9044758,"lon":20.1940761,"elevationM":null},{"id":"node:3978007065","kind":"peak","name":"Tetrijebov krš","lat":42.8936769,"lon":20.1879585,"elevationM":null},{"id":"node:3978007212","kind":"peak","name":"Ćuba","lat":42.8925458,"lon":20.1965416,"elevationM":null},{"id":"node:3978007213","kind":"peak","name":"Hotaševo brdo","lat":42.8862258,"lon":20.2043521,"elevationM":null},{"id":"node:3978009371","kind":"peak","name":"Glavica","lat":42.9509028,"lon":20.2184928,"elevationM":1300},{"id":"node:3978009426","kind":"peak","name":"Karaula","lat":42.9578129,"lon":20.2076995,"elevationM":1306},{"id":"node:3978014748","kind":"peak","name":"Gvozdovi","lat":42.9473069,"lon":20.1681981,"elevationM":1467},{"id":"node:3978017320","kind":"peak","name":"Oro","lat":42.9444003,"lon":20.1620183,"elevationM":1543},{"id":"node:3978018472","kind":"peak","name":"Krsato brdo","lat":42.9255172,"lon":20.2200592,"elevationM":null},{"id":"node:3978018615","kind":"peak","name":"Čukar","lat":42.9145821,"lon":20.2244794,"elevationM":1354},{"id":"node:3978026021","kind":"peak","name":"Milovo brdo","lat":42.8871369,"lon":20.24171,"elevationM":1126},{"id":"node:3978026022","kind":"peak","name":"Crni vrh","lat":42.8847636,"lon":20.163971,"elevationM":1461},{"id":"node:3978031670","kind":"peak","name":"Kleče","lat":42.8900611,"lon":20.2273762,"elevationM":1167},{"id":"node:3978034482","kind":"peak","name":"Zeleno brdo","lat":42.8801725,"lon":20.2346075,"elevationM":1141},{"id":"node:3978037731","kind":"peak","name":"Vijenac","lat":42.8772793,"lon":20.2198231,"elevationM":null},{"id":"node:3978041052","kind":"peak","name":"Glavica","lat":42.8825939,"lon":20.1387153,"elevationM":1385},{"id":"node:3978041122","kind":"peak","name":"Glave","lat":42.8934325,"lon":20.1347005,"elevationM":1390},{"id":"node:3978044327","kind":"peak","name":"Spasevica","lat":42.9056232,"lon":20.1433072,"elevationM":1300},{"id":"node:3978044657","kind":"peak","name":"Duduška glava","lat":42.8877343,"lon":20.1379621,"elevationM":1421},{"id":"node:3978047060","kind":"peak","name":"Gradina","lat":42.9094903,"lon":20.1210127,"elevationM":1546},{"id":"node:3978047065","kind":"peak","name":"Rudnica","lat":42.9223126,"lon":20.1401937,"elevationM":1579},{"id":"node:3978048847","kind":"peak","name":"Reparica","lat":42.9542174,"lon":20.1574264,"elevationM":1528},{"id":"node:3978049205","kind":"peak","name":"Glavica","lat":42.9341276,"lon":20.1666746,"elevationM":1377},{"id":"node:3978049245","kind":"peak","name":"Glavica","lat":42.9365147,"lon":20.1326857,"elevationM":1446},{"id":"node:3978050404","kind":"peak","name":"Mijokov vrh","lat":42.9505101,"lon":20.129231,"elevationM":null},{"id":"node:3978050512","kind":"peak","name":"Ćafa","lat":42.9515789,"lon":20.1250467,"elevationM":1632},{"id":"node:3978050746","kind":"peak","name":"Debeli krš","lat":42.9562119,"lon":20.1447234,"elevationM":1603},{"id":"node:3978057576","kind":"peak","name":"Čuke","lat":42.9683493,"lon":20.1307759,"elevationM":1696},{"id":"node:3978057605","kind":"peak","name":"Glavica","lat":42.9746146,"lon":20.1496801,"elevationM":1442},{"id":"node:3978063624","kind":"peak","name":"Врањача","lat":42.9739709,"lon":20.1623831,"elevationM":1545},{"id":"node:3978064582","kind":"peak","name":"Градина","lat":42.9794028,"lon":20.1375329,"elevationM":1691},{"id":"node:3978064691","kind":"peak","name":"Дебело брдо","lat":42.9706739,"lon":20.1767168,"elevationM":1426},{"id":"node:3978072423","kind":"peak","name":"Jasikovac","lat":42.9220918,"lon":20.2270114,"elevationM":1321},{"id":"node:3978076035","kind":"peak","name":"Šiljak","lat":42.9310154,"lon":20.1758381,"elevationM":null},{"id":"node:3978077931","kind":"peak","name":"Ober","lat":42.9619437,"lon":20.140861,"elevationM":null},{"id":"node:3978078194","kind":"peak","name":"Petski krš","lat":42.9487354,"lon":20.1532207,"elevationM":null},{"id":"node:3978078726","kind":"peak","name":"Hrt","lat":42.9598073,"lon":20.1269565,"elevationM":1635},{"id":"node:3978079671","kind":"peak","name":"Krstača","lat":42.9638076,"lon":20.121532,"elevationM":1758},{"id":"node:3978080236","kind":"peak","name":"Mijov krš","lat":42.9593055,"lon":20.1493583,"elevationM":null},{"id":"node:3978082317","kind":"peak","name":"Markov krš","lat":42.9562739,"lon":20.1923788,"elevationM":null},{"id":"node:3978089217","kind":"peak","name":"Чоловића брдо","lat":42.9829089,"lon":20.2008084,"elevationM":1140},{"id":"node:3978089432","kind":"peak","name":"Главица","lat":42.976661,"lon":20.22409,"elevationM":1163},{"id":"node:3978089920","kind":"peak","name":"Михово брдо","lat":42.9615409,"lon":20.2365569,"elevationM":1181},{"id":"node:3978091894","kind":"peak","name":"Кршине","lat":42.9907988,"lon":20.1508818,"elevationM":1589},{"id":"node:4002843090","kind":"peak","name":"Marijash","lat":42.6126008,"lon":20.1001298,"elevationM":2533},{"id":"node:4045570682","kind":"peak","name":"Cvilen","lat":42.1723243,"lon":20.7416613,"elevationM":1396},{"id":"node:4052764563","kind":"peak","name":"Guri i Kuq","lat":42.663075,"lon":20.1343696,"elevationM":2522},{"id":"node:4058742320","kind":"peak","name":"Hajla / Hajlë","lat":42.7574922,"lon":20.1386514,"elevationM":2403},{"id":"node:4069044852","kind":"peak","name":"Maja e Bajrakut","lat":42.6408448,"lon":20.0951998,"elevationM":2078},{"id":"node:4273592968","kind":"peak","name":"Guri i Dollocit","lat":42.2730427,"lon":20.9483445,"elevationM":null},{"id":"node:4275618419","kind":"peak","name":"Rugova","lat":42.6635227,"lon":20.2086568,"elevationM":null},{"id":"node:4284806180","kind":"peak","name":"Кара Никола / Kara Nikolla","lat":42.0836407,"lon":20.7942347,"elevationM":2409},{"id":"node:4284806617","kind":"peak","name":"Шерeметички Камен","lat":42.0717481,"lon":20.7859786,"elevationM":2476},{"id":"node:4380215973","kind":"peak","name":"Maja e Shkodranit","lat":42.4188851,"lon":20.6557577,"elevationM":761},{"id":"node:4510978493","kind":"peak","name":"Rusolia","lat":42.7498601,"lon":20.2453796,"elevationM":2382},{"id":"node:4510978496","kind":"peak","name":"Rrasa e Zogut","lat":42.5021015,"lon":20.179091,"elevationM":2305},{"id":"node:4510978497","kind":"peak","name":"Maja e Ropës","lat":42.5745617,"lon":20.1079423,"elevationM":2502},{"id":"node:4510978499","kind":"peak","name":"Maja Bogiçaj","lat":42.5512936,"lon":20.0878093,"elevationM":2406},{"id":"node:4510978500","kind":"peak","name":"Gusan","lat":42.5252667,"lon":20.1226198,"elevationM":2539},{"id":"node:4510978862","kind":"peak","name":"Црн Врв / Maja e Zezë","lat":42.1285847,"lon":20.9200076,"elevationM":2528},{"id":"node:4510998121","kind":"peak","name":"Гужбаба / Guzhbaba","lat":42.1367397,"lon":20.9632374,"elevationM":2572},{"id":"node:4556086139","kind":"peak","name":"Острвица","lat":42.24047,"lon":20.9098539,"elevationM":2092},{"id":"node:4558933917","kind":"peak","name":"Скакало / Skakalo","lat":42.0534054,"lon":20.7582122,"elevationM":2465},{"id":"node:4569318201","kind":"peak","name":"Maja e Pikëllimës","lat":42.0804797,"lon":20.5566774,"elevationM":2395},{"id":"node:4644406284","kind":"peak","name":"Koproniku","lat":42.6527078,"lon":20.2331226,"elevationM":null},{"id":"node:4644411011","kind":"peak","name":"Вртоп / Vërtop","lat":42.098626,"lon":20.8433048,"elevationM":2555},{"id":"node:4644412638","kind":"peak","name":"Maja Livadh","lat":42.1489557,"lon":20.9956717,"elevationM":2497},{"id":"node:4644412639","kind":"peak","name":"Devdenice","lat":42.1556731,"lon":20.9885592,"elevationM":2350},{"id":"node:4644418210","kind":"peak","name":"Koka e Kaqit","lat":42.0170775,"lon":20.7144593,"elevationM":2207},{"id":"node:4691326410","kind":"peak","name":"Carralevë","lat":42.4541819,"lon":20.8807656,"elevationM":866},{"id":"node:4703403628","kind":"peak","name":"Vjellak","lat":42.6897939,"lon":20.2265194,"elevationM":2014},{"id":"node:4720314301","kind":"peak","name":"Maja Rrasa e Xhyleit","lat":42.2216371,"lon":20.0051165,"elevationM":968},{"id":"node:4720708105","kind":"peak","name":"Koritniku","lat":42.0849976,"lon":20.5736227,"elevationM":2262},{"id":"node:4732046381","kind":"peak","name":"Kodra Cenit","lat":42.4368133,"lon":20.1529056,"elevationM":995},{"id":"node:4732046387","kind":"peak","name":"Maja Baticit","lat":42.4330917,"lon":20.1885253,"elevationM":1110},{"id":"node:4732046394","kind":"peak","name":"Kodra Zgjeboshit","lat":42.4081432,"lon":20.1999623,"elevationM":509},{"id":"node:4732046397","kind":"peak","name":"Maja Shipshanit","lat":42.4170149,"lon":20.1824743,"elevationM":803},{"id":"node:4732046400","kind":"peak","name":"Kodra Borkut","lat":42.3958157,"lon":20.1798564,"elevationM":null},{"id":"node:4732046403","kind":"peak","name":"Kodra Hukit","lat":42.3887319,"lon":20.1492149,"elevationM":446},{"id":"node:4732046409","kind":"peak","name":"Maja Gashit","lat":42.4019322,"lon":20.1290232,"elevationM":656},{"id":"node:4732046417","kind":"peak","name":"Maja Potkuq","lat":42.3843101,"lon":20.0666458,"elevationM":849},{"id":"node:4732046419","kind":"peak","name":"Maja Tallabuçit","lat":42.3816473,"lon":20.0459177,"elevationM":null},{"id":"node:4732047622","kind":"peak","name":"Maja Lugu i Thiut","lat":42.3802525,"lon":20.0156194,"elevationM":2109},{"id":"node:4732089137","kind":"peak","name":"Maja Gllazhnicës","lat":42.4686202,"lon":20.139398,"elevationM":2025},{"id":"node:4732089138","kind":"peak","name":"Maja Preshit","lat":42.473875,"lon":20.1150221,"elevationM":2167},{"id":"node:4732089140","kind":"peak","name":"Maja Koritave","lat":42.4998731,"lon":20.0877923,"elevationM":2384},{"id":"node:4732089146","kind":"peak","name":"Maja Tingëllimës","lat":42.4892568,"lon":20.1158589,"elevationM":2338},{"id":"node:4732089147","kind":"peak","name":"Maja Shpuem","lat":42.4709786,"lon":20.0974697,"elevationM":1653},{"id":"node:4732089153","kind":"peak","name":"Maja Konës","lat":42.4598666,"lon":20.1100439,"elevationM":2135},{"id":"node:4732089157","kind":"peak","name":"Maja Shkëlzenit","lat":42.4574445,"lon":20.1281971,"elevationM":2405},{"id":"node:4732089164","kind":"peak","name":"Maja Bubrek","lat":42.4391254,"lon":20.1031989,"elevationM":2215},{"id":"node:4732089169","kind":"peak","name":"Maja Qypi i Gracit","lat":42.4056715,"lon":20.0649399,"elevationM":1343},{"id":"node:4732089845","kind":"peak","name":"Maja Radeshës","lat":42.4405189,"lon":20.0839514,"elevationM":2312},{"id":"node:4732089854","kind":"peak","name":"Maja Bajrakut","lat":42.4259487,"lon":20.0316161,"elevationM":1762},{"id":"node:4732089858","kind":"peak","name":"Maja Ghovukës","lat":42.4274217,"lon":20.0090641,"elevationM":1184},{"id":"node:4732089865","kind":"peak","name":"Maja Pllanës","lat":42.4518084,"lon":20.0100297,"elevationM":2038},{"id":"node:4732089870","kind":"peak","name":"Maja Rupës","lat":42.4734476,"lon":20.0138492,"elevationM":2266},{"id":"node:4732091095","kind":"peak","name":"Maja Kombes","lat":42.4086977,"lon":20.111149,"elevationM":893},{"id":"node:4735788299","kind":"peak","name":"Maja Kershit të Zi","lat":42.5140687,"lon":20.0935971,"elevationM":null},{"id":"node:4735788300","kind":"peak","name":"Maja Elez Kurtit","lat":42.5060491,"lon":20.1175761,"elevationM":null},{"id":"node:4735788302","kind":"peak","name":"Maja Brevinës","lat":42.4992863,"lon":20.1658773,"elevationM":2259},{"id":"node:4735788305","kind":"peak","name":"Maja Thikajve","lat":42.471998,"lon":20.1613229,"elevationM":1700},{"id":"node:4735788308","kind":"peak","name":"Maja Padeshit","lat":42.4643212,"lon":20.178768,"elevationM":1832},{"id":"node:4735788309","kind":"peak","name":"Maja ujezës","lat":42.4615036,"lon":20.1742833,"elevationM":1820},{"id":"node:4735788315","kind":"peak","name":"Maja Gllavës","lat":42.4380893,"lon":20.2152264,"elevationM":1157},{"id":"node:4735788316","kind":"peak","name":"Maja urishtës","lat":42.3982387,"lon":20.2094203,"elevationM":793},{"id":"node:4735788318","kind":"peak","name":"Kodra Çabratit","lat":42.372991,"lon":20.1989811,"elevationM":800},{"id":"node:4735789386","kind":"peak","name":"Maja Mullafcit","lat":42.4884908,"lon":20.0132277,"elevationM":2031},{"id":"node:4735789396","kind":"peak","name":"Maja Kershit Kocajve","lat":42.5274195,"lon":20.0725274,"elevationM":2397},{"id":"node:4735789410","kind":"peak","name":"Maja Erbicës","lat":42.3521735,"lon":20.2438921,"elevationM":1131},{"id":"node:4735789412","kind":"peak","name":"Maja Pëllumbit","lat":42.3484468,"lon":20.2281421,"elevationM":1198},{"id":"node:4735789414","kind":"peak","name":"Maja Çukit","lat":42.3358618,"lon":20.2162868,"elevationM":1017},{"id":"node:4735789418","kind":"peak","name":"Maja Dhinës","lat":42.3364804,"lon":20.1897597,"elevationM":1270},{"id":"node:4735790758","kind":"peak","name":"Maja Bollotergit","lat":42.484258,"lon":20.0342723,"elevationM":2142},{"id":"node:4735790770","kind":"peak","name":"Maja Doborgashi","lat":42.363133,"lon":20.0072571,"elevationM":1855},{"id":"node:4735791426","kind":"peak","name":"Maja Padinës","lat":42.3280653,"lon":20.2421647,"elevationM":985},{"id":"node:4735791427","kind":"peak","name":"Maja Begajve","lat":42.35433,"lon":20.174793,"elevationM":1235},{"id":"node:4735791431","kind":"peak","name":"Maja Spikut","lat":42.3634948,"lon":20.1452136,"elevationM":755},{"id":"node:4735791436","kind":"peak","name":"Maja Gjatë","lat":42.3015832,"lon":20.1138103,"elevationM":1038},{"id":"node:4735791441","kind":"peak","name":"Maja Zumrekës","lat":42.3657461,"lon":20.1938367,"elevationM":null},{"id":"node:4735791443","kind":"peak","name":"Maja Zymit","lat":42.3660315,"lon":20.244804,"elevationM":1172},{"id":"node:4735791522","kind":"peak","name":"Maja Kunjës","lat":42.2797497,"lon":20.1864767,"elevationM":1041},{"id":"node:4735791525","kind":"peak","name":"Maja Fushajve","lat":42.2872903,"lon":20.2335763,"elevationM":1103},{"id":"node:4735791531","kind":"peak","name":"Maja Çorrzit","lat":42.2662379,"lon":20.2933252,"elevationM":699},{"id":"node:4735791535","kind":"peak","name":"Maja Ballishtës","lat":42.2904174,"lon":20.2823818,"elevationM":780},{"id":"node:4735791540","kind":"peak","name":"Maja Lajthizës","lat":42.3090974,"lon":20.2654624,"elevationM":936},{"id":"node:4735791543","kind":"peak","name":"Maja Suka e Lekës","lat":42.3217195,"lon":20.2797425,"elevationM":956},{"id":"node:4735791549","kind":"peak","name":"Maja Zanit","lat":42.3267843,"lon":20.325973,"elevationM":1064},{"id":"node:4735791552","kind":"peak","name":"Maja Gjatë","lat":42.3153215,"lon":20.3085816,"elevationM":1111},{"id":"node:4735791553","kind":"peak","name":"Maja Suka e Xhafës","lat":42.2982305,"lon":20.3176206,"elevationM":525},{"id":"node:4735791557","kind":"peak","name":"Maja Sukës","lat":42.2790234,"lon":20.364731,"elevationM":953},{"id":"node:4735791561","kind":"peak","name":"Kodra Gurët e Këqinj","lat":42.2872784,"lon":20.3747678,"elevationM":811},{"id":"node:4735791564","kind":"peak","name":"Maja Qytetit","lat":42.2906912,"lon":20.399251,"elevationM":839},{"id":"node:4735791566","kind":"peak","name":"Maja Guxhelit","lat":42.2873022,"lon":20.3956729,"elevationM":808},{"id":"node:4735791568","kind":"peak","name":"Maja Kishës","lat":42.2805396,"lon":20.3951257,"elevationM":739},{"id":"node:4735791569","kind":"peak","name":"Maja Gramit","lat":42.2643919,"lon":20.3671557,"elevationM":770},{"id":"node:4735791571","kind":"peak","name":"Kodra Saravit","lat":42.274189,"lon":20.3466099,"elevationM":813},{"id":"node:4735791572","kind":"peak","name":"Maja Gurumillit","lat":42.2789282,"lon":20.3265256,"elevationM":964},{"id":"node:4735791573","kind":"peak","name":"Maja Olapsit","lat":42.2752766,"lon":20.3156304,"elevationM":1042},{"id":"node:4735791580","kind":"peak","name":"Maja Rexhepit","lat":42.26228,"lon":20.151042,"elevationM":1080},{"id":"node:4735791585","kind":"peak","name":"Maja Visoçes","lat":42.2114585,"lon":20.1963928,"elevationM":705},{"id":"node:4735791590","kind":"peak","name":"Kodra Prozhmit","lat":42.2349441,"lon":20.1826921,"elevationM":608},{"id":"node:4735791593","kind":"peak","name":"Maja Fluturës","lat":42.254514,"lon":20.0733545,"elevationM":648},{"id":"node:4735791595","kind":"peak","name":"Maja Bogdanit","lat":42.2755068,"lon":20.1039531,"elevationM":978},{"id":"node:4735791603","kind":"peak","name":"Kodra Helmeeit","lat":42.3049993,"lon":20.0401809,"elevationM":464},{"id":"node:4735791607","kind":"peak","name":"Maja Arvejës","lat":42.2953975,"lon":20.0386038,"elevationM":416},{"id":"node:4735792025","kind":"peak","name":"Maja Krasniqes","lat":42.2644238,"lon":20.0427559,"elevationM":655},{"id":"node:4735792034","kind":"peak","name":"Maja Lakut","lat":42.2159243,"lon":20.1081481,"elevationM":632},{"id":"node:4735792035","kind":"peak","name":"Maja Sukës","lat":42.2017948,"lon":20.1262047,"elevationM":810},{"id":"node:4735792038","kind":"peak","name":"Maja Sukës","lat":42.2284777,"lon":20.0388827,"elevationM":null},{"id":"node:4735792041","kind":"peak","name":"Maja Shkëmbi i Miliskës","lat":42.2181492,"lon":20.0559416,"elevationM":1142},{"id":"node:4735792045","kind":"peak","name":"Maja Gurgac","lat":42.2097103,"lon":20.0498691,"elevationM":1267},{"id":"node:4735792049","kind":"peak","name":"Maja Grishit","lat":42.2214227,"lon":20.0406959,"elevationM":1224},{"id":"node:4735792051","kind":"peak","name":"Maja Pjavës","lat":42.2257925,"lon":20.0238946,"elevationM":1102},{"id":"node:4735792052","kind":"peak","name":"Maja Bosetës","lat":42.2183399,"lon":20.0211694,"elevationM":1182},{"id":"node:4735792055","kind":"peak","name":"Maja Arthatit","lat":42.2006821,"lon":20.0020721,"elevationM":897},{"id":"node:4747480093","kind":"peak","name":"Bogiçevica","lat":42.5683817,"lon":20.0844564,"elevationM":2204},{"id":"node:4826055323","kind":"peak","name":"Duvska Klisura","lat":42.1968754,"lon":20.7684123,"elevationM":545},{"id":"node:4878530331","kind":"peak","name":"Rupa","lat":42.559681,"lon":20.1406633,"elevationM":2202},{"id":"node:4888253784","kind":"peak","name":"Guri i Plakës","lat":42.6740807,"lon":20.960173,"elevationM":null},{"id":"node:4888253785","kind":"peak","name":"Qyqavica","lat":42.737427,"lon":20.9314527,"elevationM":1091},{"id":"node:4901245606","kind":"peak","name":"Скарпа / Skarpa","lat":42.0781006,"lon":20.7844283,"elevationM":2474},{"id":"node:4916953953","kind":"peak","name":"Baballoq","lat":42.5829077,"lon":20.1435984,"elevationM":1401},{"id":"node:4916954627","kind":"peak","name":"Dellinjt e Medha","lat":42.5863556,"lon":20.1113135,"elevationM":2268},{"id":"node:4985057993","kind":"peak","name":"Guri i Sokolit","lat":42.5746375,"lon":20.2084893,"elevationM":1192},{"id":"node:4989853297","kind":"peak","name":"Плат","lat":42.0240426,"lon":20.8122566,"elevationM":2398},{"id":"node:4989867511","kind":"peak","name":"Средни Камен","lat":42.0122804,"lon":20.7922676,"elevationM":2465},{"id":"node:4992608399","kind":"peak","name":"Кобилица / Kobilicë","lat":42.0960859,"lon":20.8836989,"elevationM":2528},{"id":"node:5005890296","kind":"peak","name":"Maja e Arnenit","lat":42.1855904,"lon":20.9626285,"elevationM":1948},{"id":"node:5011527472","kind":"peak","name":"Син Врв","lat":42.0038691,"lon":20.8366882,"elevationM":2550},{"id":"node:5011535125","kind":"peak","name":"Карабунар","lat":42.0010861,"lon":20.8214896,"elevationM":2600},{"id":"node:5143807177","kind":"peak","name":"Залина / Zallinë","lat":42.0453048,"lon":20.7650717,"elevationM":2493},{"id":"node:5143807651","kind":"peak","name":"Kulla","lat":42.0302264,"lon":20.7372029,"elevationM":2359},{"id":"node:5143904951","kind":"peak","name":"Guri i Çarë (2466)","lat":42.1449134,"lon":20.9485331,"elevationM":2466},{"id":"node:5150309912","kind":"peak","name":"Kodra e Çabratit","lat":42.3866905,"lon":20.4164323,"elevationM":440},{"id":"node:5172935830","kind":"peak","name":"Поглед / Pogled","lat":42.8322797,"lon":20.3636462,"elevationM":2154},{"id":"node:5247223414","kind":"peak","name":"Коњушка / Konjushka","lat":42.1380905,"lon":20.9448235,"elevationM":2571},{"id":"node:5297183628","kind":"peak","name":"Koka e Pjetrit","lat":42.8894593,"lon":20.6718122,"elevationM":1028},{"id":"node:5297290604","kind":"peak","name":"Đidova","lat":42.9270726,"lon":20.9585079,"elevationM":1174},{"id":"node:5297297988","kind":"peak","name":"Stremenica","lat":42.9013136,"lon":20.9641765,"elevationM":1064},{"id":"node:5301494418","kind":"peak","name":"Pavlov kamen","lat":42.1549032,"lon":20.9632509,"elevationM":2081},{"id":"node:5312224498","kind":"peak","name":"Barjak","lat":42.4831159,"lon":20.5973141,"elevationM":1005},{"id":"node:5312775547","kind":"peak","name":"Milanov Krst","lat":42.854548,"lon":20.6765634,"elevationM":1114},{"id":"node:5320810660","kind":"peak","name":"Žljeb / Zhleb","lat":42.7672002,"lon":20.2533168,"elevationM":2382},{"id":"node:5326345388","kind":"peak","name":"President","lat":42.5237732,"lon":20.8836341,"elevationM":964},{"id":"node:5326376753","kind":"peak","name":"Pljoš","lat":42.2705181,"lon":20.9495039,"elevationM":1694},{"id":"node:5329522576","kind":"peak","name":"Mbretëreshë","lat":42.6949257,"lon":20.8752964,"elevationM":720},{"id":"node:5329528856","kind":"peak","name":"Barjak","lat":42.7232857,"lon":20.7862308,"elevationM":null},{"id":"node:5329758430","kind":"peak","name":"Gradina","lat":42.9612374,"lon":20.9421592,"elevationM":1205},{"id":"node:5329761268","kind":"peak","name":"Kozji rog","lat":42.9165872,"lon":20.9379877,"elevationM":1063},{"id":"node:5329771965","kind":"peak","name":"Kolibica","lat":42.9668277,"lon":20.925533,"elevationM":946},{"id":"node:5331888796","kind":"peak","name":"Štit","lat":42.9063199,"lon":20.6167994,"elevationM":1115},{"id":"node:5332045345","kind":"peak","name":"Блато","lat":42.9245263,"lon":20.491183,"elevationM":1382},{"id":"node:5332059313","kind":"peak","name":"Чукара","lat":42.9171351,"lon":20.4843658,"elevationM":1380},{"id":"node:5332059316","kind":"peak","name":"Голи крш","lat":42.8753509,"lon":20.4784995,"elevationM":1516},{"id":"node:5332063273","kind":"peak","name":"Бандера","lat":42.8625989,"lon":20.3836181,"elevationM":1685},{"id":"node:5332063274","kind":"peak","name":"Орлосед","lat":42.8708619,"lon":20.396517,"elevationM":1609},{"id":"node:5332229345","kind":"peak","name":"Veliki Lisac","lat":42.9213822,"lon":20.9984787,"elevationM":1198},{"id":"node:5345820329","kind":"peak","name":"Suka","lat":42.2832065,"lon":20.4235537,"elevationM":748},{"id":"node:5345862381","kind":"peak","name":"Guri i Grave","lat":42.6596724,"lon":20.1978666,"elevationM":1538},{"id":"node:5345916777","kind":"peak","name":"Источка страна","lat":42.8503946,"lon":20.4154254,"elevationM":1838},{"id":"node:5345916778","kind":"peak","name":"Шибак","lat":42.8544202,"lon":20.4208898,"elevationM":1761},{"id":"node:5345916779","kind":"peak","name":"Шешково брдо","lat":42.8476845,"lon":20.4256042,"elevationM":1752},{"id":"node:5345916780","kind":"peak","name":"Ujërat e Kuqe / Crvene Vode","lat":42.8444342,"lon":20.4182381,"elevationM":1842},{"id":"node:5345916781","kind":"peak","name":"Novi vrh","lat":42.8318733,"lon":20.4433099,"elevationM":1806},{"id":"node:5482633870","kind":"peak","name":"Maja e Bardhë","lat":42.5342791,"lon":20.0979485,"elevationM":2426},{"id":"node:5493671476","kind":"peak","name":"Gradina","lat":42.4792282,"lon":20.8506216,"elevationM":1056},{"id":"node:5525167996","kind":"peak","name":"Maja Spaçit","lat":42.1580874,"lon":20.0138174,"elevationM":956},{"id":"node:5525167997","kind":"peak","name":"Maja Suka e Zezë","lat":42.1694496,"lon":20.0235596,"elevationM":1221},{"id":"node:5525168000","kind":"peak","name":"Maja Kulla e Gjollisë","lat":42.172769,"lon":20.0558335,"elevationM":1475},{"id":"node:5525168002","kind":"peak","name":"Maja Shala e Madhe","lat":42.1822811,"lon":20.0508932,"elevationM":1473},{"id":"node:5525168003","kind":"peak","name":"Suka e Madhe","lat":42.1912787,"lon":20.0316858,"elevationM":1331},{"id":"node:5525168006","kind":"peak","name":"Maja Straçit","lat":42.1608254,"lon":20.1074995,"elevationM":1553},{"id":"node:5525168009","kind":"peak","name":"Kunora Dardhës","lat":42.1642821,"lon":20.0789193,"elevationM":1581},{"id":"node:5525168011","kind":"peak","name":"Maja Laknishtës","lat":42.1758828,"lon":20.0897235,"elevationM":1374},{"id":"node:5559013093","kind":"peak","name":"Maja Potkuq","lat":42.3657191,"lon":20.0523967,"elevationM":872},{"id":"node:5608977555","kind":"peak","name":"Logu Prellsh","lat":42.5617222,"lon":20.1550308,"elevationM":2305},{"id":"node:5641346854","kind":"peak","name":"Безимени врх / Bezimeni vrh","lat":42.8852903,"lon":20.5390012,"elevationM":1841},{"id":"node:5644359263","kind":"peak","name":"Црни врх","lat":42.9736464,"lon":20.3995725,"elevationM":1357},{"id":"node:5736098377","kind":"peak","name":"Maja Bollo-Bordos","lat":42.5210633,"lon":20.2274394,"elevationM":1441},{"id":"node:5736098379","kind":"peak","name":"Maja Zharit","lat":42.5322118,"lon":20.2045715,"elevationM":1640},{"id":"node:5736388713","kind":"peak","name":"Ujkov krš / Kërrshi i Ujkēs","lat":42.5518985,"lon":20.0506802,"elevationM":2273},{"id":"node:5736389832","kind":"peak","name":"Zez","lat":42.4824352,"lon":20.1905881,"elevationM":1803},{"id":"node:5739039730","kind":"peak","name":"Maja e Bulecit","lat":42.2045909,"lon":20.8327796,"elevationM":1650},{"id":"node:5740414540","kind":"peak","name":"Glava","lat":42.4475215,"lon":20.2032554,"elevationM":1180},{"id":"node:5740414541","kind":"peak","name":"Gurgaci","lat":42.4769444,"lon":20.1822801,"elevationM":1935},{"id":"node:5814707260","kind":"peak","name":"2075","lat":42.1364436,"lon":20.8987869,"elevationM":2075},{"id":"node:5814707261","kind":"peak","name":"Јовин Камен / Jovin Kamen","lat":42.1166988,"lon":20.9150206,"elevationM":2312},{"id":"node:5814707263","kind":"peak","name":"Шереметица","lat":42.0697096,"lon":20.8016291,"elevationM":2310},{"id":"node:5814707266","kind":"peak","name":"Косовиќ / Kosoviq","lat":42.0151651,"lon":20.7520805,"elevationM":null},{"id":"node:5814707267","kind":"peak","name":"Џинибег/Djinibeg","lat":42.0013301,"lon":20.7491048,"elevationM":2368},{"id":"node:5814707274","kind":"peak","name":"Трета Лешничка Карпа","lat":42.0038671,"lon":20.7734143,"elevationM":2511},{"id":"node:5814707282","kind":"peak","name":"Treskavec","lat":42.0982202,"lon":20.8744086,"elevationM":2435},{"id":"node:6018921273","kind":"peak","name":"Rudina","lat":42.3825678,"lon":20.932641,"elevationM":933},{"id":"node:6238398595","kind":"peak","name":"Ruica","lat":42.8644684,"lon":20.5489996,"elevationM":1814},{"id":"node:6290943365","kind":"peak","name":"Maja e Kunorave","lat":42.246049,"lon":20.4926171,"elevationM":null},{"id":"node:6349434672","kind":"peak","name":"Kurilo","lat":42.85503,"lon":20.6326704,"elevationM":1458},{"id":"node:6349441096","kind":"peak","name":"Goleš","lat":42.8384349,"lon":20.6703946,"elevationM":1142},{"id":"node:6407879335","kind":"peak","name":"Klečetica","lat":42.4763309,"lon":20.8650581,"elevationM":1047},{"id":"node:6407882064","kind":"peak","name":"Pesačnik","lat":42.2103824,"lon":20.8258403,"elevationM":1517},{"id":"node:6407885549","kind":"peak","name":"Oštar kamen","lat":42.1104665,"lon":20.8517341,"elevationM":1870},{"id":"node:6407885701","kind":"peak","name":"Guri i Zi","lat":42.1105,"lon":20.7935313,"elevationM":1779},{"id":"node:6407893555","kind":"peak","name":"Maja e Zhveshur/Goli mač","lat":42.8586397,"lon":20.5285624,"elevationM":1746},{"id":"node:6407893556","kind":"peak","name":"Rnjac","lat":42.8506476,"lon":20.5242498,"elevationM":1702},{"id":"node:6409186490","kind":"peak","name":"Rasa Košare","lat":42.4577495,"lon":20.2049769,"elevationM":1385},{"id":"node:6409186492","kind":"peak","name":"Ćafa Glava","lat":42.451396,"lon":20.1952647,"elevationM":1257},{"id":"node:6409186494","kind":"peak","name":"C2/X","lat":42.4624622,"lon":20.1968011,"elevationM":null},{"id":"node:6409189527","kind":"peak","name":"Ripa","lat":42.46723,"lon":20.1924257,"elevationM":1660},{"id":"node:6424017331","kind":"peak","name":"Podi i Ujezes","lat":42.4700494,"lon":20.1761137,"elevationM":1850},{"id":"node:6669166497","kind":"peak","name":"Gramada","lat":42.1632551,"lon":20.9216081,"elevationM":1520},{"id":"node:7307624915","kind":"peak","name":"Клеч / Kleç","lat":42.027804,"lon":20.7499356,"elevationM":2414},{"id":"node:7476364955","kind":"peak","name":"Тумба / Tumba","lat":42.1450567,"lon":20.9958322,"elevationM":2346},{"id":"node:7556794470","kind":"peak","name":"Боровица","lat":42.9892,"lon":20.2325,"elevationM":1376},{"id":"node:7565258592","kind":"peak","name":"Bogiqe","lat":42.5734979,"lon":20.0877319,"elevationM":null},{"id":"node:7579455667","kind":"peak","name":"Караначки врх","lat":42.959,"lon":20.4051667,"elevationM":1245},{"id":"node:7781801869","kind":"peak","name":"Kodra e Farkëtarit/Kovački breg","lat":42.8375649,"lon":20.5721625,"elevationM":1070},{"id":"node:7781801870","kind":"peak","name":"Shkëmbi i kuq/Crveni krš","lat":42.8513616,"lon":20.5543671,"elevationM":1392},{"id":"node:7781801871","kind":"peak","name":"Stropačka glava","lat":42.8580407,"lon":20.5794222,"elevationM":1589},{"id":"node:7781801873","kind":"peak","name":"Maja e Klinës/Klinski vrh","lat":42.8763099,"lon":20.5128951,"elevationM":1808},{"id":"node:7781801875","kind":"peak","name":"Kraljeva struga","lat":42.8427597,"lon":20.486078,"elevationM":1768},{"id":"node:7781801876","kind":"peak","name":"Vrh Žača","lat":42.8378438,"lon":20.462742,"elevationM":1770},{"id":"node:7781801877","kind":"peak","name":"Trsan","lat":42.8305322,"lon":20.4772679,"elevationM":1712},{"id":"node:7781801878","kind":"peak","name":"Strmenjača","lat":42.8220534,"lon":20.4725835,"elevationM":1603},{"id":"node:7781801879","kind":"peak","name":"Straža","lat":42.8177967,"lon":20.4533558,"elevationM":1523},{"id":"node:7782439844","kind":"peak","name":"Kuk","lat":42.2056442,"lon":20.9487224,"elevationM":1251},{"id":"node:7782439845","kind":"peak","name":"Žarski rid","lat":42.1981267,"lon":20.9725924,"elevationM":1375},{"id":"node:7782439846","kind":"peak","name":"Borov vrh","lat":42.2170168,"lon":20.9713128,"elevationM":1289},{"id":"node:7782439847","kind":"peak","name":"Gobeljinac","lat":42.20803,"lon":20.9318238,"elevationM":1297},{"id":"node:7803820408","kind":"peak","name":"Крш Челин","lat":42.8696334,"lon":20.3548,"elevationM":1466},{"id":"node:7806052074","kind":"peak","name":"Мачковац","lat":42.91025,"lon":20.4541667,"elevationM":1342},{"id":"node:7810403115","kind":"peak","name":"Муша","lat":42.8700333,"lon":20.4139667,"elevationM":1504},{"id":"node:7810413038","kind":"peak","name":"Осоје","lat":42.88515,"lon":20.3935167,"elevationM":1342},{"id":"node:7810434554","kind":"peak","name":"Петка","lat":42.9648167,"lon":20.18365,"elevationM":1432},{"id":"node:7812014664","kind":"peak","name":"Пријате","lat":42.8680167,"lon":20.43545,"elevationM":1666},{"id":"node:7812670412","kind":"peak","name":"Рубајлије","lat":42.9488833,"lon":20.4355,"elevationM":1307},{"id":"node:7812670431","kind":"peak","name":"Самоград","lat":42.9247166,"lon":20.3972667,"elevationM":1079},{"id":"node:7815999261","kind":"peak","name":"Равно брдо","lat":42.9560369,"lon":20.4978728,"elevationM":1157},{"id":"node:7815999262","kind":"peak","name":"Дубрава","lat":42.9648574,"lon":20.4924317,"elevationM":1027},{"id":"node:7816013136","kind":"peak","name":"Tear","lat":42.9462163,"lon":20.5647553,"elevationM":1145},{"id":"node:7819038391","kind":"peak","name":"Старачко брдо","lat":42.9384,"lon":20.4626167,"elevationM":1393},{"id":"node:7819057483","kind":"peak","name":"Струмачко брдо","lat":42.9928,"lon":20.5083667,"elevationM":1100},{"id":"node:7819410600","kind":"peak","name":"Веља глава","lat":42.9162333,"lon":20.38395,"elevationM":1232},{"id":"node:7819410604","kind":"peak","name":"Велико брдо / Veliko Brdo","lat":42.9756353,"lon":20.5519058,"elevationM":1086},{"id":"node:7819444710","kind":"peak","name":"Врановићко брдо","lat":42.9871,"lon":20.54425,"elevationM":1096},{"id":"node:7819471554","kind":"peak","name":"Зекавица","lat":42.9942167,"lon":20.1887334,"elevationM":1439},{"id":"node:7819497041","kind":"peak","name":"Чуњин крш","lat":42.9528667,"lon":20.45375,"elevationM":1267},{"id":"node:7819522700","kind":"peak","name":"Шиљати крш","lat":42.9456,"lon":20.4764833,"elevationM":1280},{"id":"node:8246193920","kind":"peak","name":"Maja e Korenikut","lat":42.802056,"lon":20.3672446,"elevationM":1918},{"id":"node:8564214037","kind":"peak","name":"Cërrnushë","lat":42.885845,"lon":20.9184092,"elevationM":1016},{"id":"node:8995892850","kind":"peak","name":"Maja e Runës","lat":42.0329562,"lon":20.2491842,"elevationM":null},{"id":"node:9150949574","kind":"peak","name":"Trekufiri / Tromeđa","lat":42.5554974,"lon":20.0791861,"elevationM":2366},{"id":"node:9180099888","kind":"peak","name":"Јелачки Црн Врв","lat":42.0409442,"lon":20.8601512,"elevationM":1890},{"id":"node:9464714583","kind":"peak","name":"Istikom","lat":42.8790651,"lon":20.9059567,"elevationM":750},{"id":"node:9464714586","kind":"peak","name":"Stambolija","lat":42.8448354,"lon":20.876384,"elevationM":null},{"id":"node:9464714587","kind":"peak","name":"Rovine","lat":42.8523589,"lon":20.8810874,"elevationM":598},{"id":"node:9464714590","kind":"peak","name":"Sokolica","lat":42.924828,"lon":20.8512295,"elevationM":914},{"id":"node:9909504995","kind":"peak","name":"Dhelpra/Lisac","lat":42.8322267,"lon":20.5263242,"elevationM":1556},{"id":"node:9909504997","kind":"peak","name":"Maja e Thatë/Suvi vrh","lat":42.8348022,"lon":20.5203262,"elevationM":1594},{"id":"node:9909554045","kind":"peak","name":"Javorja","lat":42.848456,"lon":20.490637,"elevationM":1716},{"id":"node:9909574418","kind":"peak","name":"Oklačka glava","lat":42.8940043,"lon":20.4788094,"elevationM":1729},{"id":"node:9909574419","kind":"peak","name":"Bljuštur","lat":42.8864451,"lon":20.4876987,"elevationM":1660},{"id":"node:10124884353","kind":"peak","name":"Tepe","lat":42.2444965,"lon":20.8547437,"elevationM":1271},{"id":"node:10125014525","kind":"peak","name":"Čuka","lat":42.2210056,"lon":20.7669215,"elevationM":689},{"id":"node:10166366359","kind":"peak","name":"Бистра / Бистрица","lat":42.1389895,"lon":20.9727925,"elevationM":2611},{"id":"node:11056146637","kind":"peak","name":"Krši koc","lat":42.617633,"lon":20.1191165,"elevationM":2046},{"id":"node:11056154041","kind":"peak","name":"Brini bulit","lat":42.6072224,"lon":20.1041587,"elevationM":2102},{"id":"node:11067370618","kind":"peak","name":"Brini bulit","lat":42.6071462,"lon":20.1040078,"elevationM":2102},{"id":"node:11216259503","kind":"peak","name":"Мала Сува Дупка","lat":42.1205805,"lon":20.9458227,"elevationM":2515},{"id":"node:11216259504","kind":"peak","name":"Сува Дупка","lat":42.1169075,"lon":20.954078,"elevationM":2551},{"id":"node:11364470658","kind":"peak","name":"Suka e Hereqit","lat":42.476015,"lon":20.3484507,"elevationM":null},{"id":"node:12400246887","kind":"peak","name":"Kodza Balkan","lat":42.2119846,"lon":20.864747,"elevationM":2035},{"id":"node:12509055153","kind":"peak","name":"Đerman","lat":42.9443771,"lon":20.7510027,"elevationM":null},{"id":"node:12509055155","kind":"peak","name":"Vrnjaševac","lat":42.9366138,"lon":20.6990416,"elevationM":null},{"id":"node:12509055157","kind":"peak","name":"Kragovski zapis","lat":42.9509857,"lon":20.7020024,"elevationM":1129},{"id":"node:12509055158","kind":"peak","name":"Cerje","lat":42.9516824,"lon":20.7245796,"elevationM":null},{"id":"node:12509079607","kind":"peak","name":"Brdo","lat":42.9527125,"lon":20.784285,"elevationM":908},{"id":"node:12710835629","kind":"peak","name":"fq. e Malit të Gashit","lat":42.2913815,"lon":20.1353526,"elevationM":null},{"id":"node:12710835631","kind":"peak","name":"Q. e Gashit","lat":42.2970127,"lon":20.1084476,"elevationM":null},{"id":"node:12710835632","kind":"peak","name":"Q. e Luzhës","lat":42.3142291,"lon":20.1671295,"elevationM":null},{"id":"node:12767159678","kind":"peak","name":"Ḱепеново","lat":42.0264967,"lon":20.7655896,"elevationM":2212},{"id":"node:12767159680","kind":"peak","name":"Љубински Уши","lat":42.0980339,"lon":20.8676813,"elevationM":2234},{"id":"node:12767159681","kind":"peak","name":"Црвен Камен","lat":42.081083,"lon":20.9507194,"elevationM":1833}]}