{"tileKey":"la_p40_lo_p141","version":"v1-1775891056926","entries":[{"id":"node:3258247278","kind":"peak","name":"階上岳","lat":40.4007159,"lon":141.5843309,"elevationM":739},{"id":"node:3258247279","kind":"peak","name":"名久井岳","lat":40.3878934,"lon":141.3084281,"elevationM":615},{"id":"node:3258247283","kind":"peak","name":"戸来岳（三ッ岳）","lat":40.4529286,"lon":141.0016049,"elevationM":1159},{"id":"node:3259131466","kind":"peak","name":"折爪岳","lat":40.2687953,"lon":141.3744696,"elevationM":852},{"id":"node:3259131468","kind":"peak","name":"稲庭岳","lat":40.1986452,"lon":141.0462021,"elevationM":1078},{"id":"node:3259131471","kind":"peak","name":"七時雨山","lat":40.0692699,"lon":141.10555,"elevationM":1063},{"id":"node:3259131472","kind":"peak","name":"安家森","lat":40.0380426,"lon":141.5409154,"elevationM":1239},{"id":"node:3259131473","kind":"peak","name":"遠島山","lat":40.0207147,"lon":141.6442234,"elevationM":1262},{"id":"node:5290748852","kind":"peak","name":"茂谷山","lat":40.2161393,"lon":141.283838,"elevationM":383},{"id":"node:5290748853","kind":"peak","name":"小倉岳","lat":40.2168614,"lon":141.390895,"elevationM":652},{"id":"node:5290748854","kind":"peak","name":"二ツ森","lat":40.1842613,"lon":141.3553211,"elevationM":621},{"id":"node:5290748855","kind":"peak","name":"西岳","lat":40.0856183,"lon":141.1715013,"elevationM":1018},{"id":"node:5416622344","kind":"peak","name":"久慈平岳","lat":40.3581851,"lon":141.6128937,"elevationM":706},{"id":"node:7052083703","kind":"peak","name":"烏帽子岳","lat":40.8404374,"lon":141.0395622,"elevationM":720},{"id":"node:7052083775","kind":"peak","name":"ドコノ森","lat":40.3850668,"lon":141.024633,"elevationM":804},{"id":"node:7052083776","kind":"peak","name":"烏帽子","lat":40.3757866,"lon":141.0618326,"elevationM":480},{"id":"node:7052083794","kind":"peak","name":"大黒森","lat":40.3620437,"lon":141.0527439,"elevationM":719},{"id":"node:7052083795","kind":"peak","name":"朝日奈岳","lat":40.3247246,"lon":141.0481305,"elevationM":720},{"id":"node:7052083798","kind":"peak","name":"大駒ヶ岳","lat":40.4499639,"lon":141.0124236,"elevationM":1144},{"id":"node:7053421007","kind":"peak","name":"土筆森","lat":40.6354502,"lon":141.0072791,"elevationM":579},{"id":"node:7054272046","kind":"peak","name":"欠の山","lat":40.0889808,"lon":141.0295737,"elevationM":636},{"id":"node:7054272047","kind":"peak","name":"曲田山","lat":40.102892,"lon":141.042856,"elevationM":435},{"id":"node:7054272048","kind":"peak","name":"差鳥大山","lat":40.0977054,"lon":141.082499,"elevationM":471},{"id":"node:7054272049","kind":"peak","name":"大代平山","lat":40.0995355,"lon":141.0960066,"elevationM":549},{"id":"node:7054272050","kind":"peak","name":"毛無森","lat":40.1058298,"lon":141.1501121,"elevationM":904},{"id":"node:7054272051","kind":"peak","name":"田代山","lat":40.0959573,"lon":141.1281824,"elevationM":945},{"id":"node:7054272052","kind":"peak","name":"高山","lat":40.4421787,"lon":141.2853169,"elevationM":277},{"id":"node:7054272054","kind":"peak","name":"馬ノ神","lat":40.528561,"lon":141.0286617,"elevationM":693},{"id":"node:7054272055","kind":"peak","name":"小母屋","lat":40.5240023,"lon":141.0584235,"elevationM":528},{"id":"node:7054272056","kind":"peak","name":"大母屋","lat":40.5322142,"lon":141.0613632,"elevationM":526},{"id":"node:7054272057","kind":"peak","name":"月日山","lat":40.518171,"lon":141.0948801,"elevationM":549},{"id":"node:7054272069","kind":"peak","name":"黒間山","lat":40.2915975,"lon":141.5974724,"elevationM":415},{"id":"node:7054272070","kind":"peak","name":"靄岳","lat":40.2353613,"lon":141.539408,"elevationM":567},{"id":"node:7054272071","kind":"peak","name":"高森山","lat":40.2872273,"lon":141.3073218,"elevationM":325},{"id":"node:7054272072","kind":"peak","name":"高鳥谷山","lat":40.2873665,"lon":141.2074899,"elevationM":371},{"id":"node:7054272074","kind":"peak","name":"赤平","lat":40.3077073,"lon":141.0559367,"elevationM":607},{"id":"node:7054272075","kind":"peak","name":"黒森","lat":40.2400542,"lon":141.0461283,"elevationM":727},{"id":"node:7054272084","kind":"peak","name":"竜ヶ森","lat":40.3086335,"lon":141.0124826,"elevationM":655},{"id":"node:7054275088","kind":"peak","name":"平森","lat":40.4040768,"lon":141.0514605,"elevationM":560},{"id":"node:7054275089","kind":"peak","name":"沼ノ森","lat":40.3741274,"lon":141.0829282,"elevationM":347},{"id":"node:7054275090","kind":"peak","name":"貝名森","lat":40.3828153,"lon":141.1336434,"elevationM":438},{"id":"node:7054275091","kind":"peak","name":"高堂山","lat":40.3964375,"lon":141.1325598,"elevationM":539},{"id":"node:7054275092","kind":"peak","name":"黒森","lat":40.404902,"lon":141.1513138,"elevationM":487},{"id":"node:7054275093","kind":"peak","name":"天神山","lat":40.3936103,"lon":141.2537205,"elevationM":235},{"id":"node:7054275094","kind":"peak","name":"二ッ森","lat":40.3560941,"lon":141.6774773,"elevationM":274},{"id":"node:7054275095","kind":"peak","name":"高森","lat":40.3474599,"lon":141.6841292,"elevationM":226},{"id":"node:7054275096","kind":"peak","name":"放森","lat":40.3447615,"lon":141.665225,"elevationM":255},{"id":"node:7054275097","kind":"peak","name":"蛇石山","lat":40.3457428,"lon":141.6187477,"elevationM":524},{"id":"node:7054275098","kind":"peak","name":"姫ヶ森","lat":40.3539357,"lon":141.5867114,"elevationM":511},{"id":"node:7054275099","kind":"peak","name":"高取山","lat":40.3858472,"lon":141.6480803,"elevationM":362},{"id":"node:7054275100","kind":"peak","name":"鳩岳","lat":40.4094769,"lon":141.5654361,"elevationM":528},{"id":"node:7054275101","kind":"peak","name":"つくし森","lat":40.4143538,"lon":141.5771842,"elevationM":425},{"id":"node:7056001814","kind":"peak","name":"弥瀬山","lat":40.7843759,"lon":141.0098862,"elevationM":425},{"id":"node:7056001820","kind":"peak","name":"大作山","lat":40.7207377,"lon":141.0453665,"elevationM":456},{"id":"node:7056001835","kind":"peak","name":"屋形森","lat":40.7523937,"lon":141.0556126,"elevationM":454},{"id":"node:7056001836","kind":"peak","name":"四本桂山","lat":40.7699306,"lon":141.0396266,"elevationM":404},{"id":"node:7056001837","kind":"peak","name":"曽我森","lat":40.7710519,"lon":141.0707402,"elevationM":422},{"id":"node:7056001838","kind":"peak","name":"半兵衛高森","lat":40.7965439,"lon":141.0450125,"elevationM":445},{"id":"node:7056001839","kind":"peak","name":"高森山","lat":40.8069394,"lon":141.0529732,"elevationM":309},{"id":"node:7056488059","kind":"peak","name":"傾城峠","lat":40.1897911,"lon":141.3849556,"elevationM":736},{"id":"node:7056488060","kind":"peak","name":"高森山","lat":40.0664131,"lon":141.3131475,"elevationM":661},{"id":"node:7056488061","kind":"peak","name":"黒森山","lat":40.0276802,"lon":141.3840651,"elevationM":944},{"id":"node:7056488062","kind":"peak","name":"船倉山","lat":40.0300462,"lon":141.450305,"elevationM":641},{"id":"node:7056488063","kind":"peak","name":"樺森","lat":40.0210418,"lon":141.5247631,"elevationM":1207},{"id":"node:7056488064","kind":"peak","name":"遠別岳","lat":40.0472383,"lon":141.5317261,"elevationM":1235},{"id":"node:7056488065","kind":"peak","name":"平庭岳","lat":40.0744839,"lon":141.5250313,"elevationM":1060},{"id":"node:7056488074","kind":"peak","name":"卯子酉山","lat":40.0087328,"lon":141.8471646,"elevationM":424},{"id":"node:7056488075","kind":"peak","name":"高森","lat":40.0117239,"lon":141.812253,"elevationM":467},{"id":"node:7056488077","kind":"peak","name":"天神森","lat":40.0078124,"lon":141.6576719,"elevationM":1207},{"id":"node:7056488078","kind":"peak","name":"高森","lat":40.0238106,"lon":141.7656469,"elevationM":702},{"id":"node:7056488079","kind":"peak","name":"男和佐羅比山","lat":40.0496529,"lon":141.7584693,"elevationM":814},{"id":"node:7056488080","kind":"peak","name":"女和佐羅比山","lat":40.0538126,"lon":141.747129,"elevationM":746},{"id":"node:7057392007","kind":"peak","name":"松倉山","lat":40.8696025,"lon":141.0128045,"elevationM":476},{"id":"node:7057392008","kind":"peak","name":"鳴山","lat":40.8885846,"lon":141.0333609,"elevationM":316},{"id":"node:7057392009","kind":"peak","name":"大森","lat":40.8880168,"lon":141.0508704,"elevationM":159},{"id":"node:7293582623","kind":"peak","name":"小倉山","lat":40.106076,"lon":141.7417216,"elevationM":511},{"id":"node:7293582624","kind":"peak","name":"多々良山","lat":40.0890136,"lon":141.4856136,"elevationM":970},{"id":"node:7293582629","kind":"peak","name":"明神岳","lat":40.1091696,"lon":141.5251815,"elevationM":887},{"id":"node:7293582630","kind":"peak","name":"高畑山","lat":40.1632641,"lon":141.5391505,"elevationM":589},{"id":"node:7293582631","kind":"peak","name":"伊茂屋山","lat":40.1958968,"lon":141.565007,"elevationM":497},{"id":"node:7293582632","kind":"peak","name":"黒森","lat":40.2012316,"lon":141.6686046,"elevationM":366},{"id":"node:7293582633","kind":"peak","name":"唐松山","lat":40.2438951,"lon":141.6204429,"elevationM":439},{"id":"node:7293777545","kind":"peak","name":"上の山","lat":40.0020103,"lon":141.0353458,"elevationM":586},{"id":"node:7293777547","kind":"peak","name":"高森山","lat":40.0094806,"lon":141.0745811,"elevationM":539},{"id":"node:7293777548","kind":"peak","name":"火箱山","lat":40.0200723,"lon":141.035158,"elevationM":800},{"id":"node:7293777549","kind":"peak","name":"荒木田山","lat":40.0226768,"lon":141.0490036,"elevationM":899},{"id":"node:7293777550","kind":"peak","name":"御月山","lat":40.026645,"lon":141.0410321,"elevationM":954},{"id":"node:7365717232","kind":"peak","name":"野境山","lat":40.3179993,"lon":141.2251171,"elevationM":275},{"id":"node:7365717235","kind":"peak","name":"黒森山","lat":40.2727154,"lon":141.0024619,"elevationM":803},{"id":"node:7366083143","kind":"peak","name":"上の木山","lat":40.1674493,"lon":141.0290685,"elevationM":768},{"id":"node:7366083147","kind":"peak","name":"宇部ヶ森","lat":40.1435834,"lon":141.4713764,"elevationM":594},{"id":"node:7366083148","kind":"peak","name":"就志森","lat":40.1512104,"lon":141.3973045,"elevationM":770},{"id":"node:7366083183","kind":"peak","name":"深沢山","lat":40.0375544,"lon":141.0027408,"elevationM":690},{"id":"node:7366092085","kind":"peak","name":"残決山","lat":40.106634,"lon":141.0003161,"elevationM":653},{"id":"node:7366092086","kind":"peak","name":"岩倉山","lat":40.1127718,"lon":141.0235548,"elevationM":409},{"id":"node:7366092087","kind":"peak","name":"神楽山","lat":40.1130179,"lon":141.0655689,"elevationM":413},{"id":"node:7366092088","kind":"peak","name":"馬場山","lat":40.1215507,"lon":141.0310006,"elevationM":531},{"id":"node:7379654721","kind":"peak","name":"蓬森","lat":40.0230137,"lon":141.6069674,"elevationM":1174},{"id":"node:7379654722","kind":"peak","name":"寒長根山","lat":40.1128866,"lon":141.6323733,"elevationM":718},{"id":"node:7379654723","kind":"peak","name":"深田金山","lat":40.1230193,"lon":141.6534233,"elevationM":599},{"id":"node:7379654724","kind":"peak","name":"金山","lat":40.1434522,"lon":141.6442823,"elevationM":576},{"id":"node:7379972009","kind":"peak","name":"高住山","lat":40.0460803,"lon":141.0768771,"elevationM":624},{"id":"node:7379972010","kind":"peak","name":"二ツ森山","lat":40.0407415,"lon":141.0841727,"elevationM":616},{"id":"node:7379972011","kind":"peak","name":"大鶴間峠","lat":40.0451604,"lon":141.0888934,"elevationM":594},{"id":"node:7379972012","kind":"peak","name":"石倉山","lat":40.0324943,"lon":141.0955453,"elevationM":574},{"id":"node:7379972013","kind":"peak","name":"鉢森","lat":40.030802,"lon":141.1042571,"elevationM":501},{"id":"node:7379972014","kind":"peak","name":"国樽山","lat":40.061815,"lon":141.0475981,"elevationM":580},{"id":"node:7388851464","kind":"peak","name":"石ノ倉","lat":40.4137166,"lon":141.5906381,"elevationM":541},{"id":"node:7479057407","kind":"peak","name":"七森","lat":40.422816,"lon":141.0046184,"elevationM":793},{"id":"node:12974266065","kind":"peak","name":"つりがね洞","lat":40.1785818,"lon":141.8339898,"elevationM":null},{"id":"node:12974266066","kind":"peak","name":"兜岩","lat":40.1793071,"lon":141.8307107,"elevationM":null}]}