{"tileKey":"la_p18_lo_p98","version":"v1-1775891056926","entries":[{"id":"node:259288817","kind":"peak","name":"ดอยอินทนนท์, Doi Inthanon","lat":18.5884834,"lon":98.4874637,"elevationM":2565},{"id":"node:2082718893","kind":"peak","name":"ดอยสุเทพ","lat":18.8166077,"lon":98.89236,"elevationM":1600},{"id":"node:2082739154","kind":"peak","name":"ดอยปุย","lat":18.8317571,"lon":98.8885403,"elevationM":1685},{"id":"node:3997821653","kind":"peak","name":"ดอยปุกก้นไก่","lat":18.9412142,"lon":98.7045023,"elevationM":929},{"id":"node:3997821654","kind":"peak","name":"ดอยผาจอก","lat":18.92716,"lon":98.6358928,"elevationM":null},{"id":"node:3997821655","kind":"peak","name":"ดอยผานกยาง","lat":18.8924921,"lon":98.7020777,"elevationM":null},{"id":"node:3997821656","kind":"peak","name":"ดอยสันกิ่วสูง","lat":18.9090114,"lon":98.7487715,"elevationM":null},{"id":"node:3997876063","kind":"peak","name":"ดอยกิ่วป่าคา","lat":18.6044716,"lon":98.7380059,"elevationM":null},{"id":"node:3997876064","kind":"peak","name":"ดอยถ้ำบริจินดา","lat":18.5111047,"lon":98.6918187,"elevationM":null},{"id":"node:3997876065","kind":"peak","name":"ดอยผาไล","lat":18.5993004,"lon":98.6224061,"elevationM":null},{"id":"node:3997876066","kind":"peak","name":"ดอยม่อนฆ้อง","lat":18.5345346,"lon":98.6954319,"elevationM":null},{"id":"node:3997876067","kind":"peak","name":"ดอยห้วยแรด","lat":18.5701725,"lon":98.7030755,"elevationM":null},{"id":"node:3997963040","kind":"peak","name":"ดอยปุยกลาง","lat":18.1543589,"lon":98.4918947,"elevationM":null},{"id":"node:3997963041","kind":"peak","name":"ดอยผาเลียบ","lat":18.2636966,"lon":98.5535285,"elevationM":null},{"id":"node:3997963042","kind":"peak","name":"ดอยผาโยง","lat":18.2413035,"lon":98.5626774,"elevationM":null},{"id":"node:3997963043","kind":"peak","name":"ดอยยาว","lat":18.171995,"lon":98.4567044,"elevationM":null},{"id":"node:3997963044","kind":"peak","name":"ดอยเกี๊ยะ","lat":18.1097086,"lon":98.5754532,"elevationM":null},{"id":"node:4537316612","kind":"peak","name":"ม่อนแจ่ม","lat":18.9484215,"lon":98.794487,"elevationM":null},{"id":"node:6217810009","kind":"peak","name":"ดอยผ้าขาวน้อย","lat":18.3984139,"lon":98.4867312,"elevationM":1588},{"id":"node:6217983541","kind":"peak","name":"ดอยหัวเสือ","lat":18.4990354,"lon":98.5557662,"elevationM":1855},{"id":"node:8169324273","kind":"peak","name":"ดอยแม่อูคอ","lat":18.8983614,"lon":98.0893582,"elevationM":1614},{"id":"node:8293866213","kind":"peak","name":"ดอยมอนสินคู้","lat":18.6954851,"lon":98.7312165,"elevationM":1093},{"id":"node:8293945646","kind":"peak","name":"ดอยขุนห้วยขนุน","lat":18.7042648,"lon":98.7389018,"elevationM":983},{"id":"node:9269283458","kind":"peak","name":"ดอยหัวหมู","lat":18.8367703,"lon":98.8893216,"elevationM":1620},{"id":"node:9508089511","kind":"peak","name":"ดอยม่อนล่อง","lat":18.9200572,"lon":98.8352842,"elevationM":1434},{"id":"node:10880112379","kind":"peak","name":"ดอยเลี่ยม","lat":18.1607158,"lon":98.4875081,"elevationM":null},{"id":"node:11428851721","kind":"peak","name":"ดอยกาน","lat":18.288427,"lon":98.778408,"elevationM":891},{"id":"node:12446804740","kind":"peak","name":"Gola","lat":18.7899151,"lon":98.2800958,"elevationM":1286},{"id":"node:12574571560","kind":"peak","name":"ดอยโป่งสะแยน","lat":18.9659795,"lon":98.1706656,"elevationM":2005},{"id":"node:13197000309","kind":"peak","name":"ดอยเลี่ยม","lat":18.1751509,"lon":98.4856328,"elevationM":null}]}