{"tileKey":"la_p10_lo_m66","version":"v1-1775891056926","entries":[{"id":"node:5644370641","kind":"peak","name":"Cerro El Cantón","lat":10.1258361,"lon":-65.4460288,"elevationM":null},{"id":"node:5644370642","kind":"peak","name":"Cerro Volador","lat":10.0751358,"lon":-65.4942227,"elevationM":null},{"id":"node:5644370643","kind":"peak","name":"Cerro El Coco","lat":10.0984167,"lon":-65.4810048,"elevationM":null},{"id":"node:5644370644","kind":"peak","name":"Cerro Cambural","lat":10.0956704,"lon":-65.4389048,"elevationM":null},{"id":"node:5644370645","kind":"peak","name":"Cerro Paraguatán","lat":10.0968534,"lon":-65.4498053,"elevationM":null},{"id":"node:5644370646","kind":"peak","name":"Cerro El Gallo","lat":10.1055147,"lon":-65.4459429,"elevationM":null},{"id":"node:5644370647","kind":"peak","name":"Alto Nazaria","lat":10.1129505,"lon":-65.4305363,"elevationM":null},{"id":"node:5644370648","kind":"peak","name":"Cerro Punta Guariche","lat":10.1098663,"lon":-65.410924,"elevationM":null},{"id":"node:5644370649","kind":"peak","name":"Cerro Machado","lat":10.1069934,"lon":-65.4243995,"elevationM":null},{"id":"node:5644370650","kind":"peak","name":"Cerro Sabilar","lat":10.1015854,"lon":-65.3919125,"elevationM":null},{"id":"node:5644370653","kind":"peak","name":"Cerro de Los Mangos","lat":10.0166516,"lon":-65.3819132,"elevationM":null},{"id":"node:5644370654","kind":"peak","name":"Cerro Pajarito","lat":10.0619947,"lon":-65.4111815,"elevationM":null},{"id":"node:5644370655","kind":"peak","name":"Cerro Peña Blanca","lat":10.0523181,"lon":-65.4002381,"elevationM":null},{"id":"node:5644370656","kind":"peak","name":"Cerro Papelón","lat":10.0341895,"lon":-65.4063321,"elevationM":null},{"id":"node:5644370658","kind":"peak","name":"Cerro de Tupurquén","lat":10.069347,"lon":-65.4331971,"elevationM":null},{"id":"node:5644370659","kind":"peak","name":"Cerro San Antonio","lat":10.067023,"lon":-65.4730225,"elevationM":null},{"id":"node:5644370660","kind":"peak","name":"Cerro Maraca","lat":10.0382041,"lon":-65.4528523,"elevationM":null},{"id":"node:5644370677","kind":"peak","name":"Cerro Chaguarama","lat":10.0393451,"lon":-65.5018617,"elevationM":null},{"id":"node:5644370692","kind":"peak","name":"Cerro El Manguito","lat":10.0011414,"lon":-65.4096795,"elevationM":null},{"id":"node:5644370862","kind":"peak","name":"Cerro Caracol","lat":10.0203705,"lon":-65.3340626,"elevationM":null},{"id":"node:5644370873","kind":"peak","name":"Cerro Montañita","lat":10.035415,"lon":-65.0152874,"elevationM":null},{"id":"node:5644370874","kind":"peak","name":"Cerro Picapica","lat":10.014454,"lon":-65.0106097,"elevationM":null},{"id":"node:5644370928","kind":"peak","name":"Cerro El Tejar","lat":10.0418594,"lon":-65.0242353,"elevationM":null},{"id":"node:5644370929","kind":"peak","name":"Alto de La Iglesia","lat":10.0336401,"lon":-65.0443411,"elevationM":null},{"id":"node:5644370933","kind":"peak","name":"Cerro Las Cocuizas","lat":10.0384365,"lon":-65.0655627,"elevationM":null},{"id":"node:5644370934","kind":"peak","name":"Cerro El Vigía","lat":10.0464232,"lon":-65.0700903,"elevationM":null},{"id":"node:5644370935","kind":"peak","name":"Cerro Los Araguatos","lat":10.0352882,"lon":-65.0886727,"elevationM":null},{"id":"node:5644370936","kind":"peak","name":"Cerro La Morita","lat":10.024829,"lon":-65.1105595,"elevationM":null},{"id":"node:5644370944","kind":"peak","name":"Cerro La Pedrera","lat":10.0350347,"lon":-65.2213669,"elevationM":null},{"id":"node:5644370947","kind":"peak","name":"Cerro Peña Blanca","lat":10.0233921,"lon":-65.1718855,"elevationM":null},{"id":"node:5644370948","kind":"peak","name":"Cerro La Mina","lat":10.0301326,"lon":-65.1979781,"elevationM":null},{"id":"node:5644370951","kind":"peak","name":"Cerro Azul","lat":10.0395352,"lon":-65.2706552,"elevationM":null},{"id":"node:5644370952","kind":"peak","name":"Loma El Caro","lat":10.0231175,"lon":-65.2225256,"elevationM":null},{"id":"node:5644370954","kind":"peak","name":"Morro de Unare","lat":10.0708259,"lon":-65.2577162,"elevationM":null},{"id":"node:5644370969","kind":"peak","name":"Cerro Campanario","lat":10.0559099,"lon":-65.3045798,"elevationM":null},{"id":"node:5651349804","kind":"peak","name":"Cerro Tucurebe","lat":10.1455225,"lon":-65.7415009,"elevationM":null},{"id":"node:5651349811","kind":"peak","name":"Cerro Chaguaramal","lat":10.1205552,"lon":-65.8121396,"elevationM":null},{"id":"node:5651349812","kind":"peak","name":"Cerro Margaritera","lat":10.1057259,"lon":-65.7553196,"elevationM":null},{"id":"node:5651349813","kind":"peak","name":"Cerro Bañadero","lat":10.0815583,"lon":-65.7949734,"elevationM":null},{"id":"node:5651349818","kind":"peak","name":"Cerro Colorado","lat":10.1191187,"lon":-65.7246352,"elevationM":null},{"id":"node:5651349819","kind":"peak","name":"Cerro La Cruz","lat":10.1458605,"lon":-65.6813765,"elevationM":null},{"id":"node:5651349820","kind":"peak","name":"Cerro San José","lat":10.046867,"lon":-65.7181979,"elevationM":null},{"id":"node:5651349821","kind":"peak","name":"Cerro Avilesera","lat":10.1228788,"lon":-65.6893159,"elevationM":null},{"id":"node:5651350330","kind":"peak","name":"Cerro Las Charas","lat":10.1334827,"lon":-65.6015969,"elevationM":null},{"id":"node:5651350331","kind":"peak","name":"Cerro La Goleta","lat":10.1525772,"lon":-65.5606127,"elevationM":null},{"id":"node:5651350332","kind":"peak","name":"Cerro Chanchamire","lat":10.1414037,"lon":-65.5802036,"elevationM":null},{"id":"node:5651350335","kind":"peak","name":"Cerro San Isidro","lat":10.1211044,"lon":-65.5522871,"elevationM":null},{"id":"node:5651350337","kind":"peak","name":"Cerro El Apamate","lat":10.1381719,"lon":-65.5387688,"elevationM":null},{"id":"node:5651350338","kind":"peak","name":"Cerro Zanjonote","lat":10.1083876,"lon":-65.5921555,"elevationM":null},{"id":"node:5651350339","kind":"peak","name":"Cerro Santa Clara","lat":10.0987969,"lon":-65.5910826,"elevationM":null},{"id":"node:5651350340","kind":"peak","name":"Cerro Castillero","lat":10.0984589,"lon":-65.5816842,"elevationM":null},{"id":"node:5651350341","kind":"peak","name":"Cerro El Tigre","lat":10.1056837,"lon":-65.5763627,"elevationM":null},{"id":"node:5651350342","kind":"peak","name":"Cerro Chuchero","lat":10.1149784,"lon":-65.5658484,"elevationM":null},{"id":"node:5651350343","kind":"peak","name":"Cerro Cotoperíz","lat":10.1143447,"lon":-65.5445624,"elevationM":null},{"id":"node:5651350347","kind":"peak","name":"Cerro Nisperal","lat":10.0788964,"lon":-65.522976,"elevationM":null},{"id":"node:5651350348","kind":"peak","name":"Cerro Caro","lat":10.0724316,"lon":-65.5516434,"elevationM":null},{"id":"node:5651350349","kind":"peak","name":"Cerro La Horqueta","lat":10.081347,"lon":-65.5593682,"elevationM":null},{"id":"node:5651350361","kind":"peak","name":"Cerro Santa Lucía","lat":10.0559944,"lon":-65.6406499,"elevationM":null},{"id":"node:5651350368","kind":"peak","name":"Cerro Sixto","lat":10.0386689,"lon":-65.6297493,"elevationM":null},{"id":"node:5651350369","kind":"peak","name":"Cerro La Soledad","lat":10.0366828,"lon":-65.6527091,"elevationM":null},{"id":"node:5651350370","kind":"peak","name":"Cerro Titiriji","lat":10.0287381,"lon":-65.6015969,"elevationM":null},{"id":"node:5651350371","kind":"peak","name":"Cerro El Burro","lat":10.0177081,"lon":-65.6002236,"elevationM":null},{"id":"node:5651350372","kind":"peak","name":"Cerro Zumbador","lat":10.0207932,"lon":-65.640564,"elevationM":null},{"id":"node:5651355270","kind":"peak","name":"Cerro Tomuso","lat":10.0847695,"lon":-65.855012,"elevationM":null},{"id":"node:5651356487","kind":"peak","name":"Cerro Turiepe","lat":10.0053676,"lon":-65.8580161,"elevationM":null},{"id":"node:5651356488","kind":"peak","name":"Topo El Torno","lat":10.0055367,"lon":-65.8953524,"elevationM":null},{"id":"node:5651356489","kind":"peak","name":"Cerro Urbanera","lat":10.0038884,"lon":-65.9108878,"elevationM":null},{"id":"node:5651356490","kind":"peak","name":"Cerro Pasmao","lat":10.0679104,"lon":-65.9445334,"elevationM":null},{"id":"node:5651356491","kind":"peak","name":"Cerro Cogollal","lat":10.0034236,"lon":-65.9793807,"elevationM":null},{"id":"node:5651356492","kind":"peak","name":"Cerro San Jerónimo","lat":10.0409086,"lon":-65.8789158,"elevationM":null},{"id":"node:5651356493","kind":"peak","name":"Cerro Agua Blanca","lat":10.0174968,"lon":-65.9022618,"elevationM":null},{"id":"node:5651356495","kind":"peak","name":"Cerro Grande","lat":10.0546422,"lon":-65.8744955,"elevationM":null},{"id":"node:5651356496","kind":"peak","name":"Cerro Capuringa","lat":10.0817695,"lon":-65.9005881,"elevationM":null},{"id":"node:5651356501","kind":"peak","name":"Pico Papelón","lat":10.0606425,"lon":-65.9568501,"elevationM":null},{"id":"node:5651356504","kind":"peak","name":"Cerro El Guamal","lat":10.1175978,"lon":-65.9418297,"elevationM":null},{"id":"node:5651356505","kind":"peak","name":"Cerro Aragua","lat":10.0937268,"lon":-65.9713984,"elevationM":null},{"id":"node:5651356506","kind":"peak","name":"Cerro Lagunón","lat":10.2083759,"lon":-65.8348847,"elevationM":null},{"id":"node:5651356507","kind":"peak","name":"Cerro Los Fonditos","lat":10.2147112,"lon":-65.9687806,"elevationM":null}]}