{"tileKey":"la_p62_lo_p140","version":"v1-1775891056926","entries":[{"id":"node:304511388","kind":"peak","name":"Мус-Хая","lat":62.6039623,"lon":140.940927,"elevationM":2959},{"id":"node:3092184917","kind":"peak","name":"Узловая","lat":62.7179898,"lon":140.6690755,"elevationM":2648},{"id":"node:5541003603","kind":"peak","name":"Палатка","lat":62.721995,"lon":140.630176,"elevationM":2797},{"id":"node:5541003609","kind":"peak","name":"Обзорная","lat":62.71336,"lon":140.652423,"elevationM":null},{"id":"node:5541003641","kind":"peak","name":"Белый Треугольник","lat":62.7036,"lon":140.790781,"elevationM":null}]}