{"tileKey":"la_p13_lo_p122","version":"v1-1775891056926","entries":[{"id":"node:332018907","kind":"peak","name":"Mount Agustin","lat":13.566667,"lon":122.983333,"elevationM":null},{"id":"node:332019259","kind":"peak","name":"Mount White Scar","lat":13.6180017,"lon":122.8731901,"elevationM":null},{"id":"node:332019535","kind":"peak","name":"Mount San Andres","lat":13.316667,"lon":122.65,"elevationM":329},{"id":"node:332019657","kind":"peak","name":"Mount Godiap","lat":13.4,"lon":122.55,"elevationM":247},{"id":"node:332019739","kind":"peak","name":"Dark Hill","lat":13.366667,"lon":122.083333,"elevationM":null},{"id":"node:332019780","kind":"peak","name":"Mount Maclayao","lat":13.5228094,"lon":122.4372621,"elevationM":384},{"id":"node:332019879","kind":"peak","name":"Mount Caguibang","lat":13.587275,"lon":122.8975967,"elevationM":null},{"id":"node:332020186","kind":"peak","name":"Mount Malindig","lat":13.241389,"lon":122.013611,"elevationM":1157},{"id":"node:332020251","kind":"peak","name":"Mount Pinaglapatan","lat":13.9,"lon":122.183333,"elevationM":null},{"id":"node:332020440","kind":"peak","name":"Mount Culasi","lat":13.75,"lon":122.916667,"elevationM":null},{"id":"node:332020859","kind":"peak","name":"Mount Bidlayo","lat":13.583333,"lon":122.95,"elevationM":null},{"id":"node:332021158","kind":"peak","name":"Mount Codiapi","lat":13.383333,"lon":122.566667,"elevationM":null},{"id":"node:332021221","kind":"peak","name":"Mount Tinalmud","lat":13.6260509,"lon":122.8638854,"elevationM":null},{"id":"node:332021252","kind":"peak","name":"Mount Tapian","lat":13.466667,"lon":122,"elevationM":null},{"id":"node:332021596","kind":"peak","name":"Mount Bernacci","lat":13.609824,"lon":122.9702751,"elevationM":756},{"id":"node:332021631","kind":"peak","name":"Mount Nadiudin","lat":13.9844107,"lon":122.8442584,"elevationM":null},{"id":"node:5840670294","kind":"peak","name":"Mount Ginamuan","lat":13.2685102,"lon":122.6338257,"elevationM":330},{"id":"node:5840670295","kind":"peak","name":"Mount Banaba","lat":13.2922093,"lon":122.6210891,"elevationM":380},{"id":"node:5840670333","kind":"peak","name":"Mount Morabe","lat":13.3525106,"lon":122.6430125,"elevationM":240},{"id":"node:5840670334","kind":"peak","name":"Mount Matsimbahan","lat":13.3608145,"lon":122.6331852,"elevationM":256},{"id":"node:5840670343","kind":"peak","name":"Mount Amunbay","lat":13.3551232,"lon":122.5701226,"elevationM":342},{"id":"node:5840670344","kind":"peak","name":"Mount South Kodiapi","lat":13.3780704,"lon":122.5604188,"elevationM":390},{"id":"node:5840670345","kind":"peak","name":"Mount Kodiapi","lat":13.3905486,"lon":122.5605549,"elevationM":430},{"id":"node:5840670346","kind":"peak","name":"Mount North Kodiapi","lat":13.401228,"lon":122.5563241,"elevationM":420},{"id":"node:5840670347","kind":"peak","name":"Mount Balinsog","lat":13.397271,"lon":122.5996921,"elevationM":371},{"id":"node:5840670348","kind":"peak","name":"Mount Cambagaco","lat":13.479141,"lon":122.5987772,"elevationM":280},{"id":"node:5840670349","kind":"peak","name":"Mount Dagmit","lat":13.4521397,"lon":122.6139093,"elevationM":330},{"id":"node:8899627966","kind":"peak","name":"Manrisik-risik","lat":13.9797433,"lon":122.9602564,"elevationM":382}]}