{"tileKey":"la_p60_lo_p30","version":"v1-1775891056926","entries":[{"id":"node:1108164734","kind":"peak","name":"Парнас","lat":60.0757658,"lon":30.3017494,"elevationM":null},{"id":"node:1829957777","kind":"peak","name":"Святая гора","lat":60.8517879,"lon":30.5987111,"elevationM":34},{"id":"node:1935313142","kind":"peak","name":"гора Кивисюрья","lat":60.4889166,"lon":30.1982286,"elevationM":204},{"id":"node:2577398405","kind":"peak","name":"Громовая Горка","lat":60.6229101,"lon":30.0552188,"elevationM":null},{"id":"node:3937529374","kind":"peak","name":"Журавль","lat":60.5191978,"lon":30.1323884,"elevationM":160},{"id":"node:4261605796","kind":"peak","name":"104,8","lat":60.1384409,"lon":30.5762726,"elevationM":104},{"id":"node:4459694080","kind":"peak","name":"101,2","lat":60.1263338,"lon":30.5307629,"elevationM":101},{"id":"node:4459694082","kind":"peak","name":"82,5","lat":60.1266628,"lon":30.5205249,"elevationM":82},{"id":"node:4601147559","kind":"peak","name":"Змеиная гора","lat":60.8690899,"lon":30.6120593,"elevationM":29},{"id":"node:6407307964","kind":"peak","name":"г. Отрадная","lat":60.8262545,"lon":30.217388,"elevationM":63},{"id":"node:7440603196","kind":"peak","name":"Долгуша","lat":60.9499848,"lon":30.19485,"elevationM":44},{"id":"node:8807565069","kind":"peak","name":"гора Чащобная","lat":60.4902616,"lon":30.3200309,"elevationM":80},{"id":"node:8807565071","kind":"peak","name":"Гора Приозерная","lat":60.4707247,"lon":30.2942457,"elevationM":100},{"id":"node:8807565073","kind":"peak","name":"гора Ягодная","lat":60.4580286,"lon":30.3093446,"elevationM":84},{"id":"node:8807565075","kind":"peak","name":"гора Ястребок","lat":60.462524,"lon":30.3665176,"elevationM":100},{"id":"node:8807565079","kind":"peak","name":"Боровинка","lat":60.5750752,"lon":30.3861188,"elevationM":41},{"id":"node:8807565089","kind":"peak","name":"гора Лапинчевка","lat":60.5767849,"lon":30.3186083,"elevationM":71},{"id":"node:8807565108","kind":"peak","name":"гора Отрадная","lat":60.5403171,"lon":30.5456732,"elevationM":44},{"id":"node:8807565109","kind":"peak","name":"гора Денисовка","lat":60.528532,"lon":30.575835,"elevationM":50},{"id":"node:8807567558","kind":"peak","name":"гора Смуглянка","lat":60.5860012,"lon":30.1972772,"elevationM":62},{"id":"node:8911667412","kind":"peak","name":"Адольфова гора","lat":60.0822949,"lon":30.2901103,"elevationM":59},{"id":"node:9813430393","kind":"peak","name":"Холм Нуполанмяки","lat":60.5187993,"lon":30.4006314,"elevationM":99},{"id":"node:9847135989","kind":"peak","name":"гора Локоток","lat":60.4650741,"lon":30.3729455,"elevationM":null}]}