{"tileKey":"la_p40_lo_p114","version":"v1-1775891056926","entries":[{"id":"node:4043186507","kind":"peak","name":"东太平山","lat":40.8376099,"lon":114.9088141,"elevationM":1244},{"id":"node:4959477991","kind":"peak","name":"凤凰山","lat":40.7627778,"lon":114.8430085,"elevationM":801},{"id":"node:4959478206","kind":"peak","name":"台子山","lat":40.7717296,"lon":114.8374689,"elevationM":825},{"id":"node:4971457524","kind":"peak","name":"东山","lat":40.7936959,"lon":114.9119895,"elevationM":948},{"id":"node:4971457525","kind":"peak","name":"赐儿山","lat":40.8184426,"lon":114.844393,"elevationM":1005},{"id":"node:4971457526","kind":"peak","name":"香炉山","lat":40.8122572,"lon":114.8304688,"elevationM":null},{"id":"node:4971457527","kind":"peak","name":"八角台山","lat":40.7891821,"lon":114.8530321,"elevationM":1020},{"id":"node:5102501450","kind":"peak","name":"石头山","lat":40.2124022,"lon":114.8675666,"elevationM":1239},{"id":"node:5102510525","kind":"peak","name":"为从山","lat":40.4110577,"lon":114.977733,"elevationM":1311},{"id":"node:5102513059","kind":"peak","name":"小西尖子","lat":40.5362145,"lon":114.8104762,"elevationM":1489},{"id":"node:5102515583","kind":"peak","name":"石窑尖","lat":40.5732258,"lon":114.7263731,"elevationM":1568},{"id":"node:6605393912","kind":"peak","name":"斜石山","lat":40.8337799,"lon":114.3152433,"elevationM":1397},{"id":"node:6605393965","kind":"peak","name":"草垛山","lat":40.8427477,"lon":114.2721277,"elevationM":1236},{"id":"node:6609661559","kind":"peak","name":"凤凰山","lat":40.2115092,"lon":114.7357247,"elevationM":null},{"id":"node:6609661560","kind":"peak","name":"西大山","lat":40.2209248,"lon":114.7912244,"elevationM":1402},{"id":"node:6609661562","kind":"peak","name":"大团尖","lat":40.2604617,"lon":114.7881346,"elevationM":1344},{"id":"node:6609661564","kind":"peak","name":"兔山尖","lat":40.31267,"lon":114.9595459,"elevationM":1209},{"id":"node:6609661566","kind":"peak","name":"歪头山","lat":40.3395862,"lon":114.8760812,"elevationM":1584},{"id":"node:6620619493","kind":"peak","name":"馒头山","lat":40.6088122,"lon":114.6772907,"elevationM":null},{"id":"node:7704718035","kind":"peak","name":"天台山","lat":40.2551007,"lon":114.4402243,"elevationM":null},{"id":"node:8477875378","kind":"peak","name":"狼窝沟山","lat":40.581041,"lon":114.0449417,"elevationM":null},{"id":"node:9662553366","kind":"peak","name":"骆驼山","lat":40.5416252,"lon":114.4681027,"elevationM":null},{"id":"node:9662553367","kind":"peak","name":"红山","lat":40.5405846,"lon":114.4042856,"elevationM":null},{"id":"node:9671600511","kind":"peak","name":"韭菜山","lat":40.3571049,"lon":114.5569013,"elevationM":null},{"id":"node:9671600512","kind":"peak","name":"灵官庙山","lat":40.3565861,"lon":114.5056221,"elevationM":null},{"id":"node:9671600513","kind":"peak","name":"大地梁山","lat":40.4030129,"lon":114.4567029,"elevationM":null},{"id":"node:9671600514","kind":"peak","name":"八龙庙山","lat":40.3954635,"lon":114.4376614,"elevationM":null},{"id":"node:9671600515","kind":"peak","name":"狐神庙山","lat":40.3887834,"lon":114.4095488,"elevationM":null},{"id":"node:9671600516","kind":"peak","name":"凤凰山","lat":40.3832411,"lon":114.3652439,"elevationM":null},{"id":"node:9671604217","kind":"peak","name":"虎卧山","lat":40.3668822,"lon":114.3327666,"elevationM":null},{"id":"node:9671604218","kind":"peak","name":"沙台子山","lat":40.3647538,"lon":114.6064195,"elevationM":null},{"id":"node:9671604219","kind":"peak","name":"神母山","lat":40.3949145,"lon":114.5947607,"elevationM":null},{"id":"node:9683085506","kind":"peak","name":"鱼儿山","lat":40.8288752,"lon":114.9347527,"elevationM":1175},{"id":"node:9683085507","kind":"peak","name":"人头山","lat":40.8209204,"lon":114.9965555,"elevationM":1612},{"id":"node:9684313880","kind":"peak","name":"老虎山","lat":40.7806472,"lon":114.976204,"elevationM":1192},{"id":"node:9684313881","kind":"peak","name":"轿顶山","lat":40.7754254,"lon":114.9631817,"elevationM":1162},{"id":"node:9684313882","kind":"peak","name":"西太平山","lat":40.8441672,"lon":114.8759762,"elevationM":1032},{"id":"node:9684313883","kind":"peak","name":"狼山","lat":40.8753151,"lon":114.7575804,"elevationM":1103},{"id":"node:9687320768","kind":"peak","name":"西坡山","lat":40.3916021,"lon":114.7128981,"elevationM":1513},{"id":"node:9687320769","kind":"peak","name":"大井山","lat":40.3608294,"lon":114.7314842,"elevationM":1658},{"id":"node:9687320770","kind":"peak","name":"广荒山","lat":40.3580071,"lon":114.7357887,"elevationM":1636},{"id":"node:9687320771","kind":"peak","name":"花报梁","lat":40.3489063,"lon":114.7611478,"elevationM":1397},{"id":"node:9687320772","kind":"peak","name":"八龙山","lat":40.3627971,"lon":114.7948385,"elevationM":1199},{"id":"node:9687334030","kind":"peak","name":"古垛山","lat":40.5681899,"lon":114.7824566,"elevationM":1487},{"id":"node:9687334031","kind":"peak","name":"掏宝山","lat":40.5416287,"lon":114.8563001,"elevationM":1309},{"id":"node:9687334033","kind":"peak","name":"白马山","lat":40.5331648,"lon":114.8734131,"elevationM":1210},{"id":"node:9687334034","kind":"peak","name":"王帽山","lat":40.5221473,"lon":114.8673584,"elevationM":1342},{"id":"node:9687334035","kind":"peak","name":"寨山梁","lat":40.5490107,"lon":114.8758984,"elevationM":1040},{"id":"node:9687334036","kind":"peak","name":"扁担山","lat":40.5135421,"lon":114.9006211,"elevationM":1322},{"id":"node:9687334037","kind":"peak","name":"大尖山","lat":40.5076072,"lon":114.9254487,"elevationM":1293},{"id":"node:9687334038","kind":"peak","name":"娘娘山","lat":40.5111298,"lon":114.9355414,"elevationM":1279},{"id":"node:9687334055","kind":"peak","name":"五虎山","lat":40.4783521,"lon":114.8754554,"elevationM":1107},{"id":"node:9687335227","kind":"peak","name":"李河山","lat":40.508852,"lon":114.821189,"elevationM":1397},{"id":"node:9687335228","kind":"peak","name":"百折山","lat":40.4946642,"lon":114.8099584,"elevationM":1527},{"id":"node:9687335229","kind":"peak","name":"鸡官山","lat":40.4716718,"lon":114.8232487,"elevationM":1208},{"id":"node:9687335230","kind":"peak","name":"夜蝙蝠山","lat":40.4679903,"lon":114.7903229,"elevationM":1465},{"id":"node:9687335231","kind":"peak","name":"龙洞山","lat":40.4950632,"lon":114.7574847,"elevationM":1751},{"id":"node:9687335232","kind":"peak","name":"烟洞山","lat":40.468048,"lon":114.7523461,"elevationM":1660},{"id":"node:9687335233","kind":"peak","name":"成刀背","lat":40.4513672,"lon":114.7678849,"elevationM":1574},{"id":"node:9687335234","kind":"peak","name":"老龙背","lat":40.4444239,"lon":114.7335998,"elevationM":1464},{"id":"node:9687335235","kind":"peak","name":"阴凉山","lat":40.4340664,"lon":114.7229055,"elevationM":1558},{"id":"node:9687335236","kind":"peak","name":"光葫芦","lat":40.430686,"lon":114.7911055,"elevationM":1537},{"id":"node:9687335237","kind":"peak","name":"台子山","lat":40.4265999,"lon":114.8087478,"elevationM":1410},{"id":"node:9687335238","kind":"peak","name":"平顶山","lat":40.4069495,"lon":114.7340337,"elevationM":1613},{"id":"node:9687335239","kind":"peak","name":"马鞍山","lat":40.4002089,"lon":114.7588824,"elevationM":1334},{"id":"node:9687335240","kind":"peak","name":"孤山","lat":40.3961096,"lon":114.7920819,"elevationM":1193},{"id":"node:9687390905","kind":"peak","name":"三道洼山","lat":40.2987352,"lon":114.7764791,"elevationM":1271},{"id":"node:9687400319","kind":"peak","name":"大罗山","lat":40.3448496,"lon":114.9176,"elevationM":1379},{"id":"node:9687400320","kind":"peak","name":"云盖山","lat":40.4582756,"lon":114.8771223,"elevationM":1212},{"id":"node:9687400321","kind":"peak","name":"良马台","lat":40.4281049,"lon":114.9013327,"elevationM":1419},{"id":"node:9687400322","kind":"peak","name":"台子疙瘩","lat":40.434595,"lon":114.8981893,"elevationM":1288},{"id":"node:9687400323","kind":"peak","name":"石羊山","lat":40.4670871,"lon":114.9491107,"elevationM":1120},{"id":"node:9687400324","kind":"peak","name":"雷公山","lat":40.458758,"lon":114.9894319,"elevationM":1146},{"id":"node:9687400325","kind":"peak","name":"胡家大山","lat":40.3843631,"lon":114.9733711,"elevationM":1331},{"id":"node:9691279590","kind":"peak","name":"火石山梁","lat":40.3102322,"lon":114.8576431,"elevationM":1266},{"id":"node:9691279592","kind":"peak","name":"红石头洼","lat":40.228817,"lon":114.8340733,"elevationM":1170},{"id":"node:9691279593","kind":"peak","name":"西黄花山","lat":40.1653984,"lon":114.8444161,"elevationM":1497},{"id":"node:9691279594","kind":"peak","name":"东黄花山","lat":40.1811658,"lon":114.8735228,"elevationM":1561},{"id":"node:9691279595","kind":"peak","name":"东黄花东北峰","lat":40.1857815,"lon":114.8847358,"elevationM":1630},{"id":"node:9691279605","kind":"peak","name":"五里山","lat":40.2426849,"lon":114.8813911,"elevationM":1399},{"id":"node:9691279606","kind":"peak","name":"马家山梁","lat":40.1675657,"lon":114.9377108,"elevationM":1651},{"id":"node:9691290920","kind":"peak","name":"武家山","lat":40.2604696,"lon":114.945883,"elevationM":1329},{"id":"node:9697074646","kind":"peak","name":"泰山","lat":40.2789774,"lon":114.9522067,"elevationM":1380},{"id":"node:9697074647","kind":"peak","name":"大疙尖","lat":40.1725099,"lon":114.9562971,"elevationM":1697},{"id":"node:9697074648","kind":"peak","name":"李连坡","lat":40.180513,"lon":114.9648048,"elevationM":1690},{"id":"node:9697074649","kind":"peak","name":"羊道山","lat":40.1550352,"lon":114.9672099,"elevationM":1684},{"id":"node:9697129603","kind":"peak","name":"黄花梁圪瘩","lat":40.1974029,"lon":114.9961336,"elevationM":1830},{"id":"node:9697129604","kind":"peak","name":"二狼山","lat":40.2402939,"lon":114.983023,"elevationM":1578},{"id":"node:9697129611","kind":"peak","name":"九天庙山","lat":40.1150902,"lon":114.987995,"elevationM":1468},{"id":"node:9697158414","kind":"peak","name":"寺山","lat":40.1147147,"lon":114.7676837,"elevationM":1405},{"id":"node:9697158415","kind":"peak","name":"帽山","lat":40.137157,"lon":114.8163552,"elevationM":1435},{"id":"node:9697158416","kind":"peak","name":"平安岭","lat":40.1410635,"lon":114.8843899,"elevationM":1376},{"id":"node:9697203917","kind":"peak","name":"黑山","lat":40.1445823,"lon":114.9052077,"elevationM":1505},{"id":"node:9697203918","kind":"peak","name":"二郎山","lat":40.883673,"lon":114.7398854,"elevationM":1097},{"id":"node:9697203919","kind":"peak","name":"马鞍山","lat":40.8727414,"lon":114.6154459,"elevationM":1250},{"id":"node:9708831309","kind":"peak","name":"北高山","lat":40.8162065,"lon":114.3655185,"elevationM":1550},{"id":"node:9708831310","kind":"peak","name":"大东沟山","lat":40.8425029,"lon":114.3993433,"elevationM":1269},{"id":"node:9708831311","kind":"peak","name":"红山台","lat":40.8603821,"lon":114.4001284,"elevationM":1286},{"id":"node:9708831312","kind":"peak","name":"南背沿","lat":40.8284812,"lon":114.4121238,"elevationM":1170},{"id":"node:9708831313","kind":"peak","name":"鱼儿山","lat":40.9294725,"lon":114.4248705,"elevationM":1713},{"id":"node:9708831314","kind":"peak","name":"白龙山","lat":40.9704138,"lon":114.4982882,"elevationM":1782},{"id":"node:9708881637","kind":"peak","name":"高山台","lat":40.9555933,"lon":114.5534192,"elevationM":1412},{"id":"node:9708881638","kind":"peak","name":"英五墩","lat":40.8874901,"lon":114.5718729,"elevationM":1296},{"id":"node:9708881639","kind":"peak","name":"大山坪","lat":40.9769055,"lon":114.5842036,"elevationM":1627},{"id":"node:9709025943","kind":"peak","name":"黑山","lat":40.9511031,"lon":114.6064266,"elevationM":1311},{"id":"node:9709025945","kind":"peak","name":"黑虎山","lat":40.9760952,"lon":114.6439572,"elevationM":1291},{"id":"node:9709025946","kind":"peak","name":"莫干山","lat":40.9784721,"lon":114.6503367,"elevationM":1245},{"id":"node:9709025947","kind":"peak","name":"山神庙","lat":40.9333051,"lon":114.6882852,"elevationM":1108},{"id":"node:9709025949","kind":"peak","name":"毛台台梁","lat":40.9281794,"lon":114.7140712,"elevationM":1144},{"id":"node:9709025950","kind":"peak","name":"平虎台","lat":40.9654507,"lon":114.7692282,"elevationM":1411},{"id":"node:9709025951","kind":"peak","name":"卧牛山","lat":40.9807079,"lon":114.7806327,"elevationM":1517},{"id":"node:9709025952","kind":"peak","name":"柜子山","lat":40.9748743,"lon":114.7836568,"elevationM":1519},{"id":"node:9709025953","kind":"peak","name":"黄花梁","lat":40.9894323,"lon":114.7886039,"elevationM":1667},{"id":"node:9709152109","kind":"peak","name":"大背山","lat":40.9984602,"lon":114.3593992,"elevationM":1901},{"id":"node:10578278537","kind":"peak","name":"黑山","lat":40.8276736,"lon":114.2741293,"elevationM":1177},{"id":"node:10578278538","kind":"peak","name":"大平顶山","lat":40.7810455,"lon":114.3486682,"elevationM":1189},{"id":"node:10578278539","kind":"peak","name":"楼儿凹山","lat":40.7298623,"lon":114.3203719,"elevationM":1370},{"id":"node:10578278540","kind":"peak","name":"莲花碑山","lat":40.7341161,"lon":114.2361161,"elevationM":1610},{"id":"node:10578297541","kind":"peak","name":"香炉山","lat":40.7503958,"lon":114.2672548,"elevationM":1739},{"id":"node:10578297542","kind":"peak","name":"大尖山","lat":40.7459199,"lon":114.2147548,"elevationM":1633},{"id":"node:10578297543","kind":"peak","name":"石豁子山","lat":40.7987266,"lon":114.1152366,"elevationM":1449},{"id":"node:10578297544","kind":"peak","name":"红沙眼","lat":40.8340423,"lon":114.1791111,"elevationM":1367},{"id":"node:10578297545","kind":"peak","name":"骆驼山","lat":40.8475606,"lon":114.3184687,"elevationM":1298},{"id":"node:10578297546","kind":"peak","name":"大红山","lat":40.8669177,"lon":114.3214404,"elevationM":1385},{"id":"node:10578297547","kind":"peak","name":"圆山","lat":40.8944362,"lon":114.0957022,"elevationM":1360},{"id":"node:10578297548","kind":"peak","name":"大火堆","lat":40.9945357,"lon":114.2992496,"elevationM":1791},{"id":"node:10578297606","kind":"peak","name":"脑包山","lat":40.9551051,"lon":114.1761228,"elevationM":1232},{"id":"node:10578297607","kind":"peak","name":"斧刃山","lat":40.9064709,"lon":114.0277198,"elevationM":1544},{"id":"node:10578347267","kind":"peak","name":"大山尖","lat":40.8542342,"lon":114.933724,"elevationM":1257},{"id":"node:10578347268","kind":"peak","name":"大桦岭","lat":40.8420946,"lon":114.9713725,"elevationM":1454},{"id":"node:10578410579","kind":"peak","name":"石人山","lat":40.8666524,"lon":114.9561518,"elevationM":1317},{"id":"node:10578410582","kind":"peak","name":"佛爷山","lat":40.9274197,"lon":114.9136588,"elevationM":1421},{"id":"node:10578410583","kind":"peak","name":"白庙沟梁","lat":40.9819873,"lon":114.9556259,"elevationM":1252}]}