{"tileKey":"la_p9_lo_p124","version":"v1-1775891056926","entries":[{"id":"node:319478126","kind":"volcano","name":"Mount Hibok-Hibok","lat":9.1994295,"lon":124.6759878,"elevationM":1290},{"id":"node:319588311","kind":"volcano","name":"Mount Campana","lat":9.2094453,"lon":124.7091487,"elevationM":650},{"id":"node:319588320","kind":"volcano","name":"Mount Carling","lat":9.2155285,"lon":124.6699131,"elevationM":795},{"id":"node:320129570","kind":"volcano","name":"Mount Mambajao","lat":9.163179,"lon":124.7198903,"elevationM":1568},{"id":"node:320129667","kind":"volcano","name":"Tres Marias","lat":9.1914382,"lon":124.6855968,"elevationM":740},{"id":"node:320129704","kind":"volcano","name":"Mount Vulcan","lat":9.2139093,"lon":124.6488205,"elevationM":550},{"id":"node:332018899","kind":"peak","name":"Mount Gorda","lat":9.606389,"lon":124.253056,"elevationM":null},{"id":"node:332018993","kind":"peak","name":"Mount Sagungan","lat":9.686389,"lon":124.338889,"elevationM":null},{"id":"node:332019016","kind":"peak","name":"Mount Pugatin","lat":9.786944,"lon":124.555278,"elevationM":null},{"id":"node:332019088","kind":"peak","name":"Mount Binaloo","lat":9.621667,"lon":124.072778,"elevationM":null},{"id":"node:332019528","kind":"peak","name":"Mount Guimba","lat":9.653611,"lon":124.013611,"elevationM":null},{"id":"node:332019706","kind":"peak","name":"Tayong Peak","lat":9.641667,"lon":124.087222,"elevationM":null},{"id":"node:332020158","kind":"peak","name":"Mount Alimono","lat":9.933333,"lon":124.033333,"elevationM":null},{"id":"node:332020443","kind":"peak","name":"Mount Ilag","lat":9.690833,"lon":124.066389,"elevationM":null},{"id":"node:332020456","kind":"peak","name":"Malibalibod Mountain","lat":9.9691486,"lon":124.4808018,"elevationM":null},{"id":"node:332020545","kind":"peak","name":"Sagungan Mountain","lat":9.756667,"lon":124.395833,"elevationM":null},{"id":"node:332020782","kind":"volcano","name":"Mount Guinsiliban","lat":9.093471,"lon":124.7676764,"elevationM":570},{"id":"node:332020980","kind":"peak","name":"Mount Pinoonan","lat":9.9,"lon":124.183333,"elevationM":null},{"id":"node:332021094","kind":"peak","name":"Mount Amicay","lat":9.766667,"lon":124.266667,"elevationM":null},{"id":"node:332021109","kind":"peak","name":"Aipes Hill","lat":9.815833,"lon":124.173056,"elevationM":null},{"id":"node:332021306","kind":"peak","name":"Mount Batuanan","lat":9.869444,"lon":124.416944,"elevationM":null},{"id":"node:332021444","kind":"peak","name":"Mount Cogton","lat":9.9522539,"lon":124.4842577,"elevationM":410},{"id":"node:1758054009","kind":"peak","name":"Mount Palingkod","lat":9.6762279,"lon":124.3665123,"elevationM":270},{"id":"node:1758054301","kind":"peak","name":"Himontagon Hills","lat":9.61254,"lon":124.047798,"elevationM":null},{"id":"node:2282151625","kind":"peak","name":"Mount Timpoong","lat":9.1782427,"lon":124.7275221,"elevationM":1630},{"id":"node:6129844989","kind":"volcano","name":"Mount Sipaka","lat":9.0133655,"lon":124.8749152,"elevationM":220},{"id":"node:6307777623","kind":"peak","name":"Labawan Peak","lat":9.9416309,"lon":124.4681877,"elevationM":371},{"id":"node:7183851616","kind":"peak","name":"Mount Matunog","lat":9.7289248,"lon":124.3372358,"elevationM":850},{"id":"node:8654332282","kind":"volcano","name":"Mount Butay","lat":9.1216099,"lon":124.7643471,"elevationM":670},{"id":"node:8654332283","kind":"peak","name":"Minokol Hill","lat":9.1513542,"lon":124.7443807,"elevationM":782},{"id":"node:11898133101","kind":"peak","name":"Buyog Peak","lat":9.6459784,"lon":124.3234998,"elevationM":null}]}