{"tileKey":"la_p60_lo_p142","version":"v1-1775891056926","entries":[{"id":"node:2807472633","kind":"peak","name":"гора Гадакчан","lat":60.886486,"lon":142.6040217,"elevationM":1784},{"id":"node:3717301319","kind":"peak","name":"Белая гора","lat":60.1692982,"lon":142.550002,"elevationM":null},{"id":"node:3717309239","kind":"peak","name":"гора Курдат","lat":60.4831326,"lon":142.1898106,"elevationM":null},{"id":"node:3717309241","kind":"peak","name":"гора Кыстык","lat":60.5045434,"lon":142.3471661,"elevationM":null},{"id":"node:3717309249","kind":"peak","name":"гора Тулаях","lat":60.3484372,"lon":142.7923729,"elevationM":null},{"id":"node:3717369866","kind":"peak","name":"Академическая гора","lat":60.7496829,"lon":142.4619769,"elevationM":null},{"id":"node:3717369872","kind":"peak","name":"Крутая гора","lat":60.8396867,"lon":142.0815945,"elevationM":null},{"id":"node:3717369878","kind":"peak","name":"Овражная гора","lat":60.708667,"lon":142.3256626,"elevationM":null},{"id":"node:3717369879","kind":"peak","name":"Озёрная гора","lat":60.9717115,"lon":142.2087959,"elevationM":null},{"id":"node:3717369884","kind":"peak","name":"Сланцевая гора","lat":60.9101868,"lon":142.1504734,"elevationM":null},{"id":"node:3717369888","kind":"peak","name":"Хизинджа","lat":60.7824553,"lon":142.1302123,"elevationM":null},{"id":"node:3717369894","kind":"peak","name":"гора Бадули","lat":60.9389582,"lon":142.6675655,"elevationM":null},{"id":"node:3717369900","kind":"peak","name":"гора Гырбы","lat":60.7113355,"lon":142.1316492,"elevationM":null},{"id":"node:3717369902","kind":"peak","name":"гора Дюшинджа","lat":60.7364759,"lon":142.6263866,"elevationM":null},{"id":"node:3717369905","kind":"peak","name":"гора Калтамнин","lat":60.7065535,"lon":142.9350795,"elevationM":null},{"id":"node:3717369910","kind":"peak","name":"гора Маймачан","lat":60.8861051,"lon":142.7968464,"elevationM":null},{"id":"node:3717369915","kind":"peak","name":"гора Мукдокель","lat":60.9121316,"lon":142.9821516,"elevationM":null},{"id":"node:3717369919","kind":"peak","name":"гора Нетер","lat":60.8710215,"lon":142.3098899,"elevationM":null},{"id":"node:3717369920","kind":"peak","name":"гора Нилгысы","lat":60.7845613,"lon":142.2982409,"elevationM":null},{"id":"node:3717369921","kind":"peak","name":"гора Норд","lat":60.8362074,"lon":142.2108748,"elevationM":null}]}