{"tileKey":"la_p44_lo_m68","version":"v1-1775891056926","entries":[{"id":"node:358210934","kind":"peak","name":"Mount Aetna","lat":44.6344687,"lon":-67.3753918,"elevationM":43},{"id":"node:358211019","kind":"peak","name":"Andy Mountain","lat":44.8282976,"lon":-67.5495858,"elevationM":69},{"id":"node:358211167","kind":"peak","name":"Bald Head","lat":44.8668151,"lon":-67.8183959,"elevationM":79},{"id":"node:358211249","kind":"peak","name":"Baldwin Head","lat":44.4864675,"lon":-67.8538887,"elevationM":12},{"id":"node:358211435","kind":"peak","name":"Batch Head","lat":44.7595245,"lon":-67.0672052,"elevationM":39},{"id":"node:358211656","kind":"peak","name":"Beech Hill","lat":44.7978521,"lon":-67.9000043,"elevationM":165},{"id":"node:358211693","kind":"peak","name":"Bells Mountain","lat":44.8228564,"lon":-67.1644297,"elevationM":63},{"id":"node:358211707","kind":"peak","name":"Ben Tucker Mountain","lat":44.7754474,"lon":-67.8377934,"elevationM":98},{"id":"node:358211782","kind":"peak","name":"Big Allan Mountain","lat":44.9564042,"lon":-67.3354665,"elevationM":133},{"id":"node:358211826","kind":"peak","name":"Big Hill","lat":44.964522,"lon":-67.2124869,"elevationM":61},{"id":"node:358211921","kind":"peak","name":"Birch Hill","lat":44.9026349,"lon":-67.2634441,"elevationM":62},{"id":"node:358212061","kind":"peak","name":"Black Head","lat":44.4956352,"lon":-67.5105458,"elevationM":3},{"id":"node:358212063","kind":"peak","name":"Black Head","lat":44.6045229,"lon":-67.4649905,"elevationM":32},{"id":"node:358212308","kind":"peak","name":"Boot Head","lat":44.7703584,"lon":-67.0222039,"elevationM":46},{"id":"node:358212417","kind":"peak","name":"Breakneck Hill","lat":44.928237,"lon":-67.7847614,"elevationM":196},{"id":"node:358212610","kind":"peak","name":"Bucks Mountain","lat":44.6550783,"lon":-67.381378,"elevationM":71},{"id":"node:358212696","kind":"peak","name":"Burke Hill","lat":44.5989659,"lon":-67.9741713,"elevationM":120},{"id":"node:358213016","kind":"peak","name":"Carr Hill","lat":44.6475771,"lon":-67.6452732,"elevationM":67},{"id":"node:358213298","kind":"peak","name":"Channel Rock","lat":44.5011903,"lon":-67.5627696,"elevationM":0},{"id":"node:358213527","kind":"peak","name":"Cobble Hill","lat":44.8700792,"lon":-67.0772045,"elevationM":45},{"id":"node:358213554","kind":"peak","name":"Cocoa Mountain","lat":44.7361901,"lon":-67.1660964,"elevationM":61},{"id":"node:358213574","kind":"peak","name":"Coggins Head","lat":44.9286894,"lon":-67.1394285,"elevationM":43},{"id":"node:358213663","kind":"peak","name":"Compass Rock","lat":44.7189679,"lon":-67.1844298,"elevationM":52},{"id":"node:358213688","kind":"peak","name":"Conner Hill","lat":44.8786591,"lon":-67.3772247,"elevationM":80},{"id":"node:358213717","kind":"peak","name":"Cooper Hill","lat":44.9867432,"lon":-67.4663817,"elevationM":217},{"id":"node:358213763","kind":"peak","name":"Cottontail Hill","lat":44.7200766,"lon":-67.5724944,"elevationM":62},{"id":"node:358213831","kind":"peak","name":"Cranberry Mountain","lat":44.9603694,"lon":-67.9485487,"elevationM":187},{"id":"node:358213844","kind":"peak","name":"Crane Mountain","lat":44.8284117,"lon":-67.17693,"elevationM":82},{"id":"node:358214021","kind":"peak","name":"Cunningham Mountain","lat":44.8434569,"lon":-67.1585028,"elevationM":41},{"id":"node:358214156","kind":"peak","name":"Days Head","lat":44.7064666,"lon":-67.3977679,"elevationM":18},{"id":"node:358214409","kind":"peak","name":"Mount Dorcas","lat":44.902957,"lon":-67.1922369,"elevationM":55},{"id":"node:358219294","kind":"peak","name":"Eagle Hill","lat":44.4586903,"lon":-67.9333351,"elevationM":69},{"id":"node:358219388","kind":"peak","name":"Eastern Head","lat":44.7428579,"lon":-67.0816499,"elevationM":50},{"id":"node:358219391","kind":"peak","name":"Eastern Knubble","lat":44.6581542,"lon":-67.1967818,"elevationM":46},{"id":"node:358219398","kind":"peak","name":"Eastman Hill","lat":44.9456332,"lon":-67.2188759,"elevationM":65},{"id":"node:358219452","kind":"peak","name":"Ellis Hill","lat":44.8331358,"lon":-67.0108139,"elevationM":43},{"id":"node:358219485","kind":"peak","name":"Enoch Hill","lat":44.7125369,"lon":-67.3368321,"elevationM":65},{"id":"node:358219497","kind":"peak","name":"Estey Mountain","lat":44.7799055,"lon":-67.2199595,"elevationM":82},{"id":"node:358219954","kind":"peak","name":"Gay Hill","lat":44.5928557,"lon":-67.604994,"elevationM":61},{"id":"node:358219991","kind":"peak","name":"Gilman Hill","lat":44.6395217,"lon":-67.6191614,"elevationM":56},{"id":"node:358220388","kind":"peak","name":"Hall Hill","lat":44.5856334,"lon":-67.6533285,"elevationM":50},{"id":"node:358220396","kind":"peak","name":"Halls Ridge","lat":44.6678553,"lon":-67.5208259,"elevationM":74},{"id":"node:358220437","kind":"peak","name":"Hardwood Hill","lat":44.5586889,"lon":-67.7061075,"elevationM":41},{"id":"node:358220459","kind":"peak","name":"Harmon Mountain","lat":44.8356317,"lon":-67.5694393,"elevationM":99},{"id":"node:358220589","kind":"peak","name":"Hemlock Hill","lat":44.7339653,"lon":-67.5811059,"elevationM":62},{"id":"node:358220643","kind":"peak","name":"High Head","lat":44.7762064,"lon":-67.3711941,"elevationM":54},{"id":"node:358220646","kind":"peak","name":"High Hill","lat":44.6620219,"lon":-67.539993,"elevationM":58},{"id":"node:358220719","kind":"peak","name":"Hobart Meadow Mountain","lat":44.8723,"lon":-67.2244316,"elevationM":52},{"id":"node:358220797","kind":"peak","name":"Horan Head","lat":44.8636905,"lon":-67.0613706,"elevationM":39},{"id":"node:358220850","kind":"peak","name":"Howard Mountain","lat":44.629523,"lon":-67.3949892,"elevationM":75},{"id":"node:358220897","kind":"peak","name":"Huntley Mountain","lat":44.7102822,"lon":-67.3769423,"elevationM":68},{"id":"node:358220938","kind":"peak","name":"Ikes Hill","lat":44.5953557,"lon":-67.6122164,"elevationM":61},{"id":"node:358220940","kind":"peak","name":"Indian Head","lat":44.6620227,"lon":-67.3758224,"elevationM":52},{"id":"node:358220998","kind":"peak","name":"Ironworks Mountain","lat":44.9902227,"lon":-67.1732732,"elevationM":54},{"id":"node:358221079","kind":"peak","name":"Jims Head","lat":44.7620248,"lon":-67.0497047,"elevationM":38},{"id":"node:358221113","kind":"peak","name":"Johnson Mountain","lat":44.6075786,"lon":-67.4527679,"elevationM":39},{"id":"node:358221170","kind":"peak","name":"Keniston Mountain","lat":44.7807985,"lon":-67.1911955,"elevationM":67},{"id":"node:358221192","kind":"peak","name":"Kilton Mountain","lat":44.6514664,"lon":-67.55916,"elevationM":55},{"id":"node:358221209","kind":"peak","name":"King David Hill","lat":44.9053554,"lon":-67.2366543,"elevationM":55},{"id":"node:358221252","kind":"peak","name":"Knox Hill","lat":44.8411983,"lon":-67.9884903,"elevationM":187},{"id":"node:358221366","kind":"peak","name":"Leighton Ledges","lat":44.9678552,"lon":-67.23471,"elevationM":35},{"id":"node:358221395","kind":"peak","name":"Libby Head","lat":44.7125775,"lon":-67.422213,"elevationM":28},{"id":"node:358221456","kind":"peak","name":"Little Allan Mountain","lat":44.9529487,"lon":-67.3187665,"elevationM":117},{"id":"node:358221621","kind":"peak","name":"Littles Mountain","lat":44.8528563,"lon":-67.1597073,"elevationM":58},{"id":"node:358221705","kind":"peak","name":"Look Head","lat":44.6259112,"lon":-67.5491594,"elevationM":44},{"id":"node:358221711","kind":"peak","name":"Lookout Mountain","lat":44.5117449,"lon":-67.8736118,"elevationM":33},{"id":"node:358221758","kind":"peak","name":"Lower Buck Mountain","lat":44.8407971,"lon":-67.7940837,"elevationM":124},{"id":"node:358221960","kind":"peak","name":"Meadow Mountain","lat":44.955911,"lon":-67.1941527,"elevationM":30},{"id":"node:358222000","kind":"peak","name":"Meserve Head","lat":44.7142441,"lon":-67.43638,"elevationM":40},{"id":"node:358222057","kind":"peak","name":"Miller Mountain","lat":44.6539672,"lon":-67.3894338,"elevationM":76},{"id":"node:358222068","kind":"peak","name":"Milton Mountain","lat":44.7222982,"lon":-67.6683301,"elevationM":136},{"id":"node:358222090","kind":"peak","name":"Mount Misery","lat":44.6328555,"lon":-67.570549,"elevationM":52},{"id":"node:358222278","kind":"peak","name":"Mountain Head","lat":44.6475785,"lon":-67.369711,"elevationM":63},{"id":"node:358222325","kind":"peak","name":"Narrows Mountain","lat":44.6484115,"lon":-67.4372126,"elevationM":60},{"id":"node:358222381","kind":"peak","name":"Number Nine Hill","lat":44.8039684,"lon":-67.0955389,"elevationM":74},{"id":"node:358222449","kind":"peak","name":"Northeast Hill","lat":44.8664621,"lon":-67.9594509,"elevationM":161},{"id":"node:358222528","kind":"peak","name":"Oak Hill","lat":44.7289648,"lon":-67.6797193,"elevationM":105},{"id":"node:358222529","kind":"peak","name":"Oak Hill","lat":44.940911,"lon":-67.2013752,"elevationM":72},{"id":"node:358222685","kind":"peak","name":"Page Hill","lat":44.9178555,"lon":-67.2163758,"elevationM":66},{"id":"node:358222750","kind":"peak","name":"Patten Hill","lat":44.7403534,"lon":-67.7083312,"elevationM":143},{"id":"node:358222774","kind":"peak","name":"Peaked Mountain","lat":44.7592421,"lon":-67.7058312,"elevationM":168},{"id":"node:358222777","kind":"peak","name":"Peaked Mountain","lat":44.8881043,"lon":-67.9099494,"elevationM":242},{"id":"node:358222914","kind":"peak","name":"Pigeon Hill","lat":44.455357,"lon":-67.8894449,"elevationM":94},{"id":"node:358222915","kind":"peak","name":"Pigeon Hill","lat":44.9514676,"lon":-67.0597031,"elevationM":55},{"id":"node:358223115","kind":"peak","name":"Porcupine Hill","lat":44.6000773,"lon":-67.713608,"elevationM":54},{"id":"node:358223116","kind":"peak","name":"Benny's Mountain","lat":44.7900804,"lon":-67.0266482,"elevationM":63},{"id":"node:358223120","kind":"peak","name":"Porcupine Mountain","lat":44.8145247,"lon":-67.0185921,"elevationM":74},{"id":"node:358223122","kind":"peak","name":"Porcupine Mountain","lat":44.8920207,"lon":-67.2991149,"elevationM":71},{"id":"node:358223129","kind":"peak","name":"Porcupine Mountain","lat":44.9642474,"lon":-67.1213444,"elevationM":99},{"id":"node:358223130","kind":"peak","name":"Porcupine Pinnacle","lat":44.9357011,"lon":-67.8323848,"elevationM":105},{"id":"node:358223141","kind":"peak","name":"Pot Head","lat":44.705911,"lon":-67.3883233,"elevationM":36},{"id":"node:358223226","kind":"peak","name":"Pughole Mountain","lat":44.8067394,"lon":-67.1978071,"elevationM":118},{"id":"node:358223240","kind":"peak","name":"Pumpkin Ridge","lat":44.7272992,"lon":-67.4958259,"elevationM":104},{"id":"node:358223349","kind":"peak","name":"Red Head","lat":44.4514689,"lon":-67.5808251,"elevationM":14},{"id":"node:358223363","kind":"peak","name":"Redoubt Hill","lat":44.9198015,"lon":-67.010257,"elevationM":57},{"id":"node:358223365","kind":"peak","name":"Redoubt Hill","lat":44.9325792,"lon":-67.0155349,"elevationM":57},{"id":"node:358223576","kind":"peak","name":"Round Lake Hills","lat":44.9025762,"lon":-67.5330497,"elevationM":135},{"id":"node:358223886","kind":"peak","name":"Seashore Mountain","lat":44.6261898,"lon":-67.3772109,"elevationM":45},{"id":"node:358224015","kind":"peak","name":"Shackford Head","lat":44.9003573,"lon":-67.0163686,"elevationM":47},{"id":"node:358224457","kind":"peak","name":"The Crows Nest","lat":44.7814694,"lon":-67.0227593,"elevationM":65},{"id":"node:358224757","kind":"peak","name":"Stone Hill","lat":44.7137458,"lon":-67.1429236,"elevationM":67},{"id":"node:358224836","kind":"peak","name":"Sugar Hill","lat":44.7181314,"lon":-67.7177756,"elevationM":124},{"id":"node:358224856","kind":"peak","name":"Sumac Hill","lat":44.7957746,"lon":-67.5734994,"elevationM":79},{"id":"node:358224971","kind":"peak","name":"Thayer Ledges","lat":44.8195245,"lon":-67.0305368,"elevationM":36},{"id":"node:358225010","kind":"peak","name":"The Highlands","lat":44.6025772,"lon":-67.7227749,"elevationM":70},{"id":"node:358225038","kind":"peak","name":"The Porcupine","lat":44.7586907,"lon":-67.1080395,"elevationM":78},{"id":"node:358225249","kind":"peak","name":"Tug Mountain","lat":44.8954792,"lon":-67.8477493,"elevationM":186},{"id":"node:358225251","kind":"peak","name":"Tumbledown Dick Head","lat":44.5461888,"lon":-67.7516641,"elevationM":56},{"id":"node:358225268","kind":"peak","name":"Turner Hill","lat":44.5028562,"lon":-67.8625003,"elevationM":49},{"id":"node:358225357","kind":"peak","name":"Upper Buck Mountain","lat":44.8470464,"lon":-67.8050779,"elevationM":116},{"id":"node:358225875","kind":"peak","name":"Woodruff Mountain","lat":44.7130746,"lon":-67.3624858,"elevationM":93},{"id":"node:358225922","kind":"peak","name":"Yellowbirch Mountain","lat":44.7753565,"lon":-67.1733189,"elevationM":98},{"id":"node:358225925","kind":"peak","name":"Yoho Head","lat":44.6281341,"lon":-67.4230453,"elevationM":26},{"id":"node:358226984","kind":"peak","name":"Pettegrove Mountain","lat":44.6311897,"lon":-67.3716553,"elevationM":48},{"id":"node:358228944","kind":"peak","name":"Christmas Tree Mountain","lat":44.7984127,"lon":-67.1069281,"elevationM":65},{"id":"node:358229924","kind":"peak","name":"Campbell Meadow Hill","lat":44.6756315,"lon":-67.9194484,"elevationM":68},{"id":"node:358229953","kind":"peak","name":"Day Hill","lat":44.9667415,"lon":-67.6527749,"elevationM":166},{"id":"node:358229984","kind":"peak","name":"Heath Hill","lat":44.6828537,"lon":-67.8069448,"elevationM":80},{"id":"node:358229999","kind":"peak","name":"Lookout Hill","lat":44.7089642,"lon":-67.9955624,"elevationM":42},{"id":"node:358230024","kind":"peak","name":"Parker Hill","lat":44.6506319,"lon":-67.9286151,"elevationM":71},{"id":"node:358230026","kind":"peak","name":"Peaked Hill","lat":44.6409097,"lon":-67.8922249,"elevationM":96},{"id":"node:358230031","kind":"peak","name":"Pigeon Hill","lat":44.689798,"lon":-67.8433349,"elevationM":75},{"id":"node:358230036","kind":"peak","name":"Poplar Hill","lat":44.6986866,"lon":-67.984173,"elevationM":80},{"id":"node:358230053","kind":"peak","name":"Saco Hill","lat":44.692298,"lon":-67.7922222,"elevationM":82},{"id":"node:358230060","kind":"peak","name":"Sand Hill","lat":44.6684094,"lon":-67.8647243,"elevationM":79},{"id":"node:358230061","kind":"peak","name":"Schoodic Hill","lat":44.6895201,"lon":-67.9000035,"elevationM":109},{"id":"node:11015229305","kind":"peak","name":"St. Roque","lat":44.5865306,"lon":-67.5121021,"elevationM":61}]}