{"tileKey":"la_p38_lo_p1","version":"v1-1775891056926","entries":[{"id":"node:576410080","kind":"peak","name":"Talaia de Sant Llorenç","lat":38.9967873,"lon":1.4682933,"elevationM":278},{"id":"node:1065323004","kind":"peak","name":"Puig des Savinar","lat":38.8748337,"lon":1.2294134,"elevationM":241},{"id":"node:1075517770","kind":"peak","name":"Cap de sa Talaia","lat":38.9155982,"lon":1.2775366,"elevationM":476},{"id":"node:1242610744","kind":"peak","name":"Puig de ses Terretes","lat":38.9461091,"lon":1.5213144,"elevationM":222},{"id":"node:1242612161","kind":"peak","name":"Puig de ses Rotes","lat":38.9286889,"lon":1.2550453,"elevationM":218},{"id":"node:1242615247","kind":"peak","name":"Puig d'en Marc","lat":38.9263934,"lon":1.2690531,"elevationM":315},{"id":"node:1242616092","kind":"peak","name":"Puig d'en Palau","lat":38.9219004,"lon":1.4029833,"elevationM":263},{"id":"node:1242620947","kind":"peak","name":"Puig de s'Avenc","lat":38.9862092,"lon":1.4634841,"elevationM":159},{"id":"node:1242622016","kind":"peak","name":"Puig Negre","lat":38.8960318,"lon":1.2545199,"elevationM":361},{"id":"node:1242625373","kind":"peak","name":"Puig de Mar","lat":38.9309645,"lon":1.240331,"elevationM":136},{"id":"node:1242627468","kind":"peak","name":"Puig de sa Picossa","lat":38.9150142,"lon":1.2569919,"elevationM":354},{"id":"node:1242628350","kind":"peak","name":"Puig d'en Roig","lat":38.9946576,"lon":1.4484425,"elevationM":184},{"id":"node:1242630225","kind":"peak","name":"Puig d'en Savinar","lat":38.9454729,"lon":1.3635371,"elevationM":297},{"id":"node:1242630855","kind":"peak","name":"Puig d'en Cantó","lat":38.9730204,"lon":1.4517649,"elevationM":143},{"id":"node:1242632138","kind":"peak","name":"Puig d'en Coll","lat":38.9930521,"lon":1.4726909,"elevationM":242},{"id":"node:1242635420","kind":"peak","name":"Puig des Fornàs","lat":38.93518,"lon":1.3585379,"elevationM":269},{"id":"node:1242636529","kind":"peak","name":"Puig d'en Xumeu","lat":38.9727656,"lon":1.5000317,"elevationM":131},{"id":"node:1242636566","kind":"peak","name":"Puig des Pi Alt","lat":38.9960267,"lon":1.4577483,"elevationM":258},{"id":"node:1242637044","kind":"peak","name":"Puig des Fogueró","lat":38.9443998,"lon":1.3470534,"elevationM":256},{"id":"node:1242638456","kind":"peak","name":"Puig de sa Revista","lat":38.8517507,"lon":1.3971617,"elevationM":97},{"id":"node:1242638688","kind":"peak","name":"Pujol des Rotons","lat":38.9117989,"lon":1.2563839,"elevationM":324},{"id":"node:1242638810","kind":"peak","name":"Puig d'en Riera","lat":38.9873544,"lon":1.4501092,"elevationM":129},{"id":"node:1242639071","kind":"peak","name":"Puig des Bessons","lat":38.9760058,"lon":1.3457989,"elevationM":63},{"id":"node:1245625579","kind":"peak","name":"Puig de Missa","lat":38.9840739,"lon":1.5293184,"elevationM":55},{"id":"node:1245706384","kind":"peak","name":"Picatxo des Migjorn","lat":38.8664897,"lon":1.2002449,"elevationM":382},{"id":"node:1245712358","kind":"peak","name":"Illa des Bosc","lat":38.9689103,"lon":1.2168263,"elevationM":69},{"id":"node:1249786706","kind":"peak","name":"Talaia de Sant Josep","lat":38.9132054,"lon":1.2758074,"elevationM":463},{"id":"node:1249786742","kind":"peak","name":"Roca Grossa","lat":38.9110016,"lon":1.2736234,"elevationM":486},{"id":"node:1249786750","kind":"peak","name":"Puig des Forn d'en Palau","lat":38.9036443,"lon":1.2299704,"elevationM":167},{"id":"node:1249786753","kind":"peak","name":"Puig d'en Pep","lat":38.9665432,"lon":1.5225738,"elevationM":243},{"id":"node:1249786763","kind":"peak","name":"Puig d'en Racó","lat":38.9728993,"lon":1.4876741,"elevationM":155},{"id":"node:1249786767","kind":"peak","name":"Puig d'Enmig","lat":38.90745,"lon":1.2765694,"elevationM":374},{"id":"node:1249786773","kind":"peak","name":"Puig de Cas Puig","lat":38.910777,"lon":1.2930029,"elevationM":null},{"id":"node:1249786776","kind":"peak","name":"Puig de sa Vinya","lat":38.9552687,"lon":1.5117525,"elevationM":82},{"id":"node:1249786800","kind":"peak","name":"Puig d'en Purredó","lat":38.9612582,"lon":1.5122619,"elevationM":175},{"id":"node:1249786866","kind":"peak","name":"Puig d'en Botja","lat":38.910779,"lon":1.3082729,"elevationM":null},{"id":"node:1249786870","kind":"peak","name":"Puig des Moltons","lat":38.9437254,"lon":1.5049145,"elevationM":165},{"id":"node:1249786876","kind":"peak","name":"Puig Marina","lat":38.9575042,"lon":1.523177,"elevationM":205},{"id":"node:1249786880","kind":"peak","name":"Puig Redó","lat":38.8899065,"lon":1.3048597,"elevationM":159},{"id":"node:1249786889","kind":"peak","name":"Puig Negre","lat":38.9336473,"lon":1.5046573,"elevationM":51},{"id":"node:1896463372","kind":"peak","name":"Sa Talaia","lat":38.9901446,"lon":1.302965,"elevationM":136},{"id":"node:2512500324","kind":"peak","name":"Corb Mari","lat":38.8611363,"lon":1.3963065,"elevationM":160},{"id":"node:3240665401","kind":"peak","name":"Serra des Puig","lat":38.9418224,"lon":1.4890956,"elevationM":165},{"id":"node:11333617598","kind":"peak","name":"Illa de Santa Eulària","lat":38.9850329,"lon":1.5839655,"elevationM":29},{"id":"node:11594569834","kind":"peak","name":"Puig de sa Talaia","lat":38.9224269,"lon":1.4721873,"elevationM":174},{"id":"node:11594922995","kind":"peak","name":"Puig Manyà","lat":38.9187075,"lon":1.4715256,"elevationM":86},{"id":"node:11595217488","kind":"peak","name":"Puig d'en Cardona","lat":38.9047137,"lon":1.3442302,"elevationM":291},{"id":"node:11595217489","kind":"peak","name":"Puig Lluquí","lat":38.9096342,"lon":1.3437865,"elevationM":244},{"id":"node:11595217499","kind":"peak","name":"Puig de Can Parreta","lat":38.9105387,"lon":1.3762139,"elevationM":171},{"id":"node:11595217502","kind":"peak","name":"Puig d'en Nadal","lat":38.8931091,"lon":1.3261385,"elevationM":247},{"id":"node:11595217503","kind":"peak","name":"Puig des Coll des Jondal","lat":38.8893073,"lon":1.3261856,"elevationM":196},{"id":"node:11595217507","kind":"peak","name":"Puig d'en Fumeral","lat":38.8874359,"lon":1.3441117,"elevationM":214},{"id":"node:11595217508","kind":"peak","name":"Puig d'en Portmany","lat":38.8860725,"lon":1.3385772,"elevationM":212},{"id":"node:11595217512","kind":"peak","name":"Puig d'en Palleu","lat":38.8812018,"lon":1.3372561,"elevationM":241},{"id":"node:11595217515","kind":"peak","name":"Puig de Ca Toni Fita","lat":38.8738214,"lon":1.3361285,"elevationM":132},{"id":"node:11595217540","kind":"peak","name":"Puig des Collet","lat":38.9334328,"lon":1.3946233,"elevationM":261},{"id":"node:11595217541","kind":"peak","name":"Puig d'en Negre","lat":38.9284634,"lon":1.4029395,"elevationM":184},{"id":"node:11595217545","kind":"peak","name":"Puig des Cònsol","lat":38.9183315,"lon":1.4012485,"elevationM":261},{"id":"node:11595217548","kind":"peak","name":"Puig de Can Mariano","lat":38.9137724,"lon":1.3934738,"elevationM":211},{"id":"node:11595217549","kind":"peak","name":"Puig de Cas Damians","lat":38.9126053,"lon":1.3896367,"elevationM":255},{"id":"node:11595217553","kind":"peak","name":"Puig d'en Valls","lat":38.9253055,"lon":1.4363738,"elevationM":42},{"id":"node:11595217556","kind":"peak","name":"Puig d'en Celleràs","lat":38.9337276,"lon":1.4620131,"elevationM":187},{"id":"node:11595242769","kind":"peak","name":"Puig de sa Creu","lat":38.9494984,"lon":1.4751445,"elevationM":252},{"id":"node:11595242779","kind":"peak","name":"Puig d'en Picaferro","lat":38.9546434,"lon":1.4543747,"elevationM":148},{"id":"node:11595242784","kind":"peak","name":"Puig d'en Durban","lat":38.9691289,"lon":1.4751067,"elevationM":205},{"id":"node:11595242786","kind":"peak","name":"Puig d' en Tancas","lat":38.9708396,"lon":1.4816874,"elevationM":182},{"id":"node:11595242788","kind":"peak","name":"Puig d'en Mossenya","lat":38.9826767,"lon":1.4942575,"elevationM":92},{"id":"node:11595242791","kind":"peak","name":"Puig d'en Sala","lat":38.9786892,"lon":1.491476,"elevationM":142},{"id":"node:11595278961","kind":"peak","name":"Puig de Can Salines","lat":38.858534,"lon":1.3889201,"elevationM":83},{"id":"node:11595321210","kind":"peak","name":"Puig de n' Andreu","lat":38.9406289,"lon":1.5032449,"elevationM":145},{"id":"node:11595503031","kind":"peak","name":"Puig d'en Corda","lat":38.9065846,"lon":1.2795666,"elevationM":353},{"id":"node:11595503048","kind":"peak","name":"Pujol de sa Caseta","lat":38.8881247,"lon":1.2567433,"elevationM":433},{"id":"node:11595503061","kind":"peak","name":"Puig Llentrisa","lat":38.8671324,"lon":1.2491907,"elevationM":325},{"id":"node:11595514374","kind":"peak","name":"Puig Pelat","lat":38.9036115,"lon":1.2183768,"elevationM":185},{"id":"node:11595514389","kind":"peak","name":"Puig de s'Avenc","lat":38.9309742,"lon":1.2723428,"elevationM":338},{"id":"node:11595514391","kind":"peak","name":"Pujolet de s'Olivar","lat":38.928115,"lon":1.2790495,"elevationM":195},{"id":"node:11595514407","kind":"peak","name":"Puig des Frare","lat":38.9475796,"lon":1.2668943,"elevationM":215},{"id":"node:11595514410","kind":"peak","name":"Puig d'en Ramon","lat":38.9475223,"lon":1.2785597,"elevationM":124},{"id":"node:11595514433","kind":"peak","name":"Puig de sa Roca","lat":38.956701,"lon":1.2367206,"elevationM":92},{"id":"node:11595514437","kind":"peak","name":"Puig de s'Argila","lat":38.9624281,"lon":1.2354594,"elevationM":69},{"id":"node:11595514441","kind":"peak","name":"Puig d'en Lluc","lat":38.950238,"lon":1.2957194,"elevationM":155},{"id":"node:11595514442","kind":"peak","name":"Puig des Rafals","lat":38.9541496,"lon":1.2998889,"elevationM":101},{"id":"node:11595514445","kind":"peak","name":"Serra d'en Portmany","lat":38.9274773,"lon":1.2984354,"elevationM":243},{"id":"node:11595514452","kind":"peak","name":"Puig d'en Sunyer","lat":38.9206397,"lon":1.3200388,"elevationM":316},{"id":"node:11595514454","kind":"peak","name":"Puig de Cas Serres","lat":38.9117375,"lon":1.3261378,"elevationM":367},{"id":"node:11595514458","kind":"peak","name":"Puig Gros","lat":38.9198102,"lon":1.3392,"elevationM":419},{"id":"node:11595514463","kind":"peak","name":"Puig de Can Coll","lat":38.9291777,"lon":1.3322746,"elevationM":338},{"id":"node:11595514464","kind":"peak","name":"Puig de Ca na Xica","lat":38.9297252,"lon":1.3257105,"elevationM":245},{"id":"node:11595514489","kind":"peak","name":"Cap de sa Serra","lat":38.9495433,"lon":1.3710967,"elevationM":316},{"id":"node:11595514497","kind":"peak","name":"Puig de na Parentona","lat":38.9533099,"lon":1.3928777,"elevationM":269},{"id":"node:11595514498","kind":"peak","name":"Puig d'en Llorenc","lat":38.9630568,"lon":1.3587487,"elevationM":154},{"id":"node:11595514510","kind":"peak","name":"Pujol de Can Ferrer","lat":38.9542001,"lon":1.3493007,"elevationM":184},{"id":"node:11595514518","kind":"peak","name":"Puig d'en Racó","lat":38.9347689,"lon":1.3034923,"elevationM":275},{"id":"node:11595514520","kind":"peak","name":"Puig d'en Fuster","lat":38.9353847,"lon":1.297329,"elevationM":228},{"id":"node:11595514543","kind":"peak","name":"Puig des Castell","lat":38.9988496,"lon":1.3187835,"elevationM":208},{"id":"node:11595514548","kind":"peak","name":"Puig des Forn","lat":38.9957868,"lon":1.3393488,"elevationM":128},{"id":"node:11595781508","kind":"peak","name":"Puig d'en Llàtzer","lat":38.9561703,"lon":1.4836703,"elevationM":155},{"id":"node:11602912978","kind":"peak","name":"Puig d'en Coques","lat":38.9817537,"lon":1.4468335,"elevationM":142},{"id":"node:11613479271","kind":"peak","name":"Puig de sa Creu d'en Ribes","lat":38.9921696,"lon":1.5272516,"elevationM":175},{"id":"node:11619945023","kind":"peak","name":"Puig d'en Marc","lat":38.9162102,"lon":1.2993123,"elevationM":223},{"id":"node:11619945025","kind":"peak","name":"Puig d'en Pou","lat":38.9137614,"lon":1.2995111,"elevationM":255},{"id":"node:11841000272","kind":"peak","name":"Puig des Pantano","lat":38.8478424,"lon":1.385479,"elevationM":93},{"id":"node:11841000273","kind":"peak","name":"Puig de Can Batles","lat":38.850888,"lon":1.3798463,"elevationM":108},{"id":"node:11841000277","kind":"peak","name":"Puig Falcó","lat":38.8479385,"lon":1.3737094,"elevationM":136},{"id":"node:11845021557","kind":"peak","name":"Puig des Corb Marí","lat":38.8681508,"lon":1.3987094,"elevationM":119},{"id":"node:11847811454","kind":"peak","name":"Jondal","lat":38.8655106,"lon":1.3222848,"elevationM":160},{"id":"node:11847936216","kind":"peak","name":"310","lat":38.8678392,"lon":1.1980006,"elevationM":null},{"id":"node:11869553924","kind":"peak","name":"Puig d'en Camarles","lat":38.8977058,"lon":1.2823427,"elevationM":201},{"id":"node:11953671072","kind":"peak","name":"Puig d'en Nebot","lat":38.9892108,"lon":1.3724434,"elevationM":136},{"id":"node:12241266824","kind":"peak","name":"Puig des Guixar","lat":38.9355156,"lon":1.4672957,"elevationM":230},{"id":"node:12246114665","kind":"peak","name":"Puig des Merlet","lat":38.9300736,"lon":1.356609,"elevationM":404},{"id":"node:12327303835","kind":"peak","name":"Ferrer","lat":38.6811767,"lon":1.5542999,"elevationM":136},{"id":"node:12327378770","kind":"peak","name":"Punta Prima","lat":38.7095289,"lon":1.4713003,"elevationM":58},{"id":"node:12331230972","kind":"peak","name":"Puig Guillem","lat":38.668999,"lon":1.3949579,"elevationM":108},{"id":"node:12331230973","kind":"peak","name":"La Mola","lat":38.6659624,"lon":1.5349196,"elevationM":202},{"id":"node:12335373239","kind":"peak","name":"Punta Pedreras","lat":38.7322186,"lon":1.3959315,"elevationM":16},{"id":"node:12880797235","kind":"peak","name":"Puig de Cas Corb","lat":38.9354499,"lon":1.4188229,"elevationM":52},{"id":"node:12896763637","kind":"peak","name":"Puig d'en Ribes","lat":38.9981443,"lon":1.5249144,"elevationM":217}]}