{"tileKey":"la_p10_lo_m75","version":"v1-1775891056926","entries":[{"id":"node:618030235","kind":"peak","name":"Loma Cotorra","lat":10.959167,"lon":-74.958056,"elevationM":null},{"id":"node:618030236","kind":"peak","name":"Loma de Pital","lat":10.903333,"lon":-74.988333,"elevationM":null},{"id":"node:618030244","kind":"peak","name":"Loma Agua Viva","lat":10.973889,"lon":-74.921389,"elevationM":null},{"id":"node:618030258","kind":"peak","name":"Loma La Peronilla","lat":10.855278,"lon":-74.98,"elevationM":null},{"id":"node:703208435","kind":"peak","name":"Lomas Mojana","lat":10.8616802,"lon":-74.935102,"elevationM":null},{"id":"node:703208535","kind":"peak","name":"Loma Agua Viva","lat":10.974422,"lon":-74.9214927,"elevationM":null},{"id":"node:703208539","kind":"peak","name":"Loma La Risora","lat":10.9748518,"lon":-74.9601717,"elevationM":null},{"id":"node:703208541","kind":"peak","name":"Loma Cotorra","lat":10.9585207,"lon":-74.9594554,"elevationM":null},{"id":"node:703208545","kind":"peak","name":"Loma Pan De Azucar","lat":10.9874583,"lon":-74.9045886,"elevationM":null},{"id":"node:703211291","kind":"peak","name":"Loma Polillal","lat":10.0236073,"lon":-74.9646204,"elevationM":null},{"id":"node:703211449","kind":"peak","name":"Loma De Sempitacha","lat":10.1451585,"lon":-74.9853599,"elevationM":null},{"id":"node:703211457","kind":"peak","name":"Loma De Pereque","lat":10.1319935,"lon":-74.9792282,"elevationM":null},{"id":"node:703211494","kind":"peak","name":"Loma Las Flores","lat":10.0495767,"lon":-74.8535291,"elevationM":null},{"id":"node:703469989","kind":"peak","name":"Loma Las Damas","lat":10.1029679,"lon":-74.8190059,"elevationM":null},{"id":"node:703470000","kind":"peak","name":"Loma Del Chivo","lat":10.1227843,"lon":-74.8166213,"elevationM":null},{"id":"node:703470002","kind":"peak","name":"Lomas Marta La Baja","lat":10.1661994,"lon":-74.7816755,"elevationM":null},{"id":"node:703470003","kind":"peak","name":"Loma Grande","lat":10.1538655,"lon":-74.7939271,"elevationM":null},{"id":"node:703470004","kind":"peak","name":"Loma Cantara","lat":10.1568256,"lon":-74.8594608,"elevationM":null},{"id":"node:703470446","kind":"peak","name":"Loma Fresca","lat":10.1995829,"lon":-74.2190881,"elevationM":null},{"id":"node:703470644","kind":"peak","name":"Loma Arena","lat":10.5328595,"lon":-74.4568368,"elevationM":null},{"id":"node:703470796","kind":"peak","name":"Lomas De La Reserva","lat":10.3699543,"lon":-74.0374518,"elevationM":null},{"id":"node:703470803","kind":"peak","name":"Cerro De La Ratona","lat":10.3738189,"lon":-74.0277492,"elevationM":null},{"id":"node:703470822","kind":"peak","name":"Cerro Buenos Aires","lat":10.5446837,"lon":-74.005795,"elevationM":null},{"id":"node:1040013113","kind":"peak","name":"Loma","lat":10.4560095,"lon":-74.9300165,"elevationM":50},{"id":"node:1040013361","kind":"peak","name":"Loma","lat":10.4735311,"lon":-74.9524792,"elevationM":61},{"id":"node:4407576543","kind":"peak","name":"La loma","lat":10.2587385,"lon":-74.8341731,"elevationM":12},{"id":"node:4878345904","kind":"peak","name":"Cruce Rio Tucurinca y  Ferrovia","lat":10.6377213,"lon":-74.1735918,"elevationM":0},{"id":"node:13367853329","kind":"peak","name":"Cerro Conuco","lat":10.8774638,"lon":-74.9857862,"elevationM":null}]}