{"tileKey":"la_p52_lo_p27","version":"v1-1775891056926","entries":[{"id":"node:1706687479","kind":"peak","name":"Козья Гора","lat":52.7646819,"lon":27.4764943,"elevationM":157},{"id":"node:3893091107","kind":"peak","name":"Лысая","lat":52.9836697,"lon":27.2611092,"elevationM":170},{"id":"node:3893138375","kind":"peak","name":"Печышча","lat":52.9203701,"lon":27.4341507,"elevationM":157},{"id":"node:3893425620","kind":"peak","name":"Найвышэйшы пункт Любанскага раёна","lat":52.8613302,"lon":27.8315503,"elevationM":190},{"id":"node:3893587514","kind":"peak","name":"Найвышэйшы пункт Салігорскай грады","lat":52.8632438,"lon":27.3405743,"elevationM":182},{"id":"node:3907238098","kind":"peak","name":"Чолкін Груд","lat":52.9326622,"lon":27.4416185,"elevationM":159},{"id":"node:4742655168","kind":"peak","name":"Гара Цюцікавая","lat":52.6892608,"lon":27.0078422,"elevationM":154},{"id":"node:5172147321","kind":"peak","name":"Відушава гара","lat":52.1955157,"lon":27.0355787,"elevationM":165},{"id":"node:5175570068","kind":"peak","name":"Жыдоўскія Горы","lat":52.2075724,"lon":27.0209314,"elevationM":null},{"id":"node:5284777708","kind":"peak","name":"гара","lat":52.2022448,"lon":27.0005347,"elevationM":null},{"id":"node:5738091241","kind":"peak","name":"Казлова","lat":52.7936,"lon":27.8468167,"elevationM":null},{"id":"node:12632602369","kind":"peak","name":"Обрыв","lat":52.7571549,"lon":27.4688782,"elevationM":null}]}