{"tileKey":"la_p34_lo_p46","version":"v1-1775891056926","entries":[{"id":"node:3516582752","kind":"peak","name":"گرگان","lat":34.8097,"lon":46.7812,"elevationM":null},{"id":"node:3516582754","kind":"peak","name":"کمرکور","lat":34.9814,"lon":46.8745,"elevationM":2800},{"id":"node:3520078100","kind":"peak","name":"گردنه پلنگانه","lat":34.8667446,"lon":46.5517221,"elevationM":null},{"id":"node:3522343224","kind":"peak","name":"دوزول","lat":34.002514,"lon":46.475222,"elevationM":null},{"id":"node:3522343225","kind":"peak","name":"کله امیر","lat":34.115865,"lon":46.24416,"elevationM":null},{"id":"node:3522343227","kind":"peak","name":"کچل","lat":34.0680587,"lon":46.2155951,"elevationM":2350},{"id":"node:3522343228","kind":"peak","name":"سی کوزان","lat":34.081058,"lon":46.2854,"elevationM":1990},{"id":"node:3522399757","kind":"peak","name":"بز هو","lat":34.3404975,"lon":46.3823072,"elevationM":null},{"id":"node:3522399758","kind":"peak","name":"زرده","lat":34.2765208,"lon":46.2637312,"elevationM":null},{"id":"node:3524794746","kind":"peak","name":"گل انجیر","lat":34.459288,"lon":46.43237,"elevationM":null},{"id":"node:8247234197","kind":"peak","name":"پیرخدر","lat":34.9197877,"lon":46.5466716,"elevationM":3138},{"id":"node:8427871953","kind":"peak","name":"کورکور","lat":34.2428117,"lon":46.6177732,"elevationM":2370},{"id":"node:8499197620","kind":"peak","name":"حوی خوانی(شاهو)","lat":34.9978076,"lon":46.472382,"elevationM":3373},{"id":"node:8733501517","kind":"peak","name":"کوە دالاهو","lat":34.5933351,"lon":46.0725685,"elevationM":2580},{"id":"node:10300535410","kind":"peak","name":"TEMP REF","lat":34.68853,"lon":46.17242,"elevationM":null},{"id":"node:12705469368","kind":"peak","name":"گاو قران","lat":34.9854341,"lon":46.4788634,"elevationM":3287},{"id":"node:12705549955","kind":"peak","name":"که وه شیروان","lat":34.908667,"lon":46.5432102,"elevationM":3083}]}