{"tileKey":"la_p26_lo_p5","version":"v1-1775891056926","entries":[{"id":"node:6893784571","kind":"peak","name":"Tin Hammane","lat":26.1860966,"lon":5.4923057,"elevationM":1000},{"id":"node:6893803218","kind":"peak","name":"Tazeroukou","lat":26.2423857,"lon":5.4373634,"elevationM":1772},{"id":"node:6893803219","kind":"peak","name":"Sin Senna","lat":26.2418468,"lon":5.3811121,"elevationM":1612},{"id":"node:6893858687","kind":"peak","name":"Tin Hammane","lat":26.1348179,"lon":5.8367604,"elevationM":1201},{"id":"node:7086282618","kind":"peak","name":"Tifinanine","lat":26.1561795,"lon":5.6149471,"elevationM":1151},{"id":"node:7086282619","kind":"peak","name":"Ouerl Ouraha","lat":26.0695916,"lon":5.5524945,"elevationM":1311},{"id":"node:7086301815","kind":"peak","name":"Zaraar","lat":26.2290281,"lon":5.753392,"elevationM":1180},{"id":"node:7086355366","kind":"peak","name":"Tin Tarha","lat":26.1547446,"lon":5.9212231,"elevationM":1670},{"id":"node:7326878465","kind":"peak","name":"970","lat":26.1925735,"lon":5.6573341,"elevationM":null},{"id":"node:7326878466","kind":"peak","name":"1050","lat":26.2013025,"lon":5.6614002,"elevationM":null},{"id":"node:7326878467","kind":"peak","name":"1030","lat":26.1882531,"lon":5.6253326,"elevationM":null},{"id":"node:7326878468","kind":"peak","name":"1070","lat":26.2157942,"lon":5.6614137,"elevationM":null},{"id":"node:7326878469","kind":"peak","name":"1090","lat":26.2401339,"lon":5.6326175,"elevationM":null},{"id":"node:12388925124","kind":"peak","name":"930","lat":26.2155921,"lon":5.8450699,"elevationM":null},{"id":"node:12388925125","kind":"peak","name":"890","lat":26.140828,"lon":5.7383716,"elevationM":null},{"id":"node:12388925126","kind":"peak","name":"900","lat":26.1574796,"lon":5.7423734,"elevationM":null},{"id":"node:12388925127","kind":"peak","name":"910","lat":26.1633152,"lon":5.6953597,"elevationM":null},{"id":"node:12388925128","kind":"peak","name":"1020","lat":26.206467,"lon":5.6274461,"elevationM":null},{"id":"node:12389020771","kind":"peak","name":"1020","lat":26.2369678,"lon":5.6012785,"elevationM":null},{"id":"node:12427574696","kind":"peak","name":"Eberhersene","lat":26.5094917,"lon":5.3917873,"elevationM":700},{"id":"node:12427598337","kind":"peak","name":"Emecheur","lat":26.577666,"lon":5.3530991,"elevationM":950},{"id":"node:12427598356","kind":"peak","name":"Adrar bou Arkhat","lat":26.5969889,"lon":5.4224825,"elevationM":1170},{"id":"node:12427598357","kind":"peak","name":"Telremt","lat":26.6868254,"lon":5.4010141,"elevationM":1100},{"id":"node:12427598358","kind":"peak","name":"Ennefser","lat":26.6695694,"lon":5.4511607,"elevationM":1130}]}