{"tileKey":"la_p24_lo_p50","version":"v1-1775891056926","entries":[{"id":"node:1236724132","kind":"peak","name":"حزم سعد","lat":24.85975,"lon":50.195943,"elevationM":null},{"id":"node:1236726201","kind":"peak","name":"حزم مديفينة","lat":24.651525,"lon":50.078908,"elevationM":null},{"id":"node:1237331906","kind":"peak","name":"مديفينة الحدبة","lat":24.258535,"lon":50.641209,"elevationM":null},{"id":"node:1237331923","kind":"peak","name":"مديفينة العبل","lat":24.262321,"lon":50.441111,"elevationM":null},{"id":"node:1237331963","kind":"peak","name":"قور ثمامة","lat":24.082346,"lon":50.769099,"elevationM":null},{"id":"node:1237331981","kind":"peak","name":"قور قدحة","lat":24.07618,"lon":50.743554,"elevationM":null},{"id":"node:1237332008","kind":"peak","name":"جبل فرحة","lat":24.385375,"lon":50.834074,"elevationM":null},{"id":"node:1237332015","kind":"peak","name":"جبل المشاخيل","lat":24.504048,"lon":50.890329,"elevationM":null},{"id":"node:1237332020","kind":"peak","name":"قور دهشة","lat":24.398688,"lon":50.738172,"elevationM":null},{"id":"node:1237332045","kind":"peak","name":"خيط طيثاب","lat":24.4381231,"lon":50.7186056,"elevationM":null},{"id":"node:1237332053","kind":"peak","name":"خبل أم الروس","lat":24.465271,"lon":50.838944,"elevationM":null},{"id":"node:1237332058","kind":"peak","name":"جبل أبو شداد","lat":24.43484,"lon":50.815288,"elevationM":null},{"id":"node:1237332073","kind":"peak","name":"حزم الهمدانية","lat":24.543889,"lon":50.731667,"elevationM":null},{"id":"node:1237332082","kind":"peak","name":"خشم الشاهي","lat":24.369166,"lon":50.655569,"elevationM":null},{"id":"node:1237332086","kind":"peak","name":"قارة مرخة سليمان","lat":24.368509,"lon":50.746476,"elevationM":null},{"id":"node:1237728066","kind":"peak","name":"حزم الفوج","lat":24.977356,"lon":50.287104,"elevationM":null},{"id":"node:1237728197","kind":"peak","name":"خشم الزينة","lat":24.890164,"lon":50.613565,"elevationM":null},{"id":"node:1237728229","kind":"peak","name":"قور الغبيطين","lat":24.9552252,"lon":50.6337471,"elevationM":null},{"id":"node:8313212603","kind":"peak","name":"نصال الجيبان","lat":24.6643942,"lon":50.7148745,"elevationM":null},{"id":"node:8313216609","kind":"peak","name":"نصلة بعيج","lat":24.6822618,"lon":50.6564063,"elevationM":null},{"id":"node:8545171182","kind":"peak","name":"جال انباك","lat":24.4695187,"lon":50.8501911,"elevationM":null},{"id":"node:8545263115","kind":"peak","name":"جال الهمدانية","lat":24.6103571,"lon":50.7233154,"elevationM":null},{"id":"node:8545273367","kind":"peak","name":"المخروقة","lat":24.6248171,"lon":50.7367587,"elevationM":null},{"id":"node:8545277792","kind":"peak","name":"قور الجيبان","lat":24.6888343,"lon":50.6937674,"elevationM":null},{"id":"node:8545337391","kind":"peak","name":"مشاف الجيبان","lat":24.626942,"lon":50.7328853,"elevationM":null},{"id":"node:8545689018","kind":"peak","name":"جال المحدار الشرقي","lat":24.770068,"lon":50.7179339,"elevationM":null},{"id":"node:8545706071","kind":"peak","name":"جال المحدار","lat":24.7435064,"lon":50.6911358,"elevationM":null},{"id":"node:8545747029","kind":"peak","name":"نصلة المحدار","lat":24.7398374,"lon":50.7019137,"elevationM":null},{"id":"node:8545784866","kind":"peak","name":"مشراف البرقية","lat":24.7594182,"lon":50.706137,"elevationM":null},{"id":"node:8614026787","kind":"peak","name":"ابوشداد","lat":24.6556977,"lon":50.6800007,"elevationM":null},{"id":"node:8614030650","kind":"peak","name":"ابوشداد","lat":24.6595813,"lon":50.679957,"elevationM":null},{"id":"node:8614033639","kind":"peak","name":"جال المحدار","lat":24.7494181,"lon":50.7011925,"elevationM":null},{"id":"node:8623196379","kind":"peak","name":"خيوط  القراين","lat":24.6421948,"lon":50.5482003,"elevationM":null},{"id":"node:8623315491","kind":"peak","name":"جال الهمدانية","lat":24.585191,"lon":50.7015337,"elevationM":null},{"id":"node:8623348584","kind":"peak","name":"جال المحدار","lat":24.7410123,"lon":50.6826851,"elevationM":null},{"id":"node:8623359942","kind":"peak","name":"جال المحدار","lat":24.7519998,"lon":50.7082218,"elevationM":null},{"id":"node:8623365108","kind":"peak","name":"قرن ابو وايل","lat":24.6732463,"lon":50.8594867,"elevationM":null},{"id":"node:8623580032","kind":"peak","name":"خشم الزينة","lat":24.9193287,"lon":50.6212948,"elevationM":null},{"id":"node:8635093804","kind":"peak","name":"خشم الزينة","lat":24.9104804,"lon":50.6199591,"elevationM":null},{"id":"node:8635123141","kind":"peak","name":"خشم الزينة","lat":24.9164984,"lon":50.6211336,"elevationM":null},{"id":"node:8635130270","kind":"peak","name":"خشم الزينة","lat":24.9146821,"lon":50.6210166,"elevationM":null},{"id":"node:8635137593","kind":"peak","name":"خشم الزينة","lat":24.9004654,"lon":50.6156603,"elevationM":null},{"id":"node:8644007310","kind":"peak","name":"المشاخيل","lat":24.5162738,"lon":50.8956577,"elevationM":null},{"id":"node:8644020123","kind":"peak","name":"خشم جو السعن","lat":24.8291381,"lon":50.6387805,"elevationM":null},{"id":"node:9217733328","kind":"peak","name":"جال خريقة العشبر","lat":24.8069001,"lon":50.6771822,"elevationM":null},{"id":"node:9217759710","kind":"peak","name":"جال العشير","lat":24.7975362,"lon":50.6676679,"elevationM":null},{"id":"node:9281301279","kind":"peak","name":"قوز الخيسة","lat":24.7107098,"lon":50.7157744,"elevationM":null},{"id":"node:11870002867","kind":"peak","name":"جال العوامر","lat":24.3574837,"lon":50.6631079,"elevationM":null},{"id":"node:11870047781","kind":"peak","name":"جال الحفائر","lat":24.1379643,"lon":50.691701,"elevationM":null},{"id":"node:11870048075","kind":"peak","name":"جبل نبك","lat":24.4067426,"lon":50.8345881,"elevationM":null},{"id":"node:11870275389","kind":"peak","name":"خشم القُديرات","lat":24.3356599,"lon":50.8039884,"elevationM":null},{"id":"node:11870275790","kind":"peak","name":"جال العبد","lat":24.2008972,"lon":50.7242957,"elevationM":null},{"id":"node:11870738165","kind":"peak","name":"جال أبو عرزيلة","lat":24.4705808,"lon":50.7175817,"elevationM":null},{"id":"node:11870738202","kind":"peak","name":"جال قدحة","lat":24.0831531,"lon":50.69083,"elevationM":null},{"id":"node:11870950381","kind":"peak","name":"خشم العبد","lat":24.2500188,"lon":50.8806708,"elevationM":null},{"id":"node:11870950804","kind":"peak","name":"جال بجران","lat":24.1236127,"lon":50.8558067,"elevationM":null},{"id":"node:11871231057","kind":"peak","name":"جال مديفينة","lat":24.3046325,"lon":50.6766405,"elevationM":null},{"id":"node:11871307187","kind":"peak","name":"خشم أبو عرزيلة","lat":24.5681107,"lon":50.7806942,"elevationM":null},{"id":"node:11871539529","kind":"peak","name":"خشم بجران","lat":24.1465045,"lon":50.8916229,"elevationM":null},{"id":"node:11871539856","kind":"peak","name":"جال العُنقرُيَّة","lat":24.6097997,"lon":50.7225794,"elevationM":null},{"id":"node:11871768985","kind":"peak","name":"خشم الأقطة","lat":24.8200684,"lon":50.682844,"elevationM":null},{"id":"node:11871874753","kind":"peak","name":"نصلة الناسعة","lat":24.633736,"lon":50.721737,"elevationM":null},{"id":"node:11871883897","kind":"peak","name":"حزم شُجيعة","lat":24.6888936,"lon":50.1219004,"elevationM":null}]}