{"tileKey":"la_p14_lo_p28","version":"v1-1775891056926","entries":[{"id":"node:7731289188","kind":"peak","name":"Jabal Ḩubūsh","lat":14.633333,"lon":28.7,"elevationM":null},{"id":"node:7731289200","kind":"peak","name":"Jabal Umm Khuşūş","lat":14.106917,"lon":28.3178789,"elevationM":735},{"id":"node:7731289993","kind":"peak","name":"Jabal Ummāt Ḩashw al Kabīr","lat":14.566667,"lon":28.466667,"elevationM":null},{"id":"node:7731291420","kind":"peak","name":"Jabal Luqud","lat":14.640499,"lon":28.7697565,"elevationM":null},{"id":"node:7731291424","kind":"peak","name":"Jabal al Maghariat","lat":14.9448837,"lon":28.2433703,"elevationM":null},{"id":"node:7731291431","kind":"peak","name":"Jabal Abbatag","lat":14.5707028,"lon":28.8237625,"elevationM":null},{"id":"node:7731291432","kind":"peak","name":"Umm Salatiya","lat":14.2048908,"lon":28.8916818,"elevationM":null},{"id":"node:7731291453","kind":"peak","name":"Qurūn Umm Badr","lat":14.1403237,"lon":28.0004879,"elevationM":null},{"id":"node:7731291476","kind":"peak","name":"Jabal Abū Za‘īmah","lat":14.5145607,"lon":28.3952678,"elevationM":671},{"id":"node:7731291479","kind":"peak","name":"Quraynat Khayr","lat":14.6315455,"lon":28.3862525,"elevationM":null},{"id":"node:7731291480","kind":"peak","name":"Jabal Ummāt Nawāwīr","lat":14.9,"lon":28.366667,"elevationM":null},{"id":"node:7731291481","kind":"peak","name":"Jabal Sha’w","lat":14.8061362,"lon":28.7950048,"elevationM":674},{"id":"node:7731291485","kind":"peak","name":"Jabal Abū Fa’s al A‘má","lat":14.2775497,"lon":28.3107487,"elevationM":null},{"id":"node:7731291536","kind":"peak","name":"Jabal Kurfis","lat":14.585066,"lon":28.9556863,"elevationM":794},{"id":"node:7731291563","kind":"peak","name":"Jabal Umm Z̧aby","lat":14.7295259,"lon":28.2873875,"elevationM":null},{"id":"node:7731291564","kind":"peak","name":"Jabal Abū Gerrama","lat":14.4443244,"lon":28.2880506,"elevationM":666},{"id":"node:7731291565","kind":"peak","name":"Jabal al Ḩamrā’","lat":14.65,"lon":28,"elevationM":null},{"id":"node:7731291589","kind":"peak","name":"Jabal Kaja al Ḩufrah","lat":14.066667,"lon":28.8,"elevationM":null},{"id":"node:7731291592","kind":"peak","name":"Jabal Shukhayb","lat":14.0766948,"lon":28.1277792,"elevationM":783},{"id":"node:7731293105","kind":"peak","name":"Jabal as Sanāqir","lat":14.1700287,"lon":28.4626555,"elevationM":958},{"id":"node:7731293126","kind":"peak","name":"Jabal Daqādiq","lat":14.8524321,"lon":28.9249646,"elevationM":649},{"id":"node:7731314448","kind":"peak","name":"Jabal Abū Fa’s al Mufattiḩ","lat":14.3969638,"lon":28.5014498,"elevationM":866},{"id":"node:9663841058","kind":"peak","name":"Jebel Adat el Gawwad","lat":14.5887032,"lon":28.2261862,"elevationM":null},{"id":"node:9666375247","kind":"peak","name":"Quraynat Khayr","lat":14.6289938,"lon":28.3735349,"elevationM":null},{"id":"node:9666375250","kind":"peak","name":"Jebel Abu Dekkar","lat":14.7343711,"lon":28.4175314,"elevationM":null},{"id":"node:9666375251","kind":"peak","name":"Nasib el Gowa","lat":14.8674377,"lon":28.4675081,"elevationM":null},{"id":"node:9666375252","kind":"peak","name":"Jebel Ummat Nawawir","lat":14.9184617,"lon":28.3947163,"elevationM":null},{"id":"node:9666375254","kind":"peak","name":"Ruhud el Meika","lat":14.967822,"lon":28.0915902,"elevationM":null},{"id":"node:9666375255","kind":"peak","name":"Jebel Merdama","lat":14.8006252,"lon":28.0662977,"elevationM":null},{"id":"node:9666431410","kind":"peak","name":"Jebel Kaddam","lat":14.7471969,"lon":28.5226413,"elevationM":null},{"id":"node:9674512396","kind":"peak","name":"Jebel ez Zerafi","lat":14.4642453,"lon":28.2022078,"elevationM":null},{"id":"node:9674512397","kind":"peak","name":"Jebel Tumud el 'Afin (Burus)","lat":14.454385,"lon":28.0076952,"elevationM":null},{"id":"node:9680274377","kind":"peak","name":"Jebel Shekheib","lat":14.0767692,"lon":28.12723,"elevationM":783},{"id":"node:9680307040","kind":"peak","name":"Jebel Abu Fas el Mefattih","lat":14.3436915,"lon":28.4820452,"elevationM":null},{"id":"node:9680586043","kind":"peak","name":"Jebel Gindilowi","lat":14.3387961,"lon":28.3951119,"elevationM":722},{"id":"node:9680586044","kind":"peak","name":"Jebel Sheinat Abu Fas","lat":14.4026029,"lon":28.4475622,"elevationM":null},{"id":"node:9680586046","kind":"peak","name":"Jebel Marfa'ib","lat":14.4337767,"lon":28.4496751,"elevationM":726},{"id":"node:9680733120","kind":"peak","name":"Jebel Shekhab","lat":14.2302858,"lon":28.086487,"elevationM":null},{"id":"node:9680733121","kind":"peak","name":"Bertala Jebels (Qurun el 'Ugeimi / Garad el Qubba)","lat":14.1740216,"lon":28.0935151,"elevationM":null},{"id":"node:9680734772","kind":"peak","name":"Jebel Umm Kharq","lat":14.0343103,"lon":28.7085917,"elevationM":null},{"id":"node:9685661169","kind":"peak","name":"Jebel Ummat Hashu el Kebir","lat":14.5423004,"lon":28.4748268,"elevationM":null},{"id":"node:9804344406","kind":"peak","name":"Jebel el Kulga","lat":14.9537852,"lon":28.6016558,"elevationM":null},{"id":"node:9895588468","kind":"peak","name":"Jebel Darwil","lat":14.8626738,"lon":28.8622072,"elevationM":null},{"id":"node:9895588470","kind":"peak","name":"Jebel el Merakh","lat":14.8674411,"lon":28.810399,"elevationM":null},{"id":"node:9895715791","kind":"peak","name":"Jebel el Bakalai","lat":14.3355368,"lon":28.8743934,"elevationM":null},{"id":"node:9900183721","kind":"peak","name":"Jebel Ummat Hashu es Sughaiyir","lat":14.687978,"lon":28.535631,"elevationM":634},{"id":"node:9900183731","kind":"peak","name":"Jebel Hubush","lat":14.6396512,"lon":28.7135302,"elevationM":650},{"id":"node:9900192025","kind":"peak","name":"Jebel Mineidra","lat":14.6245551,"lon":28.8037842,"elevationM":null},{"id":"node:9900192026","kind":"peak","name":"Jebel Kurkur (Ummat Ramad)","lat":14.5730694,"lon":28.7548838,"elevationM":null},{"id":"node:9900192129","kind":"peak","name":"Jebel Umm Khirwa'","lat":14.486719,"lon":28.7864534,"elevationM":683},{"id":"node:9900302301","kind":"peak","name":"Nuseib et Tiha","lat":14.5504786,"lon":28.6476146,"elevationM":null},{"id":"node:9900316080","kind":"peak","name":"Jebel Nagut","lat":14.0360294,"lon":28.7874159,"elevationM":null},{"id":"node:9900316081","kind":"peak","name":"Jebel Erbud","lat":14.0224308,"lon":28.779146,"elevationM":null},{"id":"node:9900316083","kind":"peak","name":"Jebel Kaja el Hofra","lat":14.0760101,"lon":28.8281098,"elevationM":null},{"id":"node:9909639049","kind":"peak","name":"Jebel Kaja esh Shegad","lat":14.2606379,"lon":28.9465865,"elevationM":null},{"id":"node:9909639052","kind":"peak","name":"Jebel es Selaya","lat":14.3694426,"lon":28.9723835,"elevationM":null},{"id":"node:9909639053","kind":"peak","name":"Jebel Kuku","lat":14.3713127,"lon":28.9959504,"elevationM":null},{"id":"node:9909650646","kind":"peak","name":"Jebel esh Sheneifa","lat":14.2927791,"lon":28.8127386,"elevationM":null},{"id":"node:9909650967","kind":"peak","name":"Qereiwid el Haskanit","lat":14.1012266,"lon":28.6014532,"elevationM":null},{"id":"node:9909650968","kind":"peak","name":"Jebel Shikheinifa","lat":14.0332503,"lon":28.5505913,"elevationM":null},{"id":"node:9929896616","kind":"peak","name":"Jebel Terrama","lat":14.6172606,"lon":28.9971146,"elevationM":null},{"id":"node:9953065349","kind":"peak","name":"Jebel Kaja","lat":14.435115,"lon":28.9884683,"elevationM":null},{"id":"node:9953065350","kind":"peak","name":"Jebel Tomber","lat":14.4423504,"lon":28.9584604,"elevationM":null},{"id":"node:9953065351","kind":"peak","name":"Jebel Humi","lat":14.4961353,"lon":28.9825316,"elevationM":null},{"id":"node:9953065352","kind":"peak","name":"Qureid Abu Mahdi","lat":14.516985,"lon":28.9448713,"elevationM":null},{"id":"node:9953065353","kind":"peak","name":"Jebel Umm Hasalna","lat":14.5373205,"lon":28.9761185,"elevationM":null}]}