{"tileKey":"la_p37_lo_p47","version":"v1-1775891056926","entries":[{"id":"node:1867766510","kind":"peak","name":"قیسیر داغی","lat":37.7424612,"lon":47.5007596,"elevationM":3246},{"id":"node:1867766522","kind":"peak","name":"تیر چایی","lat":37.7465964,"lon":47.6190048,"elevationM":3037},{"id":"node:1867766592","kind":"peak","name":"بیلاردان","lat":37.7576449,"lon":47.7477957,"elevationM":3064},{"id":"node:1867766772","kind":"peak","name":"قملار داغی","lat":37.7743574,"lon":47.1037783,"elevationM":2453},{"id":"node:1867766781","kind":"peak","name":"آغ داش","lat":37.7796814,"lon":47.0449021,"elevationM":2451},{"id":"node:1867766881","kind":"peak","name":"قاسم داغی","lat":37.7963605,"lon":47.0672945,"elevationM":2538},{"id":"node:1867766895","kind":"peak","name":"بایدی قولی","lat":37.8051371,"lon":47.8572751,"elevationM":3097},{"id":"node:1867772078","kind":"peak","name":"قاسم داغی","lat":37.8345576,"lon":47.0050576,"elevationM":2477},{"id":"node:2018173088","kind":"peak","name":"بویوک سوما - صومعه علیا","lat":37.6101253,"lon":47.4654897,"elevationM":null},{"id":"node:3175865104","kind":"peak","name":"کوه آغ داغ","lat":37.3585233,"lon":47.0361623,"elevationM":1930},{"id":"node:3213191648","kind":"peak","name":"آینالی داغ","lat":37.5790451,"lon":47.1191416,"elevationM":2210},{"id":"node:3786000758","kind":"peak","name":"حیدربابا","lat":37.6955842,"lon":47.1436663,"elevationM":1890},{"id":"node:4213990506","kind":"peak","name":"چاخار","lat":37.3529528,"lon":47.8407486,"elevationM":1730},{"id":"node:4213990507","kind":"peak","name":"یهرآلان","lat":37.3648543,"lon":47.841285,"elevationM":1850},{"id":"node:4213990508","kind":"peak","name":"اوجاق","lat":37.2983854,"lon":47.6971603,"elevationM":1860},{"id":"node:5780693785","kind":"peak","name":"بزقوش","lat":37.756121,"lon":47.445776,"elevationM":3298},{"id":"node:10680042119","kind":"peak","name":"پلو داغی","lat":37.7513225,"lon":47.4666422,"elevationM":3242},{"id":"node:10680042120","kind":"peak","name":"قروول داغی","lat":37.7461486,"lon":47.5877066,"elevationM":3186},{"id":"node:12164838531","kind":"peak","name":"پیر رجب","lat":37.830973,"lon":47.8626097,"elevationM":3026},{"id":"node:12785524459","kind":"peak","name":"تک گونی","lat":37.7727125,"lon":47.126033,"elevationM":2513}]}