{"tileKey":"la_p42_lo_m78","version":"v1-1775891056926","entries":[{"id":"node:357274687","kind":"peak","name":"Barney Hill","lat":42.0053508,"lon":-77.2919235,"elevationM":532},{"id":"node:357274695","kind":"peak","name":"Mutton Hill","lat":42.0111836,"lon":-77.3297025,"elevationM":571},{"id":"node:357544189","kind":"peak","name":"Addison Hill","lat":42.0206283,"lon":-77.3191465,"elevationM":557},{"id":"node:357544694","kind":"peak","name":"Allens Hill","lat":42.836731,"lon":-77.5205493,"elevationM":317},{"id":"node:357544933","kind":"peak","name":"Annabel Hill","lat":42.3442374,"lon":-77.4938752,"elevationM":544},{"id":"node:357545347","kind":"peak","name":"Ashbaugh Hill","lat":42.2831261,"lon":-77.6433238,"elevationM":504},{"id":"node:357545703","kind":"peak","name":"Averell Hill","lat":42.2456283,"lon":-77.384704,"elevationM":569},{"id":"node:357546112","kind":"peak","name":"Bald Hill","lat":42.350625,"lon":-77.6899924,"elevationM":568},{"id":"node:357546126","kind":"peak","name":"Bald Hill","lat":42.7145094,"lon":-77.5808272,"elevationM":563},{"id":"node:357546173","kind":"peak","name":"Bald Mountain","lat":42.3149395,"lon":-77.9879177,"elevationM":641},{"id":"node:357546617","kind":"peak","name":"Baptist Hill","lat":42.8433979,"lon":-77.4263783,"elevationM":356},{"id":"node:357546683","kind":"peak","name":"Bare Hill","lat":42.7370107,"lon":-77.31276,"elevationM":470},{"id":"node:357546882","kind":"peak","name":"Barrington Hill","lat":42.4936822,"lon":-77.0849697,"elevationM":459},{"id":"node:357547705","kind":"peak","name":"Beech Hill","lat":42.0478458,"lon":-77.8630535,"elevationM":702},{"id":"node:357548083","kind":"peak","name":"Ben Socker Hill","lat":42.2231254,"lon":-77.7766613,"elevationM":705},{"id":"node:357549429","kind":"peak","name":"Bliven Hill","lat":42.204791,"lon":-77.9561139,"elevationM":702},{"id":"node:357549810","kind":"peak","name":"Booher Hill","lat":42.7622856,"lon":-77.7405554,"elevationM":360},{"id":"node:357550723","kind":"peak","name":"Bronson Hill","lat":42.4659019,"lon":-77.5847123,"elevationM":634},{"id":"node:357550854","kind":"peak","name":"Brooks Hill","lat":42.3461826,"lon":-77.3808155,"elevationM":507},{"id":"node:357551015","kind":"peak","name":"Brown Hill","lat":42.2839623,"lon":-77.2074753,"elevationM":504},{"id":"node:357551019","kind":"peak","name":"Brown Hill","lat":42.4447914,"lon":-77.5255436,"elevationM":629},{"id":"node:357551442","kind":"peak","name":"Bullard Hill","lat":42.3372931,"lon":-77.4699854,"elevationM":562},{"id":"node:357551476","kind":"peak","name":"Bunker Hill","lat":42.9850633,"lon":-77.1549767,"elevationM":176},{"id":"node:357551711","kind":"peak","name":"Burt Hill","lat":42.3025707,"lon":-77.5788775,"elevationM":647},{"id":"node:357551753","kind":"peak","name":"Bush Hill","lat":42.2081265,"lon":-77.5991554,"elevationM":691},{"id":"node:357551817","kind":"peak","name":"Buttermilk Hill","lat":42.9820077,"lon":-77.2877618,"elevationM":197},{"id":"node:357551902","kind":"peak","name":"Call Hill","lat":42.2117372,"lon":-77.6602685,"elevationM":733},{"id":"node:357552189","kind":"peak","name":"Canadice Hill","lat":42.6797881,"lon":-77.5202692,"elevationM":671},{"id":"node:357552246","kind":"peak","name":"Cance Hill","lat":42.4622921,"lon":-77.387483,"elevationM":563},{"id":"node:357554157","kind":"peak","name":"Cleveland Hill","lat":42.6767332,"lon":-77.4247093,"elevationM":671},{"id":"node:357554303","kind":"peak","name":"Clover Hill","lat":42.5745113,"lon":-77.6219372,"elevationM":561},{"id":"node:357554445","kind":"peak","name":"Cobble Knob","lat":42.1831273,"lon":-77.4755404,"elevationM":523},{"id":"node:357554730","kind":"peak","name":"Collings Hill","lat":42.9836734,"lon":-77.7872277,"elevationM":233},{"id":"node:357555090","kind":"peak","name":"Cook Hill","lat":42.2831259,"lon":-77.6736025,"elevationM":644},{"id":"node:357555687","kind":"peak","name":"Cream Hill","lat":42.4336799,"lon":-77.6244355,"elevationM":595},{"id":"node:357555848","kind":"peak","name":"Crozier Hill","lat":42.8408997,"lon":-77.0546921,"elevationM":266},{"id":"node:357556200","kind":"peak","name":"Davis Hill","lat":42.9714514,"lon":-77.7713937,"elevationM":214},{"id":"node:357556229","kind":"peak","name":"Day Hill","lat":42.4784015,"lon":-77.6297138,"elevationM":610},{"id":"node:357556471","kind":"peak","name":"Denmark Hill","lat":42.1622966,"lon":-77.0369116,"elevationM":526},{"id":"node:357556529","kind":"peak","name":"Derby Hill","lat":42.1111839,"lon":-77.3277579,"elevationM":533},{"id":"node:357556567","kind":"peak","name":"Dewey Hill","lat":42.7791496,"lon":-77.8296379,"elevationM":206},{"id":"node:357557063","kind":"peak","name":"Dryden Hill","lat":42.1311807,"lon":-77.7036031,"elevationM":727},{"id":"node:357557408","kind":"peak","name":"Earl Beatty Hill","lat":42.0847943,"lon":-77.3869264,"elevationM":534},{"id":"node:357557529","kind":"peak","name":"East Hill","lat":42.5036771,"lon":-77.8638883,"elevationM":623},{"id":"node:357557539","kind":"peak","name":"East Hill","lat":42.5670111,"lon":-77.6691607,"elevationM":513},{"id":"node:357557552","kind":"peak","name":"East Hill","lat":42.6711786,"lon":-77.2710908,"elevationM":488},{"id":"node:357559616","kind":"peak","name":"Finnegan Hill","lat":42.9467292,"lon":-77.7827825,"elevationM":212},{"id":"node:357560118","kind":"peak","name":"Forest Hill","lat":42.0792411,"lon":-77.0010768,"elevationM":531},{"id":"node:357560716","kind":"peak","name":"Frog Hill","lat":42.5381214,"lon":-77.8324989,"elevationM":611},{"id":"node:357560736","kind":"peak","name":"Frost Hill","lat":42.711177,"lon":-77.4430439,"elevationM":696},{"id":"node:357560894","kind":"peak","name":"Gannett Hill","lat":42.7002141,"lon":-77.4083883,"elevationM":690},{"id":"node:357562805","kind":"peak","name":"Greenwood Hill","lat":42.1575699,"lon":-77.6911027,"elevationM":727},{"id":"node:357562978","kind":"peak","name":"Grunder Hill","lat":42.4620103,"lon":-77.9272238,"elevationM":623},{"id":"node:357563178","kind":"peak","name":"Haight Hill","lat":42.4042356,"lon":-77.6755479,"elevationM":514},{"id":"node:357563353","kind":"peak","name":"Hamilton Hill","lat":42.2581256,"lon":-77.7577718,"elevationM":538},{"id":"node:357563442","kind":"peak","name":"Hanover Hill","lat":42.1120126,"lon":-77.9136115,"elevationM":661},{"id":"node:357563537","kind":"peak","name":"Hardscrabble Hill","lat":42.1059063,"lon":-77.306646,"elevationM":521},{"id":"node:357563566","kind":"peak","name":"Harkness Hill","lat":42.7675663,"lon":-77.2405344,"elevationM":356},{"id":"node:357563734","kind":"peak","name":"Hartsville Hill","lat":42.2675702,"lon":-77.7227706,"elevationM":690},{"id":"node:357563797","kind":"peak","name":"Hatch Hill","lat":42.6036789,"lon":-77.3935958,"elevationM":549},{"id":"node:357563813","kind":"peak","name":"Hathaways Pinnacle","lat":42.2628499,"lon":-77.4463729,"elevationM":615},{"id":"node:357564101","kind":"peak","name":"Heineman Hill","lat":42.3653488,"lon":-77.4177614,"elevationM":543},{"id":"node:357564140","kind":"peak","name":"Hemmer Hill","lat":42.5459009,"lon":-77.5566569,"elevationM":562},{"id":"node:357564168","kind":"peak","name":"Henderson Hill","lat":42.7645081,"lon":-77.6827759,"elevationM":379},{"id":"node:357564268","kind":"peak","name":"Herron Hill","lat":42.3106281,"lon":-77.3094239,"elevationM":507},{"id":"node:357564335","kind":"peak","name":"Hickory Hill","lat":42.3834045,"lon":-77.3458144,"elevationM":544},{"id":"node:357564419","kind":"peak","name":"High Point Hill","lat":42.6459001,"lon":-77.4447098,"elevationM":659},{"id":"node:357564702","kind":"peak","name":"Hinkley Hill","lat":42.2634041,"lon":-77.6377679,"elevationM":620},{"id":"node:357565516","kind":"peak","name":"Horton Hill","lat":42.351459,"lon":-77.5819335,"elevationM":592},{"id":"node:357565581","kind":"peak","name":"House Hill","lat":42.4453497,"lon":-77.0421898,"elevationM":521},{"id":"node:357565766","kind":"peak","name":"Huey Hill","lat":42.4039615,"lon":-77.0041323,"elevationM":576},{"id":"node:357566254","kind":"peak","name":"Irish Hill","lat":42.0797914,"lon":-77.708881,"elevationM":726},{"id":"node:357566261","kind":"peak","name":"Irish Hill","lat":42.3114619,"lon":-77.2213649,"elevationM":574},{"id":"node:357566352","kind":"peak","name":"Isaman Hill","lat":42.4639554,"lon":-77.8644437,"elevationM":606},{"id":"node:357566543","kind":"peak","name":"Jakman Hill","lat":42.8400636,"lon":-77.6474982,"elevationM":357},{"id":"node:357566702","kind":"peak","name":"Jericho Hill","lat":42.2320141,"lon":-77.811663,"elevationM":717},{"id":"node:357566736","kind":"peak","name":"Jersey Hill","lat":42.3522903,"lon":-77.8749995,"elevationM":685},{"id":"node:357566979","kind":"peak","name":"Johnson Hill","lat":42.7747877,"lon":-77.3683188,"elevationM":538},{"id":"node:357567167","kind":"peak","name":"Junction Hill","lat":42.9897853,"lon":-77.592221,"elevationM":219},{"id":"node:357567905","kind":"peak","name":"Kershener Hill","lat":42.3803493,"lon":-77.3169244,"elevationM":555},{"id":"node:357568129","kind":"peak","name":"Kinners Knob","lat":42.2422945,"lon":-77.4333168,"elevationM":620},{"id":"node:357568256","kind":"peak","name":"Knapp Hill","lat":42.5767349,"lon":-77.3838729,"elevationM":623},{"id":"node:357568715","kind":"peak","name":"Lattimer Hill","lat":42.4103462,"lon":-77.7377722,"elevationM":513},{"id":"node:357568805","kind":"peak","name":"Lazarus Hill","lat":42.7575667,"lon":-77.2113662,"elevationM":323},{"id":"node:357568937","kind":"peak","name":"Lent Hill","lat":42.5278466,"lon":-77.4074844,"elevationM":641},{"id":"node:357569060","kind":"peak","name":"Lincoln Hill","lat":42.8506208,"lon":-77.231646,"elevationM":285},{"id":"node:357569501","kind":"peak","name":"Locust Hill","lat":42.7778453,"lon":-77.0830263,"elevationM":309},{"id":"node:357569518","kind":"peak","name":"Logan Hill","lat":42.6406209,"lon":-77.7202749,"elevationM":432},{"id":"node:357570038","kind":"peak","name":"Mack Hill","lat":42.021462,"lon":-77.2874789,"elevationM":550},{"id":"node:357570081","kind":"peak","name":"Magees Hill","lat":42.3306275,"lon":-77.3458141,"elevationM":486},{"id":"node:357570346","kind":"peak","name":"Maple Hill","lat":42.4361801,"lon":-77.5827676,"elevationM":616},{"id":"node:357570597","kind":"peak","name":"Marsh Hill","lat":42.1772936,"lon":-77.5063748,"elevationM":703},{"id":"node:357570643","kind":"peak","name":"Martin Hill","lat":42.0547964,"lon":-77.0563572,"elevationM":530},{"id":"node:357571006","kind":"peak","name":"McPherson Hill","lat":42.313683,"lon":-77.3810931,"elevationM":531},{"id":"node:357571122","kind":"peak","name":"Meeks Hill","lat":42.2920146,"lon":-77.673047,"elevationM":636},{"id":"node:357571363","kind":"peak","name":"Meservey Hill","lat":42.0853455,"lon":-77.9691693,"elevationM":673},{"id":"node:357571629","kind":"peak","name":"Miller Hill","lat":42.2967387,"lon":-77.3924823,"elevationM":533},{"id":"node:357571632","kind":"peak","name":"Miller Hill","lat":42.4086791,"lon":-77.7938853,"elevationM":606},{"id":"node:357573338","kind":"peak","name":"Newcomb Hill","lat":42.3117363,"lon":-77.7247154,"elevationM":634},{"id":"node:357574121","kind":"peak","name":"North Hill","lat":42.4206235,"lon":-77.7833294,"elevationM":563},{"id":"node:357574666","kind":"peak","name":"Oak Hill","lat":42.2022909,"lon":-77.9738925,"elevationM":696},{"id":"node:357574669","kind":"peak","name":"Oak Hill","lat":42.266183,"lon":-77.4708182,"elevationM":662},{"id":"node:357574672","kind":"peak","name":"Oak Hill","lat":42.3053511,"lon":-77.1763627,"elevationM":570},{"id":"node:357575097","kind":"peak","name":"Old Blady","lat":42.2234048,"lon":-77.53082,"elevationM":662},{"id":"node:357575524","kind":"peak","name":"Oregon Hill","lat":42.253128,"lon":-77.4180385,"elevationM":568},{"id":"node:357575549","kind":"peak","name":"Orr Hill","lat":42.0659069,"lon":-77.2471997,"elevationM":543},{"id":"node:357576409","kind":"peak","name":"Peacock Hill","lat":42.2845127,"lon":-77.9972271,"elevationM":641},{"id":"node:357576586","kind":"peak","name":"Pennsylvania Hill","lat":42.3520135,"lon":-77.7336049,"elevationM":586},{"id":"node:357576598","kind":"peak","name":"Pennsylvania Hill","lat":42.3792356,"lon":-77.7188825,"elevationM":555},{"id":"node:357576702","kind":"peak","name":"Peters Hill","lat":42.275351,"lon":-77.2780338,"elevationM":555},{"id":"node:357577034","kind":"peak","name":"Pine Hill","lat":42.2156302,"lon":-77.0224665,"elevationM":545},{"id":"node:357577044","kind":"peak","name":"Pine Hill","lat":42.5659014,"lon":-77.4366527,"elevationM":623},{"id":"node:357577247","kind":"peak","name":"Pingry Hill","lat":42.1661803,"lon":-77.8241633,"elevationM":677},{"id":"node:357577458","kind":"peak","name":"Platt Hill","lat":42.2775735,"lon":-77.2030306,"elevationM":509},{"id":"node:357577877","kind":"peak","name":"Potter Hill","lat":42.4706244,"lon":-77.5355441,"elevationM":653},{"id":"node:357577966","kind":"peak","name":"Powell Hill","lat":42.6892331,"lon":-77.4019305,"elevationM":617},{"id":"node:357581288","kind":"peak","name":"Purdy Hill","lat":42.2278483,"lon":-77.6744356,"elevationM":691},{"id":"node:357581344","kind":"peak","name":"Quail Hill","lat":42.7233989,"lon":-77.4572115,"elevationM":654},{"id":"node:357581691","kind":"peak","name":"Rauber Hill","lat":42.1095126,"lon":-77.9216674,"elevationM":648},{"id":"node:357582494","kind":"peak","name":"Robinson Hill","lat":42.3397934,"lon":-77.4319284,"elevationM":530},{"id":"node:357583014","kind":"peak","name":"Round Top","lat":42.0834067,"lon":-77.2652559,"elevationM":329},{"id":"node:357583022","kind":"peak","name":"Round Top","lat":42.189513,"lon":-77.958614,"elevationM":637},{"id":"node:357583029","kind":"peak","name":"Round Top","lat":42.5339541,"lon":-77.8927786,"elevationM":568},{"id":"node:357587862","kind":"peak","name":"Sand Hill","lat":42.3225693,"lon":-77.7572166,"elevationM":494},{"id":"node:357587866","kind":"peak","name":"Sand Hill","lat":42.5067346,"lon":-77.6177693,"elevationM":654},{"id":"node:357588472","kind":"peak","name":"Scott Hill","lat":42.4981224,"lon":-77.8044417,"elevationM":591},{"id":"node:357589181","kind":"peak","name":"Sharps Hill","lat":42.3211834,"lon":-77.3130351,"elevationM":514},{"id":"node:357589186","kind":"peak","name":"Sharps Hill","lat":42.3934023,"lon":-77.6772146,"elevationM":440},{"id":"node:357589638","kind":"peak","name":"Sinclair Hill","lat":42.9425619,"lon":-77.8711182,"elevationM":245},{"id":"node:357589671","kind":"peak","name":"Six Nations Hill","lat":42.379795,"lon":-77.033856,"elevationM":543},{"id":"node:357590001","kind":"peak","name":"Snell Hill","lat":42.3528488,"lon":-77.4391509,"elevationM":532},{"id":"node:357590187","kind":"peak","name":"South Hill","lat":42.013957,"lon":-77.8044399,"elevationM":725},{"id":"node:357590208","kind":"peak","name":"South Hill","lat":42.6984001,"lon":-77.3249825,"elevationM":575},{"id":"node:357590600","kind":"peak","name":"Spencer Hill","lat":42.1189631,"lon":-77.0838585,"elevationM":534},{"id":"node:357591282","kind":"peak","name":"Stid Hill","lat":42.7467324,"lon":-77.3872083,"elevationM":635},{"id":"node:357591365","kind":"peak","name":"Stocking Hill","lat":42.4370162,"lon":-77.0821917,"elevationM":482},{"id":"node:357591421","kind":"peak","name":"Stone Hill","lat":42.4439577,"lon":-77.6038794,"elevationM":632},{"id":"node:357591569","kind":"peak","name":"Strong Hill","lat":42.6056218,"lon":-77.665828,"elevationM":573},{"id":"node:357592127","kind":"peak","name":"Symonds Hill","lat":42.0620168,"lon":-77.3497031,"elevationM":569},{"id":"node:357592634","kind":"peak","name":"The Pinnacle","lat":42.605625,"lon":-77.1360837,"elevationM":416},{"id":"node:357592923","kind":"peak","name":"Tildon Hill","lat":42.4478456,"lon":-77.7619399,"elevationM":555},{"id":"node:357593012","kind":"peak","name":"Tobes Hill","lat":42.3467365,"lon":-77.6269349,"elevationM":598},{"id":"node:357593602","kind":"peak","name":"Turkey Hill","lat":42.7403417,"lon":-77.6947202,"elevationM":403},{"id":"node:357593645","kind":"peak","name":"Tuscarora Hill","lat":42.0264622,"lon":-77.2669227,"elevationM":559},{"id":"node:357594632","kind":"peak","name":"Vorhees Hill","lat":42.1084018,"lon":-77.8705541,"elevationM":685},{"id":"node:357594672","kind":"peak","name":"Wagner Hill","lat":42.4584032,"lon":-77.3933165,"elevationM":575},{"id":"node:357595188","kind":"peak","name":"Mount Washington","lat":42.3814611,"lon":-77.1869189,"elevationM":577},{"id":"node:357595243","kind":"peak","name":"Waterbury Hill","lat":42.4414583,"lon":-77.4955426,"elevationM":562},{"id":"node:357595702","kind":"peak","name":"West Hill","lat":42.5306248,"lon":-77.3519265,"elevationM":647},{"id":"node:357595768","kind":"peak","name":"West Italy Hill","lat":42.6134015,"lon":-77.3122034,"elevationM":625},{"id":"node:357596116","kind":"peak","name":"Fort Hill","lat":42.9642303,"lon":-77.4347138,"elevationM":256},{"id":"node:357596154","kind":"peak","name":"Grass Hill","lat":42.1670154,"lon":-77.5510984,"elevationM":710},{"id":"node:357596170","kind":"peak","name":"Higman Hill","lat":42.1409075,"lon":-77.0852474,"elevationM":524},{"id":"node:357596173","kind":"peak","name":"Hill Cumorah","lat":42.9945075,"lon":-77.2202583,"elevationM":208},{"id":"node:357596183","kind":"peak","name":"Hopper Hills","lat":42.9454064,"lon":-77.4826495,"elevationM":335},{"id":"node:357596189","kind":"peak","name":"Jackson Hill","lat":42.160904,"lon":-77.5894329,"elevationM":730},{"id":"node:357596263","kind":"peak","name":"Marrowback Hill","lat":42.682843,"lon":-77.6222169,"elevationM":594},{"id":"node:357596393","kind":"peak","name":"Pine Hill","lat":42.2570143,"lon":-77.7780504,"elevationM":666},{"id":"node:357596495","kind":"peak","name":"Roundtop","lat":42.1245131,"lon":-77.8394417,"elevationM":721},{"id":"node:357597017","kind":"peak","name":"Wheeler Hill","lat":42.093681,"lon":-77.6319341,"elevationM":715},{"id":"node:357597191","kind":"peak","name":"Whitehead Hill","lat":42.4014611,"lon":-77.1113598,"elevationM":488},{"id":"node:357597491","kind":"peak","name":"Wilson Hill","lat":42.3275713,"lon":-77.436373,"elevationM":555},{"id":"node:357597716","kind":"peak","name":"Woodchuck Hill","lat":42.8858972,"lon":-77.5280504,"elevationM":297},{"id":"node:357597956","kind":"peak","name":"Worden Hill","lat":42.7311768,"lon":-77.426099,"elevationM":666},{"id":"node:357598105","kind":"peak","name":"Young Hill","lat":42.9895076,"lon":-77.2574825,"elevationM":211},{"id":"node:357631499","kind":"peak","name":"Taft Hill","lat":42.8777778,"lon":-77.5075,"elevationM":287},{"id":"node:357631559","kind":"peak","name":"Oak Mountain","lat":42.8877778,"lon":-77.4272222,"elevationM":358},{"id":"node:357649742","kind":"peak","name":"College Hill","lat":42.9086111,"lon":-77.6147222,"elevationM":267}]}