{"tileKey":"la_p45_lo_m115","version":"v1-1775891056926","entries":[{"id":"node:357923238","kind":"peak","name":"Blue Nose","lat":45.4726941,"lon":-114.3586977,"elevationM":2638},{"id":"node:357923309","kind":"peak","name":"Indian Hill","lat":45.7901952,"lon":-114.5439831,"elevationM":2528},{"id":"node:357923354","kind":"peak","name":"Watchtower Peak","lat":45.8293623,"lon":-114.5117601,"elevationM":2663},{"id":"node:357923361","kind":"peak","name":"Cathedral Rock","lat":45.5385271,"lon":-114.4456453,"elevationM":2347},{"id":"node:357932820","kind":"peak","name":"Bare Cone","lat":45.7193618,"lon":-114.412312,"elevationM":2384},{"id":"node:357932832","kind":"peak","name":"Bare Peak","lat":45.8474184,"lon":-114.4053684,"elevationM":2830},{"id":"node:357932938","kind":"peak","name":"Beaver Point","lat":45.534361,"lon":-114.3373086,"elevationM":2256},{"id":"node:357933407","kind":"peak","name":"Boulder Peak","lat":45.846863,"lon":-114.342589,"elevationM":2977},{"id":"node:357933410","kind":"peak","name":"Boulder Point","lat":45.8376966,"lon":-114.2889764,"elevationM":2357},{"id":"node:357933734","kind":"peak","name":"Castle Rock","lat":45.7176949,"lon":-114.4678691,"elevationM":2333},{"id":"node:357934128","kind":"peak","name":"Coyote Peak","lat":45.8682534,"lon":-114.0348036,"elevationM":1524},{"id":"node:357934273","kind":"peak","name":"Deer Creek Point","lat":45.5771386,"lon":-114.4237004,"elevationM":2543},{"id":"node:357934456","kind":"peak","name":"Doran Point","lat":45.9465872,"lon":-114.0425825,"elevationM":1906},{"id":"node:357934795","kind":"peak","name":"Falls Point","lat":45.700197,"lon":-114.0667469,"elevationM":2433},{"id":"node:357935846","kind":"peak","name":"Hughes Point","lat":45.6757526,"lon":-114.0325792,"elevationM":2501},{"id":"node:357935941","kind":"peak","name":"Indian Hill","lat":45.790473,"lon":-114.5442608,"elevationM":2524},{"id":"node:357936034","kind":"peak","name":"Mount Jerusalem","lat":45.8246402,"lon":-114.4612031,"elevationM":2845},{"id":"node:357936040","kind":"peak","name":"Jew Mountain","lat":45.6790847,"lon":-114.2250842,"elevationM":2430},{"id":"node:357936045","kind":"peak","name":"Jim Hell Rock","lat":45.8449202,"lon":-114.0020247,"elevationM":1341},{"id":"node:357936650","kind":"peak","name":"Lookout Mountain","lat":45.6346398,"lon":-114.2575846,"elevationM":2387},{"id":"node:357936932","kind":"peak","name":"Medicine Point","lat":45.8068638,"lon":-114.1100826,"elevationM":2561},{"id":"node:357937442","kind":"peak","name":"North Trapper Peak","lat":45.9007525,"lon":-114.290366,"elevationM":2969},{"id":"node:357937949","kind":"peak","name":"Piquett Mountain","lat":45.7315852,"lon":-114.1917504,"elevationM":2681},{"id":"node:357938272","kind":"peak","name":"Quartzite Mountain","lat":45.637974,"lon":-114.1450817,"elevationM":2363},{"id":"node:357938356","kind":"peak","name":"Razorback Mountain","lat":45.626861,"lon":-114.4459236,"elevationM":2607},{"id":"node:357938599","kind":"peak","name":"Rocky Knob","lat":45.8268639,"lon":-114.1253609,"elevationM":2474},{"id":"node:357938624","kind":"peak","name":"Rombo Mountain","lat":45.7493629,"lon":-114.2011953,"elevationM":2541},{"id":"node:357938925","kind":"peak","name":"School Point","lat":45.8282521,"lon":-114.2675868,"elevationM":1689},{"id":"node:357939122","kind":"peak","name":"Shook Mountain","lat":45.8621419,"lon":-114.1211946,"elevationM":2305},{"id":"node:357939203","kind":"peak","name":"Slate Point","lat":45.6890845,"lon":-114.2795301,"elevationM":1894},{"id":"node:357939629","kind":"peak","name":"Sugarloaf Peak","lat":45.9418639,"lon":-114.3084225,"elevationM":2888},{"id":"node:357939987","kind":"peak","name":"The Lonesome Bachelor","lat":45.999642,"lon":-114.374258,"elevationM":2734},{"id":"node:357940070","kind":"peak","name":"Thunder Mountain","lat":45.5799172,"lon":-114.2698068,"elevationM":2298},{"id":"node:357940187","kind":"peak","name":"Trapper Peak","lat":45.8899191,"lon":-114.2975884,"elevationM":3081},{"id":"node:357940511","kind":"peak","name":"West Mountain","lat":45.627417,"lon":-114.3561987,"elevationM":2216},{"id":"node:357940619","kind":"peak","name":"Wiles Peak","lat":45.7451966,"lon":-114.1598053,"elevationM":2614},{"id":"node:357941378","kind":"peak","name":"Grouse Butte","lat":45.9590867,"lon":-114.2011978,"elevationM":1687},{"id":"node:358650567","kind":"peak","name":"Devils Point","lat":45.6326939,"lon":-114.6150956,"elevationM":2497},{"id":"node:358652136","kind":"peak","name":"Nez Perce Peak","lat":45.7315835,"lon":-114.5856507,"elevationM":2297},{"id":"node:358652625","kind":"peak","name":"Roundtop Mountain","lat":45.6943609,"lon":-114.5998176,"elevationM":2009},{"id":"node:358653805","kind":"peak","name":"Aggipah Mountain","lat":45.1538045,"lon":-114.6378694,"elevationM":2997},{"id":"node:358653818","kind":"peak","name":"Allan Mountain","lat":45.5949188,"lon":-114.0553566,"elevationM":2785},{"id":"node:358653869","kind":"peak","name":"Archer Mountain","lat":45.9196385,"lon":-114.9237201,"elevationM":2282},{"id":"node:358653900","kind":"peak","name":"Mount Aura","lat":45.8571386,"lon":-114.8523277,"elevationM":2060},{"id":"node:358653988","kind":"peak","name":"Bald Mountain","lat":45.4726952,"lon":-114.1986927,"elevationM":2322},{"id":"node:358654007","kind":"peak","name":"Baldy","lat":45.1443656,"lon":-114.0086816,"elevationM":2780},{"id":"node:358654158","kind":"peak","name":"Beaver Jack Mountain","lat":45.7429721,"lon":-114.6912098,"elevationM":2151},{"id":"node:358654298","kind":"peak","name":"Big Hill","lat":45.1413034,"lon":-114.7700952,"elevationM":2464},{"id":"node:358654360","kind":"peak","name":"Black Butte","lat":45.1813029,"lon":-114.850654,"elevationM":2649},{"id":"node:358654409","kind":"peak","name":"Blackbird Mountain","lat":45.1179736,"lon":-114.4156396,"elevationM":2757},{"id":"node:358654672","kind":"peak","name":"Burnt Knob","lat":45.7024143,"lon":-114.991776,"elevationM":2487},{"id":"node:358654676","kind":"peak","name":"Burnt Strip Mountain","lat":45.831584,"lon":-114.6537092,"elevationM":2285},{"id":"node:358654696","kind":"peak","name":"Butts Creek Point","lat":45.3618594,"lon":-114.7375971,"elevationM":2375},{"id":"node:358654711","kind":"peak","name":"Cabin Mountain","lat":45.3971361,"lon":-114.9462155,"elevationM":1981},{"id":"node:358654846","kind":"peak","name":"Cayuse Mountain","lat":45.7418611,"lon":-114.6370413,"elevationM":2007},{"id":"node:358654986","kind":"peak","name":"Cold Mountain","lat":45.2490803,"lon":-114.9489917,"elevationM":2464},{"id":"node:358655058","kind":"peak","name":"Copper Mountain","lat":45.3140841,"lon":-114.277305,"elevationM":2158},{"id":"node:358655092","kind":"peak","name":"Cottonwood Butte","lat":45.2885257,"lon":-114.7934314,"elevationM":2841},{"id":"node:358655189","kind":"peak","name":"Cub Point","lat":45.999641,"lon":-114.652877,"elevationM":2077},{"id":"node:358655195","kind":"peak","name":"Cuneo Point","lat":45.9499187,"lon":-114.5748186,"elevationM":2497},{"id":"node:358655227","kind":"peak","name":"Dave Lewis Peak","lat":45.0443583,"lon":-114.8295402,"elevationM":2815},{"id":"node:358655262","kind":"peak","name":"Deadtop Mountain","lat":45.674082,"lon":-114.8387145,"elevationM":2382},{"id":"node:358655358","kind":"peak","name":"Dismal Mountain","lat":45.3332471,"lon":-114.9373256,"elevationM":2161},{"id":"node:358655389","kind":"peak","name":"Dome Mountain","lat":45.2338049,"lon":-114.5223123,"elevationM":2834},{"id":"node:358655461","kind":"peak","name":"Dutchler Mountain","lat":45.4429728,"lon":-114.2409159,"elevationM":2146},{"id":"node:358655462","kind":"peak","name":"Dutchmans Hump","lat":45.239362,"lon":-114.2984161,"elevationM":1992},{"id":"node:358655476","kind":"peak","name":"Eagle Point","lat":45.8588051,"lon":-114.8770509,"elevationM":1646},{"id":"node:358655485","kind":"peak","name":"Eagle Rock","lat":45.9954734,"lon":-114.8164941,"elevationM":1447},{"id":"node:358655488","kind":"peak","name":"Eagles Nest","lat":45.3624172,"lon":-114.288139,"elevationM":1461},{"id":"node:358655542","kind":"peak","name":"Elevator Mountain","lat":45.9696397,"lon":-114.8317722,"elevationM":1221},{"id":"node:358655657","kind":"peak","name":"Farrow Mountain","lat":45.2635255,"lon":-114.8306546,"elevationM":2723},{"id":"node:358655680","kind":"peak","name":"Fire Mountain","lat":45.8121386,"lon":-114.8042698,"elevationM":2083},{"id":"node:358655877","kind":"peak","name":"Gant Mountain","lat":45.2340838,"lon":-114.3725852,"elevationM":2517},{"id":"node:358655881","kind":"peak","name":"Gardiner Peak","lat":45.969918,"lon":-114.7667695,"elevationM":2005},{"id":"node:358655897","kind":"peak","name":"Mount George","lat":45.9160293,"lon":-114.6264868,"elevationM":2352},{"id":"node:358655933","kind":"peak","name":"Goat Mountain","lat":45.2132489,"lon":-114.6137032,"elevationM":2929},{"id":"node:358655942","kind":"peak","name":"Goat Point","lat":45.3760256,"lon":-114.8370449,"elevationM":2150},{"id":"node:358656085","kind":"peak","name":"Grass Mountain","lat":45.3851916,"lon":-114.9498266,"elevationM":1892},{"id":"node:358656144","kind":"peak","name":"Green Mountain","lat":45.8268616,"lon":-114.6831545,"elevationM":2234},{"id":"node:358656250","kind":"peak","name":"Harrington Mountain","lat":45.5371364,"lon":-114.9303831,"elevationM":2492},{"id":"node:358656289","kind":"peak","name":"Haystack Mountain","lat":45.703805,"lon":-114.7459335,"elevationM":2093},{"id":"node:358656292","kind":"peak","name":"Haystack Mountain","lat":45.2851961,"lon":-114.1536893,"elevationM":2677},{"id":"node:358656317","kind":"peak","name":"Hells Half Acre Mountain","lat":45.6457494,"lon":-114.6284294,"elevationM":2472},{"id":"node:358656408","kind":"peak","name":"Horse Creek Butte","lat":45.4296378,"lon":-114.5042577,"elevationM":2539},{"id":"node:358656411","kind":"peak","name":"Horse Heaven","lat":45.2626936,"lon":-114.5462022,"elevationM":2455},{"id":"node:358656420","kind":"peak","name":"Horse Mountain","lat":45.1293581,"lon":-114.8795431,"elevationM":2482},{"id":"node:358656430","kind":"peak","name":"Horsejaw Mountain","lat":45.6765828,"lon":-114.7048209,"elevationM":2050},{"id":"node:358656477","kind":"peak","name":"Hungry Creek Point","lat":45.3563032,"lon":-114.8634345,"elevationM":2272},{"id":"node:358656575","kind":"peak","name":"Indian Peak","lat":45.4907514,"lon":-114.1084126,"elevationM":2359},{"id":"node:358656583","kind":"peak","name":"Indian Point","lat":45.2121394,"lon":-114.3939743,"elevationM":2575},{"id":"node:358656741","kind":"peak","name":"Jureano Mountain","lat":45.2038075,"lon":-114.2434133,"elevationM":2543},{"id":"node:358656854","kind":"peak","name":"Lake Mountain","lat":45.0204784,"lon":-114.0847928,"elevationM":2817},{"id":"node:358656888","kind":"peak","name":"Langdon Point","lat":45.6288047,"lon":-114.7314881,"elevationM":1923},{"id":"node:358657029","kind":"peak","name":"Little Pyramid","lat":45.778805,"lon":-114.8087143,"elevationM":2003},{"id":"node:358657092","kind":"peak","name":"Lonely Mountain","lat":45.7490822,"lon":-114.8592715,"elevationM":2054},{"id":"node:358657111","kind":"peak","name":"Long Tom Mountain","lat":45.3480651,"lon":-114.5782256,"elevationM":2515},{"id":"node:358657223","kind":"peak","name":"Magruder Mountain","lat":45.70686,"lon":-114.8231586,"elevationM":2257},{"id":"node:358657339","kind":"peak","name":"McEleny Mountain","lat":45.028806,"lon":-114.5445311,"elevationM":2723},{"id":"node:358657647","kind":"peak","name":"Napoleon Hill","lat":45.345197,"lon":-114.0045183,"elevationM":2258},{"id":"node:358657678","kind":"peak","name":"Nick Wynn Mountain","lat":45.7707497,"lon":-114.7570455,"elevationM":1758},{"id":"node:358657686","kind":"peak","name":"Nipple Knob","lat":45.9946413,"lon":-114.5698188,"elevationM":2577},{"id":"node:358657857","kind":"peak","name":"Mount Paloma","lat":45.9588075,"lon":-114.6070419,"elevationM":2544},{"id":"node:358657866","kind":"peak","name":"Papoose Peak","lat":45.2113033,"lon":-114.8153755,"elevationM":2728},{"id":"node:358657882","kind":"peak","name":"Parker Mountain","lat":45.4713042,"lon":-114.6645405,"elevationM":2589},{"id":"node:358657897","kind":"peak","name":"Patrol Point","lat":45.4321362,"lon":-114.9317709,"elevationM":1818},{"id":"node:358658038","kind":"peak","name":"Pole Mountain","lat":45.6888053,"lon":-114.6275963,"elevationM":2002},{"id":"node:358658125","kind":"peak","name":"Puddin Mountain","lat":45.112409,"lon":-114.6290799,"elevationM":2796},{"id":"node:358658145","kind":"peak","name":"Pyramid Mountain","lat":45.7738047,"lon":-114.840382,"elevationM":2358},{"id":"node:358658173","kind":"peak","name":"Quartzite Mountain","lat":45.0599181,"lon":-114.4470284,"elevationM":2658},{"id":"node:358658299","kind":"peak","name":"Red Rock Peak","lat":45.0001968,"lon":-114.4295265,"elevationM":2480},{"id":"node:358658381","kind":"peak","name":"Rocky Mountain","lat":45.5813079,"lon":-114.023689,"elevationM":2650},{"id":"node:358658402","kind":"peak","name":"Roots Knob","lat":45.3340802,"lon":-114.9898274,"elevationM":2129},{"id":"node:358658466","kind":"peak","name":"Runaway Point","lat":45.3435251,"lon":-114.9045468,"elevationM":2264},{"id":"node:358658469","kind":"peak","name":"Rush Creek Point","lat":45.0974012,"lon":-114.9344641,"elevationM":2199},{"id":"node:358658517","kind":"peak","name":"Salmon Mountain","lat":45.6169025,"lon":-114.8368733,"elevationM":2698},{"id":"node:358658609","kind":"peak","name":"Sheep Horn Mountain","lat":45.0418572,"lon":-114.9523221,"elevationM":2517},{"id":"node:358658933","kind":"peak","name":"Spot Mountain","lat":45.787138,"lon":-114.855105,"elevationM":2440},{"id":"node:358659024","kind":"peak","name":"Stormy Peak","lat":45.350751,"lon":-114.2120253,"elevationM":2432},{"id":"node:358659037","kind":"peak","name":"Stripe Mountain","lat":45.5132484,"lon":-114.7745443,"elevationM":2735},{"id":"node:358659113","kind":"peak","name":"Swan Peak","lat":45.0143664,"lon":-114.1928516,"elevationM":2553},{"id":"node:358659133","kind":"peak","name":"Swet Point","lat":45.5224148,"lon":-114.8295462,"elevationM":2591},{"id":"node:358659229","kind":"peak","name":"Thirteen Mountain","lat":45.5290819,"lon":-114.7625996,"elevationM":2739},{"id":"node:358659256","kind":"peak","name":"Three Prong Mountain","lat":45.772693,"lon":-114.9267743,"elevationM":2492},{"id":"node:358659298","kind":"peak","name":"Tincup Hill","lat":45.4726938,"lon":-114.4136995,"elevationM":2508},{"id":"node:358659430","kind":"peak","name":"Ulysses Mountain","lat":45.4296404,"lon":-114.1114675,"elevationM":2317},{"id":"node:358659484","kind":"peak","name":"Vance Mountain","lat":45.9118631,"lon":-114.4937047,"elevationM":2630},{"id":"node:358659487","kind":"peak","name":"Vance Point","lat":45.8999183,"lon":-114.5587066,"elevationM":2079},{"id":"node:358659577","kind":"peak","name":"Waugh Mountain","lat":45.4940816,"lon":-114.7926003,"elevationM":2683},{"id":"node:358659690","kind":"peak","name":"White Top Mountain","lat":45.7165814,"lon":-114.9551082,"elevationM":2358},{"id":"node:358659772","kind":"peak","name":"Witter Point","lat":45.5599151,"lon":-114.8103792,"elevationM":2427},{"id":"node:358659804","kind":"peak","name":"Wood Hump","lat":45.5515822,"lon":-114.6709302,"elevationM":2192},{"id":"node:358659827","kind":"peak","name":"Wylies Peak","lat":45.9824165,"lon":-114.9665003,"elevationM":2350},{"id":"node:358659931","kind":"peak","name":"Bad Luck Mountain","lat":45.8885287,"lon":-114.722323,"elevationM":1614},{"id":"node:358660379","kind":"peak","name":"Steep Hill","lat":45.6593609,"lon":-114.5075923,"elevationM":2430},{"id":"node:358661303","kind":"peak","name":"Blue Joint","lat":45.5624157,"lon":-114.5728716,"elevationM":2614},{"id":"node:358661481","kind":"peak","name":"Cathedral Rock","lat":45.1342822,"lon":-114.547459,"elevationM":2865},{"id":"node:358661490","kind":"peak","name":"Cayuse Point","lat":45.4560265,"lon":-114.5684264,"elevationM":2302},{"id":"node:358661635","kind":"peak","name":"Dennis Mountain","lat":45.5668588,"lon":-114.9198276,"elevationM":2346},{"id":"node:358661664","kind":"peak","name":"Eagan Point","lat":45.0890809,"lon":-114.8059289,"elevationM":2045},{"id":"node:358662038","kind":"peak","name":"Irishmans Rock","lat":45.541862,"lon":-114.1845263,"elevationM":2295},{"id":"node:358662238","kind":"peak","name":"Mount McGuire","lat":45.1740825,"lon":-114.6020355,"elevationM":3075},{"id":"node:358662325","kind":"peak","name":"Mormon Mountain","lat":45.0154141,"lon":-114.881151,"elevationM":2902},{"id":"node:358662398","kind":"peak","name":"Phelan Mountain","lat":45.1365876,"lon":-114.0720169,"elevationM":2714},{"id":"node:358662514","kind":"peak","name":"Salamander Butte","lat":45.6982486,"lon":-114.8595488,"elevationM":1840},{"id":"node:358662621","kind":"peak","name":"Mist Peak","lat":45.5257488,"lon":-114.6034279,"elevationM":2626},{"id":"node:358662635","kind":"peak","name":"Stoddard Creek Point","lat":45.2268593,"lon":-114.7331509,"elevationM":2259},{"id":"node:358662739","kind":"peak","name":"Twin Peak","lat":45.2718593,"lon":-114.750652,"elevationM":2816},{"id":"node:358662786","kind":"peak","name":"Wilson Mountain","lat":45.0879715,"lon":-114.6250902,"elevationM":2914},{"id":"node:358662881","kind":"peak","name":"Beehive","lat":45.221027,"lon":-114.5509239,"elevationM":2922},{"id":"node:358662969","kind":"peak","name":"Box Car Mountain","lat":45.9263049,"lon":-114.9681664,"elevationM":2283},{"id":"node:358663180","kind":"peak","name":"Eakin Point","lat":45.5029704,"lon":-114.8173234,"elevationM":2470},{"id":"node:358663267","kind":"peak","name":"Goat Mountain","lat":45.6063041,"lon":-114.8245467,"elevationM":2596},{"id":"node:358663429","kind":"peak","name":"Lodgepole Hump","lat":45.6960261,"lon":-114.9014949,"elevationM":2206},{"id":"node:358663443","kind":"peak","name":"Lost Packer Peak","lat":45.4799149,"lon":-114.7945446,"elevationM":2639},{"id":"node:358663732","kind":"peak","name":"Sabe Mountain","lat":45.6574146,"lon":-114.9359402,"elevationM":2507},{"id":"node:358663779","kind":"peak","name":"Sheepeater Point","lat":45.388112,"lon":-114.3599731,"elevationM":2380},{"id":"node:358663980","kind":"peak","name":"Vinegar Hill","lat":45.1522833,"lon":-114.9424699,"elevationM":1796},{"id":"node:358664014","kind":"peak","name":"West Horse Point","lat":45.4246372,"lon":-114.7662098,"elevationM":2249},{"id":"node:358664160","kind":"peak","name":"Point of Rock","lat":45.324918,"lon":-114.1806351,"elevationM":2520},{"id":"node:358665604","kind":"peak","name":"Sagebrush Mountain","lat":45.2704974,"lon":-114.4455686,"elevationM":2177},{"id":"node:358666223","kind":"peak","name":"Square Top","lat":45.4729708,"lon":-114.6775965,"elevationM":2545},{"id":"node:358666236","kind":"peak","name":"Sugar Loaf","lat":45.069361,"lon":-114.5667547,"elevationM":2755},{"id":"node:358666371","kind":"peak","name":"Archer Point","lat":45.9296391,"lon":-114.8651067,"elevationM":1541},{"id":"node:3923641577","kind":"peak","name":"Cooper Point","lat":45.8286508,"lon":-114.5556825,"elevationM":2497},{"id":"node:8274791134","kind":"peak","name":"Elkhorn Mountain","lat":45.4833488,"lon":-114.8802996,"elevationM":null}]}