{"tileKey":"la_p38_lo_m123","version":"v1-1775891056926","entries":[{"id":"node:323060601","kind":"peak","name":"The Saddle","lat":38.5791863,"lon":-122.4227354,"elevationM":null},{"id":"node:358760970","kind":"peak","name":"Anderson Mountain","lat":38.6599048,"lon":-122.2138642,"elevationM":552},{"id":"node:358760974","kind":"peak","name":"Anderson Mountain","lat":38.9590634,"lon":-122.2960862,"elevationM":579},{"id":"node:358761026","kind":"peak","name":"Antonio Mountain","lat":38.1932519,"lon":-122.7347109,"elevationM":356},{"id":"node:358761121","kind":"peak","name":"Arrowhead Mountain","lat":38.2740818,"lon":-122.4002557,"elevationM":295},{"id":"node:358761306","kind":"peak","name":"Bald Hills","lat":38.600742,"lon":-122.7113767,"elevationM":404},{"id":"node:358761339","kind":"peak","name":"Bald Mountain","lat":38.4293553,"lon":-122.4933141,"elevationM":689},{"id":"node:358761343","kind":"peak","name":"Bald Mountain","lat":38.4573979,"lon":-122.5095234,"elevationM":832},{"id":"node:358761346","kind":"peak","name":"Bald Mountain","lat":38.7868462,"lon":-122.1230284,"elevationM":552},{"id":"node:358761352","kind":"peak","name":"Bald Mountain","lat":38.9787857,"lon":-122.6449846,"elevationM":660},{"id":"node:358761395","kind":"peak","name":"Baldy Mountain","lat":38.551574,"lon":-122.3260883,"elevationM":626},{"id":"node:358761398","kind":"peak","name":"Baldy Mountain","lat":38.9290642,"lon":-122.401088,"elevationM":671},{"id":"node:358761419","kind":"peak","name":"Bally Peak","lat":38.9773964,"lon":-122.5597027,"elevationM":678},{"id":"node:358761443","kind":"peak","name":"Barnabe Mountain","lat":38.0267765,"lon":-122.71653,"elevationM":447},{"id":"node:358761473","kind":"peak","name":"Barton Hill","lat":38.6668491,"lon":-122.3152552,"elevationM":316},{"id":"node:358761730","kind":"peak","name":"Bennett Mountain","lat":38.4129677,"lon":-122.6238735,"elevationM":573},{"id":"node:358761778","kind":"peak","name":"Berryessa Peak","lat":38.6637935,"lon":-122.1899747,"elevationM":927},{"id":"node:358761876","kind":"peak","name":"Big Hill","lat":38.7004631,"lon":-122.7361012,"elevationM":317},{"id":"node:358761943","kind":"peak","name":"Billys Hill","lat":38.948936,"lon":-122.3387348,"elevationM":539},{"id":"node:358761988","kind":"peak","name":"Bishop Mountain","lat":38.8237893,"lon":-122.4660901,"elevationM":644},{"id":"node:358762047","kind":"peak","name":"Black Mountain","lat":38.0804774,"lon":-122.7655451,"elevationM":386},{"id":"node:358762062","kind":"peak","name":"Black Mountain","lat":38.8071235,"lon":-122.2419202,"elevationM":717},{"id":"node:358762351","kind":"peak","name":"Bradford Mountain","lat":38.684077,"lon":-122.9733322,"elevationM":373},{"id":"node:358762522","kind":"peak","name":"Browns Hill","lat":38.6229618,"lon":-122.5402597,"elevationM":825},{"id":"node:358762572","kind":"peak","name":"Brushy Sky High","lat":38.9182311,"lon":-122.5055341,"elevationM":968},{"id":"node:358762675","kind":"peak","name":"Bull Hill","lat":38.3593559,"lon":-122.1183034,"elevationM":210},{"id":"node:358762729","kind":"peak","name":"Burdell Mountain","lat":38.1460301,"lon":-122.5913716,"elevationM":474},{"id":"node:358762802","kind":"peak","name":"Bush Hill","lat":38.0418655,"lon":-122.2060789,"elevationM":208},{"id":"node:358762828","kind":"peak","name":"Buzzard Peak","lat":38.4665772,"lon":-122.5999836,"elevationM":463},{"id":"node:358763023","kind":"peak","name":"Canterbury Mountain","lat":38.6429604,"lon":-122.1180283,"elevationM":743},{"id":"node:358763201","kind":"peak","name":"Castle Rock","lat":38.7432405,"lon":-122.7544358,"elevationM":804},{"id":"node:358763432","kind":"peak","name":"Chalk Point","lat":38.6660182,"lon":-122.6710981,"elevationM":668},{"id":"node:358763515","kind":"peak","name":"Childers Peak","lat":38.8424016,"lon":-122.6299852,"elevationM":655},{"id":"node:358763786","kind":"peak","name":"Cloverdale Peak","lat":38.8832359,"lon":-122.9938883,"elevationM":890},{"id":"node:358764715","kind":"peak","name":"Diamond Mountain","lat":38.539353,"lon":-122.5858165,"elevationM":716},{"id":"node:358764799","kind":"peak","name":"Doe Rock","lat":38.8918464,"lon":-122.9699985,"elevationM":606},{"id":"node:358765174","kind":"peak","name":"Edgar Peak","lat":38.6151831,"lon":-122.0960832,"elevationM":682},{"id":"node:358765383","kind":"peak","name":"Elkhorn Peak","lat":38.2307492,"lon":-122.1971923,"elevationM":366},{"id":"node:358765482","kind":"peak","name":"English Hill","lat":38.3451689,"lon":-122.858193,"elevationM":281},{"id":"node:358765510","kind":"peak","name":"Ephlin Hill","lat":38.3526893,"lon":-122.1024696,"elevationM":291},{"id":"node:358765897","kind":"peak","name":"Fitch Mountain","lat":38.6185209,"lon":-122.8408264,"elevationM":302},{"id":"node:358766494","kind":"peak","name":"Mount George","lat":38.3418573,"lon":-122.2199724,"elevationM":572},{"id":"node:358766505","kind":"peak","name":"Geyser Peak","lat":38.7646296,"lon":-122.8449946,"elevationM":1053},{"id":"node:358766524","kind":"peak","name":"Gilliam Rock","lat":38.9224004,"lon":-122.9438863,"elevationM":720},{"id":"node:358766534","kind":"peak","name":"Glascock Mountain","lat":38.9198978,"lon":-122.3035867,"elevationM":733},{"id":"node:358766618","kind":"peak","name":"Goat Roost Rock","lat":38.6837952,"lon":-122.6444305,"elevationM":984},{"id":"node:358766858","kind":"peak","name":"Greeg Mountain","lat":38.522408,"lon":-122.3358107,"elevationM":554},{"id":"node:358767128","kind":"peak","name":"Hammock Hill","lat":38.1632526,"lon":-122.7233214,"elevationM":276},{"id":"node:358767136","kind":"peak","name":"Mount Hannah","lat":38.8871234,"lon":-122.7461012,"elevationM":1213},{"id":"node:358767160","kind":"peak","name":"Harbin Mountain","lat":38.791848,"lon":-122.6463753,"elevationM":785},{"id":"node:358767449","kind":"peak","name":"Hicks Mountain","lat":38.1293646,"lon":-122.7258214,"elevationM":467},{"id":"node:358767469","kind":"peak","name":"High Point","lat":38.6185172,"lon":-122.5233146,"elevationM":824},{"id":"node:358767644","kind":"peak","name":"Hogback Mountain","lat":38.3440798,"lon":-122.428868,"elevationM":497},{"id":"node:358767763","kind":"peak","name":"Mount Hood","lat":38.4599104,"lon":-122.5541491,"elevationM":833},{"id":"node:358767859","kind":"peak","name":"Howard Peak","lat":38.9735433,"lon":-122.7708768,"elevationM":1306},{"id":"node:358768089","kind":"peak","name":"Iron Mountain","lat":38.5504629,"lon":-122.2683094,"elevationM":694},{"id":"node:358768202","kind":"peak","name":"Jackson Peak","lat":38.6207388,"lon":-122.1971969,"elevationM":552},{"id":"node:358768228","kind":"peak","name":"Mount Jackson","lat":38.5393566,"lon":-122.9602754,"elevationM":449},{"id":"node:358768373","kind":"peak","name":"Jim Dollar Mountain","lat":38.8437887,"lon":-122.4783122,"elevationM":728},{"id":"node:358769237","kind":"peak","name":"Lemon Hill","lat":38.3493562,"lon":-122.1205255,"elevationM":318},{"id":"node:358769532","kind":"peak","name":"Little Sugarloaf Peak","lat":38.5235189,"lon":-122.2510868,"elevationM":491},{"id":"node:358769628","kind":"peak","name":"Loma Alta","lat":38.0243667,"lon":-122.6124816,"elevationM":484},{"id":"node:358769944","kind":"peak","name":"Lytle Mountain","lat":38.9465637,"lon":-122.2944196,"elevationM":636},{"id":"node:358770427","kind":"peak","name":"McCray Mountain","lat":38.5638011,"lon":-122.9933325,"elevationM":585},{"id":"node:358770455","kind":"peak","name":"McGuire Peak","lat":38.7074047,"lon":-122.5749834,"elevationM":796},{"id":"node:358770549","kind":"peak","name":"Meacham Hill","lat":38.2968601,"lon":-122.6991542,"elevationM":150},{"id":"node:358770782","kind":"peak","name":"Milliken Peak","lat":38.2740818,"lon":-122.3616431,"elevationM":220},{"id":"node:358771083","kind":"peak","name":"Monument Peak","lat":38.9107343,"lon":-122.9558312,"elevationM":1001},{"id":"node:358772002","kind":"peak","name":"Okell Hill","lat":38.3265791,"lon":-122.1221919,"elevationM":342},{"id":"node:358772048","kind":"peak","name":"Mount Olive","lat":38.9318439,"lon":-122.7924916,"elevationM":744},{"id":"node:358772263","kind":"peak","name":"Pacheco Hill","lat":38.0426993,"lon":-122.5313666,"elevationM":129},{"id":"node:358772602","kind":"peak","name":"Peter Hill","lat":38.673519,"lon":-122.7338785,"elevationM":257},{"id":"node:358772613","kind":"peak","name":"Petticoat Mountain","lat":38.8460109,"lon":-122.4924791,"elevationM":649},{"id":"node:358772688","kind":"peak","name":"Pilot Knob","lat":38.6982399,"lon":-122.6747097,"elevationM":680},{"id":"node:358772691","kind":"peak","name":"Pilot Knob","lat":38.7171283,"lon":-122.6680429,"elevationM":709},{"id":"node:358772752","kind":"peak","name":"Pine Mountain","lat":38.7315732,"lon":-122.7063781,"elevationM":1091},{"id":"node:358772833","kind":"peak","name":"Mount Pisgah","lat":38.3446353,"lon":-122.4624802,"elevationM":378},{"id":"node:358772903","kind":"peak","name":"Pocket Peak","lat":38.7829625,"lon":-122.8944407,"elevationM":675},{"id":"node:358773148","kind":"peak","name":"Queens Peak","lat":38.5807452,"lon":-122.987499,"elevationM":584},{"id":"node:358773290","kind":"peak","name":"Red Hill","lat":38.1501972,"lon":-122.679153,"elevationM":376},{"id":"node:358773296","kind":"peak","name":"Red Hill","lat":38.6410179,"lon":-122.6141514,"elevationM":650},{"id":"node:358773300","kind":"peak","name":"Red Hill","lat":38.7293518,"lon":-122.7574914,"elevationM":768},{"id":"node:358773327","kind":"peak","name":"Red Mountain","lat":38.4524103,"lon":-122.5099812,"elevationM":777},{"id":"node:358773330","kind":"peak","name":"Red Mountain","lat":38.4724091,"lon":-122.2441417,"elevationM":417},{"id":"node:358773375","kind":"peak","name":"Red Rock","lat":38.9079568,"lon":-122.9638871,"elevationM":981},{"id":"node:358773887","kind":"peak","name":"Round Mountain","lat":38.9504525,"lon":-122.4380327,"elevationM":570},{"id":"node:358773923","kind":"volcano","name":"Roundtop Mountain","lat":38.9157326,"lon":-122.663875,"elevationM":692},{"id":"node:358774174","kind":"peak","name":"Mount Saint Helena","lat":38.6693509,"lon":-122.6333189,"elevationM":1319},{"id":"node:358774810","kind":"peak","name":"Schocken Hill","lat":38.3046364,"lon":-122.4519243,"elevationM":190},{"id":"node:358774833","kind":"peak","name":"Schoolhouse Point","lat":38.6890731,"lon":-122.6522087,"elevationM":804},{"id":"node:358774862","kind":"peak","name":"Scribner Mountain","lat":38.6343497,"lon":-122.2108084,"elevationM":580},{"id":"node:358774917","kind":"peak","name":"Seigler Mountain","lat":38.8740681,"lon":-122.7105441,"elevationM":1108},{"id":"node:358775206","kind":"peak","name":"Shroyer Mountain","lat":38.0651994,"lon":-122.6699851,"elevationM":442},{"id":"node:358775283","kind":"peak","name":"Signal Hill","lat":38.3757441,"lon":-122.0844139,"elevationM":726},{"id":"node:358775361","kind":"peak","name":"Sky High","lat":38.9118424,"lon":-122.5122012,"elevationM":859},{"id":"node:358775469","kind":"peak","name":"Atlas Peak","lat":38.4507431,"lon":-122.2627529,"elevationM":814},{"id":"node:358775578","kind":"peak","name":"Castle Peak","lat":38.3968559,"lon":-122.2777526,"elevationM":392},{"id":"node:358775639","kind":"peak","name":"Devils Head Peak","lat":38.7476805,"lon":-122.3952566,"elevationM":269},{"id":"node:358775741","kind":"peak","name":"Goat Hill","lat":38.7393471,"lon":-122.4849801,"elevationM":534},{"id":"node:358775772","kind":"peak","name":"Haystack","lat":38.4418546,"lon":-122.3169207,"elevationM":474},{"id":"node:358776165","kind":"peak","name":"Snell Peak","lat":38.7171256,"lon":-122.4510907,"elevationM":548},{"id":"node:358776176","kind":"peak","name":"Snelly Peak","lat":38.7243491,"lon":-122.5958177,"elevationM":646},{"id":"node:358776239","kind":"peak","name":"Sonoma Mountain","lat":38.3229698,"lon":-122.5749837,"elevationM":697},{"id":"node:358776719","kind":"peak","name":"Sugarloaf","lat":38.2635263,"lon":-122.2210823,"elevationM":499},{"id":"node:358776729","kind":"peak","name":"Sugarloaf","lat":38.7301809,"lon":-122.113584,"elevationM":213},{"id":"node:358776750","kind":"peak","name":"Sugarloaf Hill","lat":38.6568514,"lon":-122.6566531,"elevationM":508},{"id":"node:358776763","kind":"peak","name":"Sugarloaf Mountain","lat":38.6390724,"lon":-122.5302593,"elevationM":906},{"id":"node:358776778","kind":"peak","name":"Sugarloaf Peak","lat":38.5307409,"lon":-122.2460867,"elevationM":568},{"id":"node:358776787","kind":"peak","name":"Suisun Hill","lat":38.2146368,"lon":-122.0196875,"elevationM":61},{"id":"node:358776792","kind":"peak","name":"Sulphur Springs Mountain","lat":38.1513069,"lon":-122.1916356,"elevationM":331},{"id":"node:358777009","kind":"peak","name":"Table Mountain","lat":38.6801826,"lon":-122.5360929,"elevationM":857},{"id":"node:358777021","kind":"peak","name":"Table Rock","lat":38.6429619,"lon":-122.5797056,"elevationM":722},{"id":"node:358777091","kind":"peak","name":"Taylor Mountain","lat":38.400746,"lon":-122.6747084,"elevationM":428},{"id":"node:358777171","kind":"peak","name":"The Beehive","lat":38.6040729,"lon":-122.4983138,"elevationM":833},{"id":"node:358777234","kind":"peak","name":"The Trees","lat":38.6532381,"lon":-122.1652518,"elevationM":808},{"id":"node:358777310","kind":"peak","name":"Three Peaks","lat":38.1371429,"lon":-122.8013801,"elevationM":340},{"id":"node:358777315","kind":"peak","name":"Three Peaks","lat":38.6139155,"lon":-122.4965644,"elevationM":872},{"id":"node:358777318","kind":"peak","name":"Three Peaks","lat":38.687683,"lon":-122.5744277,"elevationM":794},{"id":"node:358777563","kind":"peak","name":"Turner Mountain","lat":38.7351809,"lon":-122.3572004,"elevationM":545},{"id":"node:358777616","kind":"peak","name":"Twin Peaks","lat":38.6485166,"lon":-122.5327594,"elevationM":833},{"id":"node:358777630","kind":"peak","name":"Twin Sisters","lat":38.3062781,"lon":-122.1715757,"elevationM":659},{"id":"node:358778099","kind":"peak","name":"Veterans Peak","lat":38.3832453,"lon":-122.3771998,"elevationM":356},{"id":"node:358778865","kind":"peak","name":"Wiggins Hill","lat":38.2701944,"lon":-122.7330442,"elevationM":137},{"id":"node:358778879","kind":"peak","name":"Wild Cow Mountain","lat":38.5851837,"lon":-122.1119168,"elevationM":685},{"id":"node:358778885","kind":"peak","name":"Wild Hog Hill","lat":38.5596337,"lon":-122.9202738,"elevationM":334},{"id":"node:358778923","kind":"peak","name":"Wildcat Mountain","lat":38.1943616,"lon":-122.4738683,"elevationM":197},{"id":"node:358795496","kind":"peak","name":"Sugarloaf Hill","lat":38.2410296,"lon":-122.9591654,"elevationM":67},{"id":"node:358795586","kind":"peak","name":"Dunns Peak","lat":38.3965764,"lon":-122.012468,"elevationM":241},{"id":"node:358795622","kind":"peak","name":"Point Reyes Hill","lat":38.0796456,"lon":-122.8686048,"elevationM":408},{"id":"node:358795637","kind":"peak","name":"Putnam Peak","lat":38.4454642,"lon":-122.0421917,"elevationM":349},{"id":"node:358795649","kind":"peak","name":"Mount Saint John","lat":38.4379662,"lon":-122.4605355,"elevationM":713},{"id":"node:358796025","kind":"volcano","name":"Buckingham Peak","lat":38.9895503,"lon":-122.7691326,"elevationM":1200},{"id":"node:358796132","kind":"peak","name":"Mount Konocti","lat":38.9747249,"lon":-122.7655055,"elevationM":1307},{"id":"node:358796306","kind":"peak","name":"Mount Vaca","lat":38.4001881,"lon":-122.1060815,"elevationM":857},{"id":"node:358796315","kind":"peak","name":"Mount Vision","lat":38.0888121,"lon":-122.8741606,"elevationM":391},{"id":"node:358796346","kind":"peak","name":"Mount Wittenberg","lat":38.0395795,"lon":-122.8218476,"elevationM":428},{"id":"node:358796348","kind":"peak","name":"Wright Peak","lat":38.9746729,"lon":-122.7655126,"elevationM":1310},{"id":"node:358796357","kind":"peak","name":"Black Mountain","lat":38.7449077,"lon":-122.8072155,"elevationM":950},{"id":"node:358796919","kind":"peak","name":"Black Mountain","lat":38.5263009,"lon":-122.9261071,"elevationM":401},{"id":"node:358803859","kind":"peak","name":"Counterfeit Hill","lat":38.9429544,"lon":-122.7416562,"elevationM":574},{"id":"node:358803953","kind":"peak","name":"Home Hill","lat":38.240194,"lon":-122.2974735,"elevationM":22},{"id":"node:358804032","kind":"peak","name":"Oat Hill","lat":38.1846398,"lon":-122.2635825,"elevationM":80},{"id":"node:358804034","kind":"peak","name":"Oat Hill","lat":38.684071,"lon":-122.5147031,"elevationM":635},{"id":"node:358804043","kind":"peak","name":"Perini Hill","lat":38.8765673,"lon":-122.6527637,"elevationM":768},{"id":"node:358804176","kind":"peak","name":"Sugarloaf","lat":38.9404546,"lon":-122.7508232,"elevationM":651},{"id":"node:358805441","kind":"peak","name":"Mahnke Peak","lat":38.862871,"lon":-122.8545443,"elevationM":1085},{"id":"node:358805474","kind":"peak","name":"Jim Davis Peak","lat":38.7660131,"lon":-122.4899799,"elevationM":431},{"id":"node:358805979","kind":"peak","name":"Bald Hill","lat":38.6101846,"lon":-122.5597048,"elevationM":508},{"id":"node:358806113","kind":"peak","name":"Bismark Knob","lat":38.358537,"lon":-122.4401604,"elevationM":694},{"id":"node:358806124","kind":"peak","name":"Black Peak","lat":38.6137985,"lon":-122.8105473,"elevationM":282},{"id":"node:358806143","kind":"peak","name":"Boggs Mountain","lat":38.8151589,"lon":-122.6818064,"elevationM":1139},{"id":"node:358806170","kind":"peak","name":"Buck Mountain","lat":38.9271197,"lon":-122.4402552,"elevationM":839},{"id":"node:358806189","kind":"peak","name":"Burned Mountain","lat":38.796572,"lon":-122.7730474,"elevationM":905},{"id":"node:358806226","kind":"peak","name":"Chalk Hill","lat":38.6037982,"lon":-122.7772125,"elevationM":84},{"id":"node:358806229","kind":"peak","name":"Chalk Mountain","lat":38.5593533,"lon":-122.6683192,"elevationM":428},{"id":"node:358806245","kind":"peak","name":"China Peak","lat":38.8629553,"lon":-122.1910851,"elevationM":344},{"id":"node:358806253","kind":"peak","name":"Clark Peak","lat":38.9839221,"lon":-122.794549,"elevationM":839},{"id":"node:358806255","kind":"peak","name":"Cobb Mountain","lat":38.8074045,"lon":-122.740546,"elevationM":1440},{"id":"node:358806264","kind":"peak","name":"Cooks Peak","lat":38.3910241,"lon":-122.6774863,"elevationM":337},{"id":"node:358806281","kind":"peak","name":"Coyote Knoll","lat":38.5504671,"lon":-122.9169402,"elevationM":199},{"id":"node:358806333","kind":"peak","name":"Deer Knoll","lat":38.714908,"lon":-122.7905479,"elevationM":243},{"id":"node:358806341","kind":"peak","name":"Devils Kitchen","lat":38.5785198,"lon":-122.6824866,"elevationM":277},{"id":"node:358806366","kind":"peak","name":"Dos Piedras","lat":38.2690836,"lon":-122.7927689,"elevationM":48},{"id":"node:358806384","kind":"peak","name":"Dunnigan Hill","lat":38.811012,"lon":-122.3788668,"elevationM":462},{"id":"node:358806444","kind":"peak","name":"Flag Peak","lat":38.6968502,"lon":-122.6285967,"elevationM":841},{"id":"node:358806446","kind":"peak","name":"Flat Top","lat":38.6062951,"lon":-122.5022027,"elevationM":832},{"id":"node:358806469","kind":"peak","name":"Glass Mountain","lat":38.5307414,"lon":-122.4799802,"elevationM":184},{"id":"node:358806507","kind":"peak","name":"Grassy Hill","lat":38.6162952,"lon":-122.5294259,"elevationM":736},{"id":"node:358806529","kind":"peak","name":"Grizzly Peak","lat":38.8793433,"lon":-122.4560893,"elevationM":916},{"id":"node:358806539","kind":"peak","name":"Grooms Hill","lat":38.7326831,"lon":-122.6383196,"elevationM":476},{"id":"node:358806595","kind":"peak","name":"Howell Mountain","lat":38.5802188,"lon":-122.4313836,"elevationM":568},{"id":"node:358806634","kind":"peak","name":"Inspiration Point","lat":38.5957397,"lon":-122.4677577,"elevationM":662},{"id":"node:358806701","kind":"peak","name":"Langs Peak","lat":38.900454,"lon":-122.3538654,"elevationM":809},{"id":"node:358806739","kind":"peak","name":"Little Mountain","lat":38.11742,"lon":-122.6263726,"elevationM":251},{"id":"node:358806786","kind":"peak","name":"Lookout Point","lat":38.5937954,"lon":-122.4760912,"elevationM":665},{"id":"node:358806919","kind":"peak","name":"Nob Hill","lat":38.0063111,"lon":-122.30497,"elevationM":44},{"id":"node:358806943","kind":"peak","name":"Novato Heights","lat":38.092976,"lon":-122.5874816,"elevationM":125},{"id":"node:358806981","kind":"peak","name":"Oat Hill","lat":38.835178,"lon":-122.4088669,"elevationM":639},{"id":"node:358806990","kind":"peak","name":"Old Baldy","lat":38.6129616,"lon":-122.504425,"elevationM":836},{"id":"node:358807108","kind":"peak","name":"Pine Mountain","lat":38.8557371,"lon":-122.9533313,"elevationM":897},{"id":"node:358807114","kind":"peak","name":"Mount Pisgah","lat":38.4288027,"lon":-122.9036063,"elevationM":132},{"id":"node:358807121","kind":"peak","name":"Potato Hill","lat":38.6190727,"lon":-122.5166477,"elevationM":771},{"id":"node:358807132","kind":"peak","name":"Quackenbush Mountain","lat":38.9615638,"lon":-122.5947046,"elevationM":649},{"id":"node:358807177","kind":"peak","name":"Redwood Hill","lat":38.5349098,"lon":-122.7197095,"elevationM":338},{"id":"node:358807198","kind":"peak","name":"Rocky Mountain","lat":38.5615787,"lon":-122.9791653,"elevationM":524},{"id":"node:358807208","kind":"peak","name":"Round Mountain","lat":38.8498997,"lon":-122.430256,"elevationM":652},{"id":"node:358807243","kind":"peak","name":"Schoolteacher Hill","lat":38.957953,"lon":-122.6185946,"elevationM":510},{"id":"node:358807246","kind":"peak","name":"Sentinel Hill","lat":38.5624073,"lon":-122.4483129,"elevationM":576},{"id":"node:358807301","kind":"peak","name":"Bell Mountain","lat":38.6060201,"lon":-122.7508226,"elevationM":193},{"id":"node:358807400","kind":"peak","name":"South Peak","lat":38.9690645,"lon":-122.7719349,"elevationM":1236},{"id":"node:358807435","kind":"peak","name":"Steiger Hill","lat":38.3987984,"lon":-122.0033011,"elevationM":195},{"id":"node:358807449","kind":"peak","name":"Stony Butte","lat":38.3199145,"lon":-122.6185961,"elevationM":271},{"id":"node:358807470","kind":"peak","name":"Sugarloaf","lat":38.2532514,"lon":-122.9599988,"elevationM":145},{"id":"node:358807472","kind":"peak","name":"Sugarloaf","lat":38.5393534,"lon":-122.6316513,"elevationM":507},{"id":"node:358807475","kind":"peak","name":"Sugarloaf","lat":38.7549052,"lon":-122.6622096,"elevationM":708},{"id":"node:358807540","kind":"peak","name":"Telegraph Hill","lat":38.5715757,"lon":-122.7008204,"elevationM":387},{"id":"node:358807561","kind":"peak","name":"The Cedars","lat":38.7912903,"lon":-122.4369233,"elevationM":344},{"id":"node:358807642","kind":"peak","name":"Twin Sisters","lat":38.8854544,"lon":-122.4083108,"elevationM":770},{"id":"node:358807666","kind":"peak","name":"Vallejo Heights","lat":38.1168638,"lon":-122.265526,"elevationM":68},{"id":"node:358807671","kind":"peak","name":"Mount Veeder","lat":38.3793566,"lon":-122.4477575,"elevationM":817},{"id":"node:358807679","kind":"peak","name":"Vine Hill","lat":38.4751901,"lon":-122.8641598,"elevationM":105},{"id":"node:358807696","kind":"peak","name":"Watson Range","lat":38.7960123,"lon":-122.4724794,"elevationM":349},{"id":"node:358807722","kind":"peak","name":"Windy Point","lat":38.6440716,"lon":-122.1602517,"elevationM":865},{"id":"node:358831611","kind":"peak","name":"Brushy Peaks","lat":38.4479659,"lon":-122.4819249,"elevationM":672},{"id":"node:358832341","kind":"peak","name":"Coyote Peak","lat":38.5428903,"lon":-122.5379551,"elevationM":345},{"id":"node:358832707","kind":"peak","name":"Deer Point","lat":38.0418668,"lon":-122.7263766,"elevationM":285},{"id":"node:358833173","kind":"peak","name":"Cherry Hill","lat":38.1126975,"lon":-122.5502581,"elevationM":138},{"id":"node:358833224","kind":"peak","name":"Bullet Hill","lat":38.0079779,"lon":-122.4871971,"elevationM":14},{"id":"node:358833226","kind":"peak","name":"Chicken Coop Hill","lat":38.0071445,"lon":-122.4824747,"elevationM":20},{"id":"node:358833238","kind":"peak","name":"Turtle Back","lat":38.0090889,"lon":-122.4908083,"elevationM":37},{"id":"node:358860989","kind":"peak","name":"Moon Mountain","lat":38.3477778,"lon":-122.445,"elevationM":531},{"id":"node:424865778","kind":"peak","name":"Buzzard's Roost","lat":38.6020717,"lon":-122.4478714,"elevationM":null},{"id":"node:2327750884","kind":"peak","name":"Bliss Hill","lat":38.2516616,"lon":-122.411014,"elevationM":null},{"id":"node:3356570334","kind":"peak","name":"Red Top","lat":38.210276,"lon":-122.15238,"elevationM":70},{"id":"node:3500136748","kind":"peak","name":"Little Blue Ridge","lat":38.9067986,"lon":-122.4162872,"elevationM":null},{"id":"node:3827571168","kind":"peak","name":"Coyote Peak","lat":38.1862539,"lon":-122.8236493,"elevationM":null},{"id":"node:3827571890","kind":"peak","name":"Walker Peak","lat":38.1624696,"lon":-122.8306381,"elevationM":null},{"id":"node:3827577957","kind":"peak","name":"Echo Rock","lat":38.1652484,"lon":-122.8234092,"elevationM":null},{"id":"node:4578071701","kind":"peak","name":"Haswell Peak","lat":38.9133424,"lon":-122.2601296,"elevationM":null},{"id":"node:4867008706","kind":"peak","name":"Red Hill","lat":38.4819072,"lon":-122.5483252,"elevationM":585},{"id":"node:6498726083","kind":"peak","name":"Conn Peak","lat":38.493752,"lon":-122.3588931,"elevationM":null},{"id":"node:9427170960","kind":"peak","name":"River Overlook","lat":38.4746071,"lon":-122.9907607,"elevationM":null},{"id":"node:9429264041","kind":"peak","name":"Lookout Mountain","lat":38.4719796,"lon":-122.9989332,"elevationM":null},{"id":"node:9457161166","kind":"peak","name":"High Point","lat":38.4611938,"lon":-122.9749207,"elevationM":null},{"id":"node:10224654958","kind":"peak","name":"Mount Saint Helena South Peak","lat":38.6570017,"lon":-122.616486,"elevationM":1220},{"id":"node:10728381589","kind":"peak","name":"Big Rock Ridge","lat":38.0591947,"lon":-122.604294,"elevationM":575},{"id":"node:10878978039","kind":"peak","name":"Franklin Peak","lat":38.0196228,"lon":-122.2048688,"elevationM":271},{"id":"node:10915545408","kind":"peak","name":"Nadeen Peak","lat":38.0288646,"lon":-122.1975325,"elevationM":null},{"id":"node:11360427069","kind":"peak","name":"Suribachi Hill","lat":38.0483702,"lon":-122.2378868,"elevationM":null},{"id":"node:11360427093","kind":"peak","name":"Buck Mountain","lat":38.7740136,"lon":-122.3302826,"elevationM":null},{"id":"node:11561130828","kind":"peak","name":"Nelson Hill","lat":38.2244606,"lon":-122.1187387,"elevationM":null},{"id":"node:11927184175","kind":"peak","name":"Fiske Peak","lat":38.8927285,"lon":-122.2907194,"elevationM":875},{"id":"node:12294441042","kind":"peak","name":"Franklin Crest","lat":38.0158083,"lon":-122.1578344,"elevationM":221},{"id":"node:12294441043","kind":"peak","name":"Old Martinez Summit","lat":38.0057599,"lon":-122.1477581,"elevationM":227},{"id":"node:12294607275","kind":"peak","name":"Point Carquinez Overlook","lat":38.0430354,"lon":-122.1806868,"elevationM":100}]}