{"tileKey":"la_p9_lo_p1","version":"v1-1775891056926","entries":[{"id":"node:4699118169","kind":"peak","name":"Mirador","lat":9.06715,"lon":1.043794,"elevationM":368},{"id":"node:4699123721","kind":"peak","name":"Pico Haritza","lat":9.067488,"lon":1.0429949,"elevationM":371},{"id":"node:4699123722","kind":"peak","name":"Pico Hodei","lat":9.065379,"lon":1.041229,"elevationM":412},{"id":"node:4715787945","kind":"peak","name":"Haritza","lat":9.067488,"lon":1.0429949,"elevationM":371},{"id":"node:4715787946","kind":"peak","name":"Hodei","lat":9.065379,"lon":1.041229,"elevationM":412},{"id":"node:5298975195","kind":"peak","name":"Mont Sokbaro","lat":9.3274314,"lon":1.4159422,"elevationM":658},{"id":"node:10824563621","kind":"peak","name":"Tchaa Bou","lat":9.6263069,"lon":1.1521052,"elevationM":null}]}