{"tileKey":"la_p65_lo_p60","version":"v1-1775891056926","entries":[{"id":"node:697605523","kind":"peak","name":"Карелина","lat":65.0179572,"lon":60.0400621,"elevationM":1472},{"id":"node:697605608","kind":"peak","name":"Карпинского","lat":65.0647483,"lon":60.192261,"elevationM":1803},{"id":"node:1215113623","kind":"peak","name":"Вронг-нар-нырд","lat":65.0967392,"lon":60.0520853,"elevationM":1300},{"id":"node:1215114116","kind":"peak","name":"Подкова","lat":65.061194,"lon":60.032494,"elevationM":null},{"id":"node:1215138921","kind":"peak","name":"Народная","lat":65.0349868,"lon":60.1141076,"elevationM":1895},{"id":"node:1215139111","kind":"peak","name":"Старик-Из","lat":65.1669074,"lon":60.2661452,"elevationM":1280},{"id":"node:1215139192","kind":"peak","name":"Старуха-Из","lat":65.1448339,"lon":60.2485973,"elevationM":1328},{"id":"node:2061963397","kind":"peak","name":"Янченко","lat":65.029011,"lon":60.0349618,"elevationM":1741},{"id":"node:2205224213","kind":"peak","name":"Лимбекоиз","lat":65.1301941,"lon":60.1351317,"elevationM":1431},{"id":"node:3428477408","kind":"peak","name":"Пик Толерантности","lat":65.212618,"lon":60.3157567,"elevationM":null},{"id":"node:3997831449","kind":"peak","name":"Баркова","lat":65.1872444,"lon":60.3036639,"elevationM":1321},{"id":"node:3997831450","kind":"peak","name":"Гранитная","lat":65.0088194,"lon":60.4349861,"elevationM":1233},{"id":"node:3997831451","kind":"peak","name":"Еркусей","lat":65.218275,"lon":60.3484694,"elevationM":1099},{"id":"node:3997831452","kind":"peak","name":"Каталамби","lat":65.2334889,"lon":60.8552139,"elevationM":1319},{"id":"node:3997831453","kind":"peak","name":"Колокол","lat":65.2843556,"lon":60.7747028,"elevationM":1407},{"id":"node:3997831454","kind":"peak","name":"Лапчаиз","lat":65.1561417,"lon":60.5129194,"elevationM":1416},{"id":"node:3997831455","kind":"peak","name":"Малый Чендер","lat":65.0104167,"lon":60.3182556,"elevationM":1316},{"id":"node:3997831456","kind":"peak","name":"Понъиз","lat":65.00795,"lon":60.9633583,"elevationM":1057},{"id":"node:3997833557","kind":"peak","name":"Санаиз","lat":65.293325,"lon":60.8363306,"elevationM":1423},{"id":"node:3997833558","kind":"peak","name":"Северное Лезвие","lat":65.0648583,"lon":60.3973917,"elevationM":1345},{"id":"node:3997833560","kind":"peak","name":"Сураиз","lat":65.17305,"lon":60.3544778,"elevationM":1165},{"id":"node:3997833561","kind":"peak","name":"Хасаваркаиз","lat":65.0257861,"lon":60.8583028,"elevationM":1052},{"id":"node:3997833562","kind":"peak","name":"Чёрная","lat":65.2279861,"lon":60.4128417,"elevationM":1248},{"id":"node:3997833563","kind":"peak","name":"Южное Лезвие","lat":65.0369806,"lon":60.3870917,"elevationM":1135},{"id":"node:4002694709","kind":"peak","name":"Яренеймыльк","lat":65.5962444,"lon":60.5531472,"elevationM":641}]}