{"tileKey":"la_p13_lo_p26","version":"v1-1775891056926","entries":[{"id":"node:7731289229","kind":"peak","name":"Jabal Umm Bodan","lat":13.517523,"lon":26.313067,"elevationM":764},{"id":"node:7731289232","kind":"peak","name":"Jabal Nebbilla","lat":13.5802675,"lon":26.651306,"elevationM":755},{"id":"node:7731289234","kind":"peak","name":"Jabal Umm Marahik","lat":13.6621649,"lon":26.8797107,"elevationM":789},{"id":"node:7731289237","kind":"peak","name":"Jabal Arafgi","lat":13.5301339,"lon":26.0897222,"elevationM":869},{"id":"node:7731291446","kind":"peak","name":"Jabal ar Rashish","lat":13.65,"lon":26.733333,"elevationM":null},{"id":"node:7731291487","kind":"peak","name":"Jabal Dirrah","lat":13.6061699,"lon":26.0444438,"elevationM":894},{"id":"node:7731291605","kind":"peak","name":"Jabal Shaqq","lat":13.6601491,"lon":26.4450036,"elevationM":738},{"id":"node:7731291611","kind":"peak","name":"Jabal Kharrāţ","lat":13.8212214,"lon":26.6084402,"elevationM":855},{"id":"node:7731291614","kind":"peak","name":"Jabal Umm ‘Arūs","lat":13.9143225,"lon":26.1681301,"elevationM":846},{"id":"node:7731291616","kind":"peak","name":"Jabal Amni","lat":13.7136392,"lon":26.6426388,"elevationM":770},{"id":"node:7731291621","kind":"peak","name":"Jabal ‘Arā’is","lat":13.8743282,"lon":26.5100308,"elevationM":null},{"id":"node:7731291622","kind":"peak","name":"Jabal Haggilla","lat":13.7795234,"lon":26.4939157,"elevationM":null},{"id":"node:7731291643","kind":"peak","name":"Jabal Baţḩā’ ‘Aţshān","lat":13.033333,"lon":26.766667,"elevationM":null},{"id":"node:7731291659","kind":"peak","name":"Jabal Masarrah","lat":13.4338455,"lon":26.8241691,"elevationM":631},{"id":"node:7731291663","kind":"peak","name":"Jabal Kurgul","lat":13.20737,"lon":26.9582,"elevationM":null},{"id":"node:7731291670","kind":"peak","name":"Jabal Abū Ḩumayrah","lat":13.3449978,"lon":26.6235595,"elevationM":721},{"id":"node:7787690471","kind":"peak","name":"Jebel Khureit","lat":13.9351325,"lon":26.0272436,"elevationM":null},{"id":"node:8746470800","kind":"peak","name":"Jebel Qubba","lat":13.5850545,"lon":26.6555145,"elevationM":null},{"id":"node:8746470801","kind":"peak","name":"Jebel Bobei","lat":13.5874684,"lon":26.6668554,"elevationM":null},{"id":"node:8746470804","kind":"peak","name":"Jebel Oba","lat":13.5705475,"lon":26.5964074,"elevationM":null},{"id":"node:8746470805","kind":"peak","name":"Jebel Mirkuka","lat":13.5577888,"lon":26.6751315,"elevationM":null},{"id":"node:8746470806","kind":"peak","name":"Jebel Hazelna","lat":13.5423587,"lon":26.682698,"elevationM":null},{"id":"node:8746470807","kind":"peak","name":"Jebel Tisoma","lat":13.4804105,"lon":26.6763072,"elevationM":null},{"id":"node:8746759288","kind":"peak","name":"Jebel Bat-Ha' atshan","lat":13.0333724,"lon":26.7316902,"elevationM":null},{"id":"node:8761483964","kind":"peak","name":"Jebel Semain","lat":13.1750751,"lon":26.0340928,"elevationM":null},{"id":"node:8761483965","kind":"peak","name":"Jebel Wai","lat":13.1847529,"lon":26.0501023,"elevationM":null},{"id":"node:8829861036","kind":"peak","name":"Jebel Maganin","lat":13.3480613,"lon":26.0929549,"elevationM":null},{"id":"node:8829861051","kind":"peak","name":"Jebel Tikka","lat":13.2889261,"lon":26.0441213,"elevationM":null},{"id":"node:8832704538","kind":"peak","name":"Jebel Wad Umm Beru","lat":13.4781555,"lon":26.1819626,"elevationM":null},{"id":"node:8832704539","kind":"peak","name":"Jebel Umm Dau","lat":13.4361899,"lon":26.1723646,"elevationM":null},{"id":"node:8841984384","kind":"peak","name":"Jebel Hagilla","lat":13.6648366,"lon":26.5779167,"elevationM":745},{"id":"node:8841984386","kind":"peak","name":"Jebel Umm Daud","lat":13.3929535,"lon":26.2438044,"elevationM":null},{"id":"node:8841984387","kind":"peak","name":"Jebel Abusima (Tama)","lat":13.4524882,"lon":26.0456827,"elevationM":null},{"id":"node:8841984392","kind":"peak","name":"Jebel Tingirti","lat":13.5185378,"lon":26.0180327,"elevationM":null},{"id":"node:8842279657","kind":"peak","name":"Jebel Girarha","lat":13.7867246,"lon":26.4477548,"elevationM":749},{"id":"node:8860911560","kind":"peak","name":"Jebel Kadab","lat":13.540355,"lon":26.8844037,"elevationM":759},{"id":"node:8880292298","kind":"peak","name":"Jebel Mararit","lat":13.2130343,"lon":26.0160176,"elevationM":null},{"id":"node:8880780835","kind":"peak","name":"Jebel Qussa","lat":13.6041939,"lon":26.5731034,"elevationM":null},{"id":"node:8880780836","kind":"peak","name":"Jebel Qubba","lat":13.6104806,"lon":26.5761388,"elevationM":null},{"id":"node:8880780837","kind":"peak","name":"Jebel Atkeri","lat":13.6283897,"lon":26.5838332,"elevationM":null},{"id":"node:8880780838","kind":"peak","name":"Jebel el Merkeit","lat":13.6406869,"lon":26.6717467,"elevationM":null},{"id":"node:8880780839","kind":"peak","name":"Jebel Abu Karsh","lat":13.634078,"lon":26.6929119,"elevationM":null},{"id":"node:8880780840","kind":"peak","name":"Jebel el Baqar","lat":13.6161379,"lon":26.7427089,"elevationM":null},{"id":"node:8880781192","kind":"peak","name":"Qalb el Ba'ir","lat":13.8275687,"lon":26.5573416,"elevationM":818},{"id":"node:8901735922","kind":"peak","name":"Jebel Dirra","lat":13.6417619,"lon":26.8869452,"elevationM":null},{"id":"node:8901735986","kind":"peak","name":"Jebel Tabir","lat":13.6805799,"lon":26.9464686,"elevationM":null},{"id":"node:8901735988","kind":"peak","name":"Jebel Abu Qawa","lat":13.52369,"lon":26.9833296,"elevationM":null},{"id":"node:8901735991","kind":"peak","name":"Jebel Rukn","lat":13.5052098,"lon":26.9521272,"elevationM":null},{"id":"node:8901736273","kind":"peak","name":"Jebel Abu Iyal","lat":13.5370977,"lon":26.9550048,"elevationM":null},{"id":"node:8901736274","kind":"peak","name":"Jebel Abu Humeira","lat":13.5758933,"lon":26.9571771,"elevationM":null},{"id":"node:8901736275","kind":"peak","name":"Jebel Mundera","lat":13.5891259,"lon":26.9385674,"elevationM":null},{"id":"node:8901736276","kind":"peak","name":"Jebel Qalb el Ba'ir","lat":13.5890412,"lon":26.9127914,"elevationM":null}]}