{"tileKey":"la_p41_lo_p35","version":"v1-1775891056926","entries":[{"id":"node:343467272","kind":"peak","name":"Nebiyan Dağı","lat":41.3592542,"lon":35.9380902,"elevationM":1245},{"id":"node:1157385783","kind":"peak","name":"Kunduz Dağı","lat":41.1305051,"lon":35.0407981,"elevationM":1791},{"id":"node:1159151443","kind":"peak","name":"Meydankayası Tepesi","lat":41.2181967,"lon":35.5828135,"elevationM":1081},{"id":"node:1214559928","kind":"peak","name":"Kösedağ","lat":41.6335449,"lon":35.3673332,"elevationM":402},{"id":"node:1873993566","kind":"peak","name":"Alınca Dağ","lat":41.5049217,"lon":35.0447773,"elevationM":1233},{"id":"node:1873993571","kind":"peak","name":"Asartepe Sırtı","lat":41.7888375,"lon":35.0997238,"elevationM":545},{"id":"node:1873993619","kind":"peak","name":"Dede Dağı","lat":41.7740579,"lon":35.042606,"elevationM":1044},{"id":"node:1873993635","kind":"peak","name":"Düdükçü Tepesi","lat":41.4669114,"lon":35.0791179,"elevationM":626},{"id":"node:1873993646","kind":"peak","name":"Eskitme Tepesi","lat":41.7740301,"lon":35.1457333,"elevationM":805},{"id":"node:1873993659","kind":"peak","name":"Göl Dağı","lat":41.6223815,"lon":35.1355878,"elevationM":1232},{"id":"node:1873993689","kind":"peak","name":"Haydaroğlu Tepesi","lat":41.7231468,"lon":35.1004854,"elevationM":926},{"id":"node:1873993704","kind":"peak","name":"Kara Tepe","lat":41.4314409,"lon":35.165825,"elevationM":1038},{"id":"node:1873993733","kind":"peak","name":"Kurt Tepesi","lat":41.4819545,"lon":35.0197029,"elevationM":1051},{"id":"node:1873993778","kind":"peak","name":"Kıran Tepesi","lat":41.4943596,"lon":35.2466634,"elevationM":1378},{"id":"node:1873993779","kind":"peak","name":"Kırantarla Tepesi","lat":41.6296577,"lon":35.2308641,"elevationM":630},{"id":"node:1873993828","kind":"peak","name":"Soyuk Tepesi","lat":41.499176,"lon":35.1723123,"elevationM":1471},{"id":"node:1873994513","kind":"peak","name":"Çal Tepe","lat":41.5334858,"lon":35.031975,"elevationM":1214},{"id":"node:1873994514","kind":"peak","name":"Çalboğazı Tepesi","lat":41.6084351,"lon":35.0928889,"elevationM":1215},{"id":"node:1873994543","kind":"peak","name":"İlgenbi Tepesi","lat":41.6044318,"lon":35.0282328,"elevationM":1268},{"id":"node:1968809587","kind":"peak","name":"Dereköyçalı Tepesi","lat":41.0809939,"lon":35.6770244,"elevationM":647},{"id":"node:1968809618","kind":"peak","name":"Evliyaçalı Tepesi","lat":41.2116034,"lon":35.6757044,"elevationM":1146},{"id":"node:1968809639","kind":"peak","name":"Kale Tepesi","lat":41.0144914,"lon":35.768464,"elevationM":802},{"id":"node:1968809643","kind":"peak","name":"Kapaklı Tepe","lat":41.2005398,"lon":35.6403066,"elevationM":1073},{"id":"node:1968809681","kind":"peak","name":"Pınarözü Tepesi","lat":41.2367953,"lon":35.7063627,"elevationM":1026},{"id":"node:1968815396","kind":"peak","name":"Öcal Tepesi","lat":41.1809956,"lon":35.7277021,"elevationM":915},{"id":"node:1994195840","kind":"peak","name":"Karadora Tepesi","lat":41.5942364,"lon":35.8447475,"elevationM":120},{"id":"node:2094903607","kind":"peak","name":"Kavaklı Dağ","lat":41.4369767,"lon":35.6196498,"elevationM":1164},{"id":"node:2094903609","kind":"peak","name":"Kunduzçal Tepesi","lat":41.388786,"lon":35.212769,"elevationM":1123},{"id":"node:2094903612","kind":"peak","name":"Küçüktutmen Tepesi","lat":41.40996,"lon":35.5213247,"elevationM":1343},{"id":"node:2094903617","kind":"peak","name":"Soğanlık Tepesi","lat":41.484,"lon":35.4395532,"elevationM":1324},{"id":"node:2094908464","kind":"peak","name":"Şimşir Tepesi","lat":41.288506,"lon":35.228046,"elevationM":805},{"id":"node:2305480257","kind":"peak","name":"Dip Dağı","lat":41.0618885,"lon":35.3087913,"elevationM":1469},{"id":"node:2305480262","kind":"peak","name":"Elmalı Tepe","lat":41.0213111,"lon":35.3549356,"elevationM":1648},{"id":"node:2305480331","kind":"peak","name":"Yürükçal Tepesi","lat":41.1789895,"lon":35.5178024,"elevationM":649},{"id":"node:2315714575","kind":"peak","name":"Sivri Tepe","lat":41.0428518,"lon":35.3002806,"elevationM":1560},{"id":"node:2331539507","kind":"peak","name":"Asar Tepesi","lat":41.3780667,"lon":35.9415755,"elevationM":1076},{"id":"node:2331539512","kind":"peak","name":"Boğa Dağı","lat":41.3959077,"lon":35.7180961,"elevationM":1009},{"id":"node:2331539515","kind":"peak","name":"Bünyan Dağı","lat":41.3461689,"lon":35.9547086,"elevationM":1222},{"id":"node:2331539516","kind":"peak","name":"Bünyan Sivrisi","lat":41.3576863,"lon":35.9690541,"elevationM":960},{"id":"node:2331539535","kind":"peak","name":"Gümüşhan Tepesi","lat":41.522957,"lon":35.878067,"elevationM":204},{"id":"node:2331539537","kind":"peak","name":"Güvercin Tepesi","lat":41.4279606,"lon":35.7819519,"elevationM":613},{"id":"node:2331539545","kind":"peak","name":"Karapınar Tepesi","lat":41.4022728,"lon":35.8838414,"elevationM":590},{"id":"node:2331539547","kind":"peak","name":"Kavak Tepesi","lat":41.4870006,"lon":35.9272671,"elevationM":239},{"id":"node:2331539560","kind":"peak","name":"Mal Tepe","lat":41.3953879,"lon":35.6565331,"elevationM":1119},{"id":"node:2331539574","kind":"peak","name":"Yaylacık Tepesi","lat":41.3326548,"lon":35.6646947,"elevationM":938},{"id":"node:2331539581","kind":"peak","name":"Yun Dağı","lat":41.3358184,"lon":35.759094,"elevationM":1125},{"id":"node:2331539582","kind":"peak","name":"Yıldırım Tepesi","lat":41.4332611,"lon":35.7195114,"elevationM":828},{"id":"node:2331541604","kind":"peak","name":"Öbek Tepesi","lat":41.3792147,"lon":35.8316175,"elevationM":682},{"id":"node:2396075828","kind":"peak","name":"Türbe Tepesi","lat":41.8787914,"lon":35.0100465,"elevationM":313},{"id":"node:2405947242","kind":"peak","name":"Öngöl Tepesi","lat":41.6609172,"lon":35.3681778,"elevationM":607},{"id":"node:2415997124","kind":"peak","name":"Alankaya Tepesi","lat":41.277949,"lon":35.2763531,"elevationM":956},{"id":"node:2415997221","kind":"peak","name":"Tepelice Tepesi","lat":41.2026973,"lon":35.4709868,"elevationM":537},{"id":"node:2415997224","kind":"peak","name":"Tuğluca Tepesi","lat":41.1993339,"lon":35.4029646,"elevationM":431},{"id":"node:2415997234","kind":"peak","name":"Yassıçal Tepesi","lat":41.265298,"lon":35.4226553,"elevationM":647},{"id":"node:2416307240","kind":"peak","name":"Ada Dağı","lat":41.3942664,"lon":35.0579797,"elevationM":828},{"id":"node:2416307254","kind":"peak","name":"Burunkaya Tepesi","lat":41.360908,"lon":35.1027417,"elevationM":1023},{"id":"node:2416307298","kind":"peak","name":"Yassıçal Tepesi","lat":41.3322493,"lon":35.0374432,"elevationM":1014},{"id":"node:2439040531","kind":"peak","name":"Asar Tepesi","lat":41.1018233,"lon":35.9382826,"elevationM":1076},{"id":"node:2439040553","kind":"peak","name":"Elik Tepesi","lat":41.050724,"lon":35.858067,"elevationM":1255},{"id":"node:2439040581","kind":"peak","name":"Meşeli Tepesi","lat":41.2903792,"lon":35.8431412,"elevationM":951},{"id":"node:2439040586","kind":"peak","name":"Sıralı Dağ","lat":41.1317939,"lon":35.8486921,"elevationM":1349},{"id":"node:2439040597","kind":"peak","name":"Tütünlük Tepesi","lat":41.2347928,"lon":35.8962516,"elevationM":1032},{"id":"node:2439043944","kind":"peak","name":"Çıraksırtı Tepesi","lat":41.2238341,"lon":35.7767159,"elevationM":1055},{"id":"node:2439043952","kind":"peak","name":"Şahin Tepesi","lat":41.1028216,"lon":35.8636316,"elevationM":1314},{"id":"node:2664791013","kind":"peak","name":"Çiğdemli Tepesi","lat":41.0366665,"lon":35.987165,"elevationM":922},{"id":"node:2788971986","kind":"peak","name":"Aydaş Tepesi","lat":41.4749948,"lon":35.5168163,"elevationM":1119},{"id":"node:2788971990","kind":"peak","name":"Dütmen Dağı","lat":41.4471919,"lon":35.4809604,"elevationM":1667},{"id":"node:2788971991","kind":"peak","name":"Evliya Tepesi","lat":41.4631412,"lon":35.5811003,"elevationM":921},{"id":"node:2878599277","kind":"peak","name":"Yalak Dağı","lat":41.4844118,"lon":35.609696,"elevationM":866},{"id":"node:2927405744","kind":"peak","name":"Armut Tepesi","lat":41.4425367,"lon":35.6172862,"elevationM":1139},{"id":"node:2927405751","kind":"peak","name":"Elçel","lat":41.4734781,"lon":35.6443688,"elevationM":980},{"id":"node:2927406740","kind":"peak","name":"Kel Tepe","lat":41.4793902,"lon":35.5995437,"elevationM":815},{"id":"node:2927410635","kind":"peak","name":"Aşağı Düz","lat":41.4680388,"lon":35.6259766,"elevationM":830},{"id":"node:2927410945","kind":"peak","name":"Büyük Düz","lat":41.4679969,"lon":35.63251,"elevationM":841},{"id":"node:2927413648","kind":"peak","name":"Adilli Kıranı","lat":41.5045155,"lon":35.6374804,"elevationM":745},{"id":"node:8409570608","kind":"peak","name":"Deli Tepesi","lat":41.9881376,"lon":35.047995,"elevationM":172},{"id":"node:10694642694","kind":"peak","name":"Asar Tepesi","lat":41.7619331,"lon":35.0765991,"elevationM":null}]}