{"tileKey":"la_p65_lo_m164","version":"v1-1775891056926","entries":[{"id":"node:4882427364","kind":"peak","name":"Chauik Mountain","lat":65.1396205,"lon":-163.7644816,"elevationM":1056},{"id":"node:4887047436","kind":"peak","name":"Asses Ears","lat":65.7453688,"lon":-163.1885577,"elevationM":608},{"id":"node:4887047437","kind":"volcano","name":"Rhododendron Cone","lat":65.5391687,"lon":-163.1469727,"elevationM":376},{"id":"node:4896284750","kind":"peak","name":"Black Butte","lat":65.760878,"lon":-163.242674,"elevationM":622},{"id":"node:4896365002","kind":"peak","name":"Crossfox Butte","lat":65.8005248,"lon":-163.2891084,"elevationM":null},{"id":"node:5940727993","kind":"volcano","name":"Andromeda Cone","lat":65.5785529,"lon":-163.5129549,"elevationM":346},{"id":"node:5941597302","kind":"volcano","name":"Lost Jim Cone","lat":65.4873134,"lon":-163.2975913,"elevationM":468},{"id":"node:5942501154","kind":"volcano","name":"Grus Cone","lat":65.4512013,"lon":-163.1479169,"elevationM":425},{"id":"node:5942501155","kind":"volcano","name":"Cygnus Cone","lat":65.4515936,"lon":-163.1881715,"elevationM":423},{"id":"node:5942501156","kind":"volcano","name":"Gosling Cone","lat":65.4734436,"lon":-163.2466222,"elevationM":478},{"id":"node:5950972413","kind":"volcano","name":"Camille Cone","lat":65.5339521,"lon":-163.3888661,"elevationM":418},{"id":"node:6192906231","kind":"peak","name":"Kettle Dome","lat":65.5892674,"lon":-163.0099869,"elevationM":473},{"id":"node:6193893569","kind":"peak","name":"Hoodoo Hill","lat":65.5958998,"lon":-163.4123612,"elevationM":468},{"id":"node:11252348277","kind":"peak","name":"Sturgeon Ridge","lat":65.3876675,"lon":-163.115301,"elevationM":590},{"id":"node:11252348278","kind":"volcano","name":"Cassiope Cone","lat":65.5641236,"lon":-163.4444833,"elevationM":307},{"id":"node:11252348279","kind":"volcano","name":"Dryas Cone","lat":65.5821455,"lon":-163.654639,"elevationM":232},{"id":"node:11660575744","kind":"peak","name":"Table Mountain","lat":65.4389637,"lon":-163.6361369,"elevationM":267},{"id":"node:11660575747","kind":"peak","name":"The Bat","lat":65.4041183,"lon":-163.3702519,"elevationM":517},{"id":"node:11660575760","kind":"peak","name":"Golden Peak","lat":65.1968491,"lon":-163.6021008,"elevationM":887},{"id":"node:11660575767","kind":"peak","name":"Virginia Butte","lat":65.7171269,"lon":-163.1490072,"elevationM":542},{"id":"node:11660873173","kind":"peak","name":"Mount Boyan","lat":65.3523742,"lon":-163.2382486,"elevationM":917},{"id":"node:11660873188","kind":"peak","name":"Skeleton Butte","lat":65.7189346,"lon":-163.2868378,"elevationM":555},{"id":"node:11660873190","kind":"peak","name":"Mount Foster","lat":65.8972649,"lon":-163.348401,"elevationM":395}]}