{"tileKey":"la_p34_lo_p105","version":"v1-1775891056926","entries":[{"id":"node:4237515460","kind":"peak","name":"卦台山","lat":34.706433,"lon":105.6203124,"elevationM":1363},{"id":"node:4488322664","kind":"peak","name":"常坪山","lat":34.9988035,"lon":105.9533328,"elevationM":null},{"id":"node:4541397745","kind":"peak","name":"老庙山","lat":34.8532338,"lon":105.5095631,"elevationM":1803},{"id":"node:4552491950","kind":"peak","name":"康家阳山","lat":34.0985248,"lon":105.6199284,"elevationM":null},{"id":"node:4552492214","kind":"peak","name":"云光山","lat":34.2786238,"lon":105.8372786,"elevationM":1961},{"id":"node:4681772700","kind":"peak","name":"庙山","lat":34.5558213,"lon":105.9678741,"elevationM":null},{"id":"node:4753661120","kind":"peak","name":"紫花坪","lat":34.0071121,"lon":105.6711581,"elevationM":2031},{"id":"node:6207415208","kind":"peak","name":"庙山","lat":34.4623034,"lon":105.6360125,"elevationM":1751},{"id":"node:6569724235","kind":"peak","name":"灵秀凤山","lat":34.865986,"lon":105.696609,"elevationM":null},{"id":"node:6914019295","kind":"peak","name":"白鹤山","lat":34.9107586,"lon":105.6606084,"elevationM":null},{"id":"node:8719356659","kind":"peak","name":"凤尾山","lat":34.9963944,"lon":105.9835571,"elevationM":null},{"id":"node:9563031280","kind":"peak","name":"凤凰山","lat":34.1569708,"lon":105.389716,"elevationM":null},{"id":"node:9860954385","kind":"peak","name":"九家山","lat":34.8998856,"lon":105.0179171,"elevationM":null},{"id":"node:10792887173","kind":"peak","name":"界牌山","lat":34.4378232,"lon":105.0458622,"elevationM":null},{"id":"node:13720407620","kind":"peak","name":"三县梁","lat":34.5255818,"lon":105.1479274,"elevationM":2551},{"id":"node:13720407621","kind":"peak","name":"龙台山","lat":34.5561808,"lon":105.1385165,"elevationM":2512}]}