{"tileKey":"la_p28_lo_p35","version":"v1-1775891056926","entries":[{"id":"node:1237951530","kind":"peak","name":"جبل زهد","lat":28.302778,"lon":35.3025,"elevationM":null},{"id":"node:1237951644","kind":"peak","name":"جبل اللوز","lat":28.6547008,"lon":35.3052287,"elevationM":2580},{"id":"node:4709384488","kind":"peak","name":"جبال الزيتة","lat":28.8521171,"lon":35.4836179,"elevationM":null},{"id":"node:6591607109","kind":"peak","name":"جبل ابو شديد","lat":28.2589458,"lon":35.9443771,"elevationM":null},{"id":"node:6887863400","kind":"peak","name":"طعس القاره","lat":28.306594,"lon":35.8647671,"elevationM":1200},{"id":"node:9156075265","kind":"peak","name":"قلب الزيتة","lat":28.8519382,"lon":35.7971153,"elevationM":null},{"id":"node:11870047694","kind":"peak","name":"الطفّ","lat":28.7974831,"lon":35.9517089,"elevationM":null},{"id":"node:11870047856","kind":"peak","name":"جبل الدفدف","lat":28.4148528,"lon":35.3980451,"elevationM":null},{"id":"node:11870048544","kind":"peak","name":"جبل الروا","lat":28.3146867,"lon":35.4789996,"elevationM":null},{"id":"node:11870268205","kind":"peak","name":"جبل الشياطي","lat":28.2013225,"lon":35.593084,"elevationM":null},{"id":"node:11870738130","kind":"peak","name":"جبل خريس","lat":28.1656735,"lon":35.5301733,"elevationM":null},{"id":"node:11870738177","kind":"peak","name":"مكلاه","lat":28.6175393,"lon":35.3729952,"elevationM":null},{"id":"node:11870738274","kind":"peak","name":"جبل الحر","lat":28.4214713,"lon":35.2697774,"elevationM":null},{"id":"node:11870738423","kind":"peak","name":"جبل ام هيفة","lat":28.5713966,"lon":35.4148879,"elevationM":null},{"id":"node:11870950488","kind":"peak","name":"جبل الصليله","lat":28.6818948,"lon":35.3906776,"elevationM":null},{"id":"node:11870950497","kind":"peak","name":"جبال حوصل","lat":28.6150672,"lon":35.8861583,"elevationM":null},{"id":"node:11870951234","kind":"peak","name":"جبل عميّد","lat":28.717819,"lon":35.3885972,"elevationM":null},{"id":"node:11871231068","kind":"peak","name":"شهبة أم هشيم","lat":28.8424244,"lon":35.5277707,"elevationM":null},{"id":"node:11871539643","kind":"peak","name":"جبال القرية","lat":28.764909,"lon":35.9806919,"elevationM":null},{"id":"node:11871651773","kind":"peak","name":"هضاب البئر","lat":28.6765242,"lon":35.7830826,"elevationM":null},{"id":"node:11871652067","kind":"peak","name":"شهبة ام نخيلة","lat":28.7864566,"lon":35.533145,"elevationM":null},{"id":"node:11871652084","kind":"peak","name":"جبل أم فروث","lat":28.1558259,"lon":35.8486608,"elevationM":null},{"id":"node:11871652098","kind":"peak","name":"عمارة العجوز","lat":28.86247,"lon":35.9834024,"elevationM":null},{"id":"node:11871652597","kind":"peak","name":"نصلة رفيعة","lat":28.6949142,"lon":35.120079,"elevationM":null},{"id":"node:11917222438","kind":"peak","name":"جبل السفينة","lat":28.3270967,"lon":35.8031676,"elevationM":null},{"id":"node:12293307671","kind":"peak","name":"جبل مقلة","lat":28.5956087,"lon":35.3341707,"elevationM":2326},{"id":"node:13431044212","kind":"peak","name":"جبل الشِقيق","lat":28.254229,"lon":35.9601402,"elevationM":null}]}