{"tileKey":"la_p59_lo_p14","version":"v1-1775891056926","entries":[{"id":"node:1149691651","kind":"peak","name":"Södra Siksjöberget","lat":59.9704895,"lon":14.3673917,"elevationM":237},{"id":"node:1301009883","kind":"peak","name":"Igelhöjden","lat":59.9802991,"lon":14.4130717,"elevationM":null},{"id":"node:1301009887","kind":"peak","name":"Blebergshöjden","lat":59.9634105,"lon":14.4603883,"elevationM":null},{"id":"node:1628869233","kind":"peak","name":"Stenkullen","lat":59.9881799,"lon":14.461241,"elevationM":null},{"id":"node:1633539214","kind":"peak","name":"Loberget","lat":59.9990566,"lon":14.4282371,"elevationM":null},{"id":"node:1633539215","kind":"peak","name":"Igelhöjden","lat":59.9797406,"lon":14.4070743,"elevationM":null},{"id":"node:1835877259","kind":"peak","name":"Bråtåsberget","lat":59.9765446,"lon":14.2032699,"elevationM":null},{"id":"node:1835877260","kind":"peak","name":"Klövberget","lat":59.9807101,"lon":14.1997294,"elevationM":null},{"id":"node:1835877261","kind":"peak","name":"Kartbacksberget","lat":59.9868178,"lon":14.2055659,"elevationM":null},{"id":"node:1835877262","kind":"peak","name":"Kullhöjden","lat":59.9944374,"lon":14.2107586,"elevationM":387},{"id":"node:1835877817","kind":"peak","name":"Galberget","lat":59.9944481,"lon":14.2400698,"elevationM":null},{"id":"node:1835877822","kind":"peak","name":"Klintberget","lat":59.9983968,"lon":14.2505626,"elevationM":null},{"id":"node:1835878788","kind":"peak","name":"Sundshöjden","lat":59.9943086,"lon":14.1839365,"elevationM":null},{"id":"node:2239792111","kind":"peak","name":"Trollkarlsklint","lat":59.1911299,"lon":14.7077998,"elevationM":260},{"id":"node:2260626665","kind":"peak","name":"Storstenshöjden","lat":59.3295837,"lon":14.9264123,"elevationM":281},{"id":"node:2260744200","kind":"peak","name":"Granåshöjden","lat":59.430291,"lon":14.546418,"elevationM":269},{"id":"node:2440677744","kind":"peak","name":"Grindaberget","lat":59.6581891,"lon":14.877439,"elevationM":null},{"id":"node:2636664737","kind":"peak","name":"Bofallshöjden","lat":59.4799064,"lon":14.5997857,"elevationM":307},{"id":"node:2636664739","kind":"peak","name":"Bäckhöjden","lat":59.3639925,"lon":14.5573898,"elevationM":240},{"id":"node:2636664745","kind":"peak","name":"Lidetorpsmon","lat":59.1617614,"lon":14.3455846,"elevationM":156},{"id":"node:2636664754","kind":"peak","name":"Sågarefallet","lat":59.2125822,"lon":14.5316134,"elevationM":144},{"id":"node:2636664757","kind":"peak","name":"Sörboda","lat":59.1724816,"lon":14.5136811,"elevationM":160},{"id":"node:2636664759","kind":"peak","name":"Våtsjön","lat":59.2782062,"lon":14.6259745,"elevationM":159},{"id":"node:2636815892","kind":"peak","name":"Flaängen","lat":59.3568887,"lon":14.4432271,"elevationM":176},{"id":"node:2636815986","kind":"peak","name":"Knapped","lat":59.3885191,"lon":14.4185615,"elevationM":234},{"id":"node:2636816091","kind":"peak","name":"Råhöjden","lat":59.2978047,"lon":14.3732557,"elevationM":180},{"id":"node:2636816100","kind":"peak","name":"Skalltorp","lat":59.1355019,"lon":14.4670864,"elevationM":131},{"id":"node:2636816126","kind":"peak","name":"Solbergavägen","lat":59.2218759,"lon":14.448751,"elevationM":129},{"id":"node:2636949676","kind":"peak","name":"Garphytteklint","lat":59.3128759,"lon":14.9383273,"elevationM":195},{"id":"node:2636949678","kind":"peak","name":"Gårdsjöklint","lat":59.2195621,"lon":14.7278978,"elevationM":224},{"id":"node:2636949681","kind":"peak","name":"Höjdåsen","lat":59.1831799,"lon":14.6793098,"elevationM":237},{"id":"node:2638167182","kind":"peak","name":"Lövfallet","lat":59.2637783,"lon":14.5028063,"elevationM":177},{"id":"node:2663956163","kind":"peak","name":"Lohällen","lat":59.59828,"lon":14.6597182,"elevationM":269},{"id":"node:2670208520","kind":"peak","name":"Kungshall","lat":59.2471834,"lon":14.7880687,"elevationM":280},{"id":"node:2670763277","kind":"peak","name":"Paradishöjden","lat":59.3181701,"lon":14.3017043,"elevationM":null},{"id":"node:2683346552","kind":"peak","name":"Högtorp","lat":59.2481486,"lon":14.6724086,"elevationM":219},{"id":"node:2686193166","kind":"peak","name":"Svinhöjden","lat":59.9913538,"lon":14.4691501,"elevationM":436},{"id":"node:2686201800","kind":"peak","name":"Brukshöjd","lat":59.5103265,"lon":14.412075,"elevationM":266},{"id":"node:2686215597","kind":"peak","name":"Röhöjden","lat":59.4252583,"lon":14.3277109,"elevationM":220},{"id":"node:2687473791","kind":"peak","name":"Predikareberget","lat":59.0555992,"lon":14.5210026,"elevationM":136},{"id":"node:2719350663","kind":"peak","name":"Kärmenberget","lat":59.3149602,"lon":14.7622793,"elevationM":187},{"id":"node:2736318952","kind":"peak","name":"Mögsjön","lat":59.3039608,"lon":14.6688212,"elevationM":199},{"id":"node:2751684596","kind":"peak","name":"Runsåsen","lat":59.3154915,"lon":14.7888308,"elevationM":null},{"id":"node:2751684782","kind":"peak","name":"Kärmsön","lat":59.2902693,"lon":14.7503611,"elevationM":217},{"id":"node:2751685311","kind":"peak","name":"Berga","lat":59.3270726,"lon":14.8154335,"elevationM":232},{"id":"node:2751685385","kind":"peak","name":"Älgsimstorp","lat":59.3432636,"lon":14.7412082,"elevationM":217},{"id":"node:2785210187","kind":"peak","name":"Kryddhult","lat":59.0239886,"lon":14.5359938,"elevationM":145},{"id":"node:2786381471","kind":"peak","name":"Svenstorpsbergen","lat":59.0979588,"lon":14.632968,"elevationM":126},{"id":"node:2883336415","kind":"peak","name":"Stuttjärn","lat":59.8133454,"lon":14.9849272,"elevationM":282},{"id":"node:2900390921","kind":"peak","name":"Bäckenberget","lat":59.227877,"lon":14.3762746,"elevationM":195},{"id":"node:2900517784","kind":"peak","name":"Nedre Flinthöjden","lat":59.2854119,"lon":14.3323118,"elevationM":null},{"id":"node:2930046958","kind":"peak","name":"Lillängsberget","lat":59.4147513,"lon":14.645581,"elevationM":null},{"id":"node:2930046960","kind":"peak","name":"Lönnhålsberget","lat":59.449493,"lon":14.640459,"elevationM":260},{"id":"node:2930046962","kind":"peak","name":"Utterbäck","lat":59.3435641,"lon":14.6009715,"elevationM":150},{"id":"node:2932433110","kind":"peak","name":"Småsjömarkskullen","lat":59.9256175,"lon":14.403995,"elevationM":229},{"id":"node:2932433325","kind":"peak","name":"Uddfallsåsen","lat":59.9397499,"lon":14.3897747,"elevationM":231},{"id":"node:2940101118","kind":"peak","name":"Axsjöboda","lat":59.3174341,"lon":14.8980141,"elevationM":242},{"id":"node:2940198644","kind":"peak","name":"Långsjöbergen","lat":59.3628722,"lon":14.7202898,"elevationM":182},{"id":"node:2940241610","kind":"peak","name":"Bäcketorp","lat":59.4658662,"lon":14.7463805,"elevationM":206},{"id":"node:2940245420","kind":"peak","name":"Älvhyttan","lat":59.4535069,"lon":14.8153297,"elevationM":180},{"id":"node:2940846400","kind":"peak","name":"Beteshult","lat":59.381264,"lon":14.8945706,"elevationM":253},{"id":"node:2940957069","kind":"peak","name":"Bärbackshöjden","lat":59.7497222,"lon":14.8981567,"elevationM":null},{"id":"node:2940957070","kind":"peak","name":"Kindlahöjden","lat":59.763321,"lon":14.8995437,"elevationM":425},{"id":"node:2940957072","kind":"peak","name":"Rödberget","lat":59.7444973,"lon":14.9122716,"elevationM":null},{"id":"node:2940957074","kind":"peak","name":"Kvarnberget","lat":59.7645067,"lon":14.8656078,"elevationM":null},{"id":"node:2943639164","kind":"peak","name":"Björnåsen","lat":59.2164115,"lon":14.3137247,"elevationM":168},{"id":"node:2943639166","kind":"peak","name":"Gräsfallsberget","lat":59.2628136,"lon":14.2285897,"elevationM":166},{"id":"node:2943639167","kind":"peak","name":"Harberget","lat":59.3067255,"lon":14.1549711,"elevationM":null},{"id":"node:2943639171","kind":"peak","name":"Högbergstorp","lat":59.2240469,"lon":14.4160599,"elevationM":null},{"id":"node:2943639173","kind":"peak","name":"Karabykullarna","lat":59.2914211,"lon":14.1994985,"elevationM":null},{"id":"node:2943639176","kind":"peak","name":"Kärsåsen","lat":59.2126717,"lon":14.2080454,"elevationM":null},{"id":"node:2943639178","kind":"peak","name":"Långbackshöjden","lat":59.2961341,"lon":14.2204847,"elevationM":189},{"id":"node:2943639182","kind":"peak","name":"Plattberget","lat":59.275827,"lon":14.2017927,"elevationM":null},{"id":"node:2943639185","kind":"peak","name":"Skrattarbergen","lat":59.2185974,"lon":14.2504891,"elevationM":139},{"id":"node:2943639187","kind":"peak","name":"Stora Fallet","lat":59.238395,"lon":14.3244968,"elevationM":173},{"id":"node:2943639189","kind":"peak","name":"Svartbergen","lat":59.2727715,"lon":14.1954263,"elevationM":130},{"id":"node:2945990805","kind":"peak","name":"Stutbackarna","lat":59.1515464,"lon":14.2316206,"elevationM":159},{"id":"node:2947712428","kind":"peak","name":"Salboknös","lat":59.8073785,"lon":14.9374279,"elevationM":306},{"id":"node:2947734034","kind":"peak","name":"Tallåsberget","lat":59.8108067,"lon":14.9553183,"elevationM":298},{"id":"node:2953744966","kind":"peak","name":"Båsbergen","lat":59.3549989,"lon":14.5559764,"elevationM":223},{"id":"node:2959557914","kind":"peak","name":"Tomasbodahöjden","lat":59.3840823,"lon":14.9721016,"elevationM":298},{"id":"node:2962759712","kind":"peak","name":"Frosterudsberget","lat":59.0915528,"lon":14.2281074,"elevationM":null},{"id":"node:2962759714","kind":"peak","name":"Kolerudsberget","lat":59.0948506,"lon":14.2400089,"elevationM":139},{"id":"node:2962759720","kind":"peak","name":"Vänersberget","lat":59.0902838,"lon":14.2329581,"elevationM":null},{"id":"node:3195188386","kind":"peak","name":"Tystinge","lat":59.0325936,"lon":14.9751628,"elevationM":172},{"id":"node:3319123573","kind":"peak","name":"Mögsjöberget","lat":59.5629389,"lon":14.286665,"elevationM":190},{"id":"node:3319166557","kind":"peak","name":"Mossberget","lat":59.6826105,"lon":14.2338862,"elevationM":287},{"id":"node:3319166559","kind":"peak","name":"Orrbergen","lat":59.6957799,"lon":14.2347136,"elevationM":226},{"id":"node:3319166560","kind":"peak","name":"Smedstorpshöjden","lat":59.6745193,"lon":14.2699899,"elevationM":336},{"id":"node:3319195332","kind":"peak","name":"Moffebohöjden","lat":59.7317207,"lon":14.2075423,"elevationM":286},{"id":"node:3327251695","kind":"peak","name":"Abborrtjärnshöjden","lat":59.5834264,"lon":14.232451,"elevationM":null},{"id":"node:3327251697","kind":"peak","name":"Bockafallshöjden","lat":59.5942334,"lon":14.2330783,"elevationM":null},{"id":"node:3327251706","kind":"peak","name":"Ulverudshöjden","lat":59.603383,"lon":14.2269023,"elevationM":274},{"id":"node:3373900374","kind":"peak","name":"Abborrberget","lat":59.714403,"lon":14.2076599,"elevationM":244},{"id":"node:3375711845","kind":"peak","name":"Långtjärnshöjden","lat":59.6989988,"lon":14.2779351,"elevationM":266},{"id":"node:3382312205","kind":"peak","name":"Skärjhöjden","lat":59.6611274,"lon":14.2947628,"elevationM":null},{"id":"node:3383904717","kind":"peak","name":"Mosstjärnarnshöjden","lat":59.672224,"lon":14.3908841,"elevationM":null},{"id":"node:3383904718","kind":"peak","name":"Räbbhöjden","lat":59.6766613,"lon":14.362845,"elevationM":null},{"id":"node:3498742694","kind":"peak","name":"Boningsberget","lat":59.3858671,"lon":14.1630642,"elevationM":null},{"id":"node:3498742695","kind":"peak","name":"Busshöjden","lat":59.3848875,"lon":14.1961846,"elevationM":null},{"id":"node:3498742696","kind":"peak","name":"Fallhöjden","lat":59.3958562,"lon":14.1916874,"elevationM":null},{"id":"node:3498742697","kind":"peak","name":"Hedkullen","lat":59.3810958,"lon":14.1867852,"elevationM":197},{"id":"node:3732299314","kind":"peak","name":"Falkaberget","lat":59.3310105,"lon":14.9168543,"elevationM":null},{"id":"node:3753194493","kind":"peak","name":"Stensmossen","lat":59.0942,"lon":14.6145601,"elevationM":111},{"id":"node:3753201645","kind":"peak","name":"Rifallet","lat":59.1738589,"lon":14.5588433,"elevationM":195},{"id":"node:3753205878","kind":"peak","name":"Källberget","lat":59.2206129,"lon":14.5504189,"elevationM":162},{"id":"node:3753212144","kind":"peak","name":"Västaberget","lat":59.0758523,"lon":14.593863,"elevationM":113},{"id":"node:3840460557","kind":"peak","name":"Karlsdal","lat":59.4325702,"lon":14.6679897,"elevationM":241},{"id":"node:3946734026","kind":"peak","name":"Kullarna","lat":59.5183907,"lon":14.7727947,"elevationM":269},{"id":"node:3969240043","kind":"peak","name":"Sommarbrickan","lat":59.3153114,"lon":14.6032524,"elevationM":null},{"id":"node:4014546813","kind":"peak","name":"Gällberget","lat":59.2382346,"lon":14.5628953,"elevationM":160},{"id":"node:4153874307","kind":"peak","name":"Kofallsberget","lat":59.4373734,"lon":14.0530068,"elevationM":188},{"id":"node:4174018070","kind":"peak","name":"Gryten","lat":59.2167804,"lon":14.6194178,"elevationM":195},{"id":"node:4175422551","kind":"peak","name":"Älghöjden","lat":59.2617956,"lon":14.5631611,"elevationM":181},{"id":"node:4197699548","kind":"peak","name":"Änghöjden","lat":59.7212703,"lon":14.0768176,"elevationM":296},{"id":"node:4340514978","kind":"peak","name":"Bråthöjden","lat":59.6708937,"lon":14.7315202,"elevationM":286},{"id":"node:4340514979","kind":"peak","name":"Hästtjärnsberget","lat":59.6257359,"lon":14.7311594,"elevationM":288},{"id":"node:4340514980","kind":"peak","name":"Vällingsbackaåsen","lat":59.6443819,"lon":14.8157389,"elevationM":308},{"id":"node:4340873625","kind":"peak","name":"Björkön","lat":59.0788343,"lon":14.7404676,"elevationM":86},{"id":"node:4340873632","kind":"peak","name":"Latorp","lat":59.033633,"lon":14.7840374,"elevationM":91},{"id":"node:4340873634","kind":"peak","name":"Porla brunn","lat":59.0245038,"lon":14.6815341,"elevationM":89},{"id":"node:4340873637","kind":"peak","name":"Skagershultamossen","lat":59.1147664,"lon":14.7351782,"elevationM":69},{"id":"node:4340884501","kind":"peak","name":"Krigsåshöjden","lat":59.0245977,"lon":14.1355168,"elevationM":96},{"id":"node:4340884503","kind":"peak","name":"Tjuvkärr","lat":59.1895554,"lon":14.1310777,"elevationM":106},{"id":"node:4340885179","kind":"peak","name":"Lidetorp","lat":59.16782,"lon":14.3642797,"elevationM":156},{"id":"node:4340890014","kind":"peak","name":"Rabboshöjden","lat":59.0810077,"lon":14.3695985,"elevationM":133},{"id":"node:4341244368","kind":"peak","name":"Sånnaboda","lat":59.3338587,"lon":14.9479722,"elevationM":266},{"id":"node:4341269901","kind":"peak","name":"Blockhöjden","lat":59.542866,"lon":14.1532102,"elevationM":237},{"id":"node:4341269902","kind":"peak","name":"Gubbas höjd","lat":59.5219365,"lon":14.3266599,"elevationM":249},{"id":"node:4341269903","kind":"peak","name":"Kedjeåsen","lat":59.4672638,"lon":14.4471903,"elevationM":242},{"id":"node:4341269904","kind":"peak","name":"Lindhöjdskullarna","lat":59.5721224,"lon":14.2412369,"elevationM":205},{"id":"node:4341607487","kind":"peak","name":"Dammängen","lat":59.3892538,"lon":14.074533,"elevationM":135},{"id":"node:4341607490","kind":"peak","name":"Gyshöjden","lat":59.4673033,"lon":14.0336937,"elevationM":192},{"id":"node:4341607491","kind":"peak","name":"Långmarksberget","lat":59.3552888,"lon":14.1819649,"elevationM":176},{"id":"node:4341607492","kind":"peak","name":"Harhöjden","lat":59.3540296,"lon":14.3084578,"elevationM":null},{"id":"node:4341776437","kind":"peak","name":"Dammsjöhöjden","lat":59.5594973,"lon":14.6778899,"elevationM":314},{"id":"node:4341776438","kind":"peak","name":"Kyrkberget","lat":59.4743253,"lon":14.9473795,"elevationM":226},{"id":"node:4341776439","kind":"peak","name":"Orrmosshöjden","lat":59.5687652,"lon":14.5419233,"elevationM":333},{"id":"node:4341776440","kind":"peak","name":"Trappberget","lat":59.5990797,"lon":14.1477251,"elevationM":184},{"id":"node:4361447190","kind":"peak","name":"Mankhöjden","lat":59.7998001,"lon":14.2793107,"elevationM":356},{"id":"node:4374713328","kind":"peak","name":"Hästhöjden","lat":59.6015075,"lon":14.4075261,"elevationM":273},{"id":"node:4407624501","kind":"peak","name":"Anders-Jonsbergen","lat":59.760237,"lon":14.167353,"elevationM":231},{"id":"node:4586059384","kind":"peak","name":"Hallfallsberget","lat":59.4288935,"lon":14.8167103,"elevationM":202},{"id":"node:4651401621","kind":"peak","name":"Hökhöjden (Gillershöjden)","lat":59.7913782,"lon":14.5574134,"elevationM":289},{"id":"node:4651401626","kind":"peak","name":"Vackerfallet","lat":59.8164672,"lon":14.5355988,"elevationM":252},{"id":"node:4724954804","kind":"peak","name":"Dansarkullen","lat":59.2744605,"lon":14.7510499,"elevationM":187},{"id":"node:4796454080","kind":"peak","name":"Fläskaberget","lat":59.0052478,"lon":14.7950234,"elevationM":null},{"id":"node:4996732247","kind":"peak","name":"Sävsjöhöjden","lat":59.9030641,"lon":14.5276943,"elevationM":324},{"id":"node:5331982039","kind":"peak","name":"Hulttjärnshöjden","lat":59.8147707,"lon":14.1655183,"elevationM":null},{"id":"node:5331982040","kind":"peak","name":"Klinten","lat":59.8075521,"lon":14.1972756,"elevationM":365},{"id":"node:5331982041","kind":"peak","name":"Storhöjden","lat":59.8708686,"lon":14.180088,"elevationM":null},{"id":"node:5331982042","kind":"peak","name":"Kviddtjärnshöjden","lat":59.8503444,"lon":14.1957981,"elevationM":387},{"id":"node:5349504849","kind":"peak","name":"Mårdberget","lat":59.3492323,"lon":14.9387061,"elevationM":null},{"id":"node:5420808819","kind":"peak","name":"Röberget","lat":59.3640495,"lon":14.9644303,"elevationM":250},{"id":"node:5420808820","kind":"peak","name":"Uvberget","lat":59.3557602,"lon":14.956212,"elevationM":null},{"id":"node:5471655844","kind":"peak","name":"Flyberget","lat":59.4082777,"lon":14.504571,"elevationM":175},{"id":"node:5628717478","kind":"peak","name":"Hälsingsåsen","lat":59.214897,"lon":14.8099619,"elevationM":117},{"id":"node:5700052467","kind":"peak","name":"Bergtjärnshöjden","lat":59.6512219,"lon":14.4681377,"elevationM":316},{"id":"node:5769921635","kind":"peak","name":"Gusskullen","lat":59.9124713,"lon":14.6239829,"elevationM":null},{"id":"node:5769921636","kind":"peak","name":"Sandsjökulle","lat":59.912953,"lon":14.6338215,"elevationM":388},{"id":"node:5769921637","kind":"peak","name":"Fäbodhöjden","lat":59.9185701,"lon":14.6421575,"elevationM":null},{"id":"node:5769921638","kind":"peak","name":"Loxhöjden","lat":59.9734409,"lon":14.6812749,"elevationM":null},{"id":"node:5813033940","kind":"peak","name":"Påskullarna","lat":59.9694056,"lon":14.2101068,"elevationM":null},{"id":"node:5813033945","kind":"peak","name":"Påskullarna","lat":59.9706298,"lon":14.2104072,"elevationM":null},{"id":"node:5813033946","kind":"peak","name":"Kostahöjden","lat":59.9690179,"lon":14.1804716,"elevationM":null},{"id":"node:7320370200","kind":"peak","name":"Lekhytte klint","lat":59.257773,"lon":14.8061746,"elevationM":null},{"id":"node:7320370201","kind":"peak","name":"Trollkullen","lat":59.2665441,"lon":14.8047531,"elevationM":null},{"id":"node:7320370202","kind":"peak","name":"Karl Alfreds berg","lat":59.2581926,"lon":14.8199987,"elevationM":null},{"id":"node:7320370204","kind":"peak","name":"Malmbergshöjden","lat":59.4081085,"lon":14.9222338,"elevationM":null},{"id":"node:7320370205","kind":"peak","name":"Lofallskullen","lat":59.3843131,"lon":14.9005026,"elevationM":null},{"id":"node:7320398347","kind":"peak","name":"Krokängsberget","lat":59.3905715,"lon":14.8323476,"elevationM":null},{"id":"node:7466243164","kind":"peak","name":"Kotjärnskullen","lat":59.7260189,"lon":14.9550622,"elevationM":null},{"id":"node:7466243165","kind":"peak","name":"Slöjdarkullen","lat":59.7354515,"lon":14.9593966,"elevationM":null},{"id":"node:7466246663","kind":"peak","name":"Hjulsjöhöjden","lat":59.9349362,"lon":14.4804264,"elevationM":null},{"id":"node:7466246712","kind":"peak","name":"Daglösberget","lat":59.9211304,"lon":14.4412017,"elevationM":null},{"id":"node:7466248798","kind":"peak","name":"Paradiskullen","lat":59.949959,"lon":14.5038388,"elevationM":null},{"id":"node:7466248799","kind":"peak","name":"Krokhöjden","lat":59.946543,"lon":14.5295022,"elevationM":null},{"id":"node:7466250817","kind":"peak","name":"Risforsberget","lat":59.9133433,"lon":14.4073222,"elevationM":null},{"id":"node:7466251175","kind":"peak","name":"Hasselberget","lat":59.7555097,"lon":14.8506856,"elevationM":null},{"id":"node:7466253397","kind":"peak","name":"Mullbackhöjden","lat":59.9619494,"lon":14.5015879,"elevationM":null},{"id":"node:7466253837","kind":"peak","name":"Uvberget","lat":59.9056404,"lon":14.4016145,"elevationM":null},{"id":"node:7466267516","kind":"peak","name":"Gräsmosberget","lat":59.9523669,"lon":14.53315,"elevationM":null},{"id":"node:7466281052","kind":"peak","name":"Bråtaberget","lat":59.7328981,"lon":14.917258,"elevationM":null},{"id":"node:7466292704","kind":"peak","name":"Gårdvikaberget","lat":59.7387109,"lon":14.8540759,"elevationM":null},{"id":"node:7468437653","kind":"peak","name":"Storbergstorpshöjden","lat":59.4547401,"lon":14.4425184,"elevationM":null},{"id":"node:7468486994","kind":"peak","name":"Mutterberget","lat":59.6464927,"lon":14.8317107,"elevationM":null},{"id":"node:7507408943","kind":"peak","name":"Björnhöjden","lat":59.9007578,"lon":14.4933245,"elevationM":320},{"id":"node:7507417855","kind":"peak","name":"Sävsjöhöjden","lat":59.9030544,"lon":14.5267877,"elevationM":324},{"id":"node:7515580636","kind":"peak","name":"Silverknuten","lat":59.8602539,"lon":14.4995857,"elevationM":376},{"id":"node:7515589510","kind":"peak","name":"Saxeknut","lat":59.7740405,"lon":14.4586452,"elevationM":368},{"id":"node:7527375433","kind":"peak","name":"Lekeberget","lat":59.264466,"lon":14.7779417,"elevationM":null},{"id":"node:7702977576","kind":"peak","name":"Lofallsberget","lat":59.1512521,"lon":14.5672703,"elevationM":null},{"id":"node:7702977579","kind":"peak","name":"Finnåsen","lat":59.1458988,"lon":14.5181322,"elevationM":null},{"id":"node:7702977580","kind":"peak","name":"Tornåsarna","lat":59.1397136,"lon":14.5267152,"elevationM":null},{"id":"node:7704597720","kind":"peak","name":"Kvarnhöjden","lat":59.1966695,"lon":14.5498252,"elevationM":null},{"id":"node:7880688669","kind":"peak","name":"Klinthöjden","lat":59.5052136,"lon":14.4768047,"elevationM":null},{"id":"node:7880688670","kind":"peak","name":"Hålldamshöjden","lat":59.5191377,"lon":14.4623422,"elevationM":null},{"id":"node:8075897202","kind":"peak","name":"Klockarbacken","lat":59.861857,"lon":14.9913243,"elevationM":null},{"id":"node:8156067635","kind":"peak","name":"Lustigberget","lat":59.9978362,"lon":14.7407852,"elevationM":null},{"id":"node:8156067636","kind":"peak","name":"Vinterhöjden","lat":59.9969918,"lon":14.7312108,"elevationM":null},{"id":"node:8156067637","kind":"peak","name":"Ängshöjden","lat":59.9989017,"lon":14.6852056,"elevationM":null},{"id":"node:8257919729","kind":"peak","name":"Kalkberget","lat":59.9929959,"lon":14.9986265,"elevationM":290},{"id":"node:8268075901","kind":"peak","name":"Kisstjärnsberget","lat":59.9986878,"lon":14.9672805,"elevationM":null},{"id":"node:8626348633","kind":"peak","name":"Rävhöjden","lat":59.5087223,"lon":14.1718364,"elevationM":null},{"id":"node:8626348639","kind":"peak","name":"Järphöjden","lat":59.5071163,"lon":14.1419888,"elevationM":null},{"id":"node:8626548651","kind":"peak","name":"Kummelhöjden","lat":59.4756309,"lon":14.2274756,"elevationM":213},{"id":"node:8626548652","kind":"peak","name":"Fräkenviksberget","lat":59.5202612,"lon":14.115862,"elevationM":null},{"id":"node:8669786138","kind":"peak","name":"Östinåsen","lat":59.8112901,"lon":14.6013662,"elevationM":null},{"id":"node:8669786139","kind":"peak","name":"Stationsåsen","lat":59.8122524,"lon":14.590344,"elevationM":null},{"id":"node:8669786144","kind":"peak","name":"Bergsvikskullen","lat":59.8069236,"lon":14.5727607,"elevationM":null},{"id":"node:8669786145","kind":"peak","name":"Älvkullen","lat":59.8051727,"lon":14.5817028,"elevationM":null},{"id":"node:9816625496","kind":"peak","name":"Skribotjärnsberget","lat":59.7395199,"lon":14.1903662,"elevationM":259},{"id":"node:9816625497","kind":"peak","name":"Storhöjden","lat":59.7330368,"lon":14.1988528,"elevationM":284},{"id":"node:9816625498","kind":"peak","name":"Aronsberg","lat":59.6852773,"lon":14.2600332,"elevationM":331},{"id":"node:10422344160","kind":"peak","name":"Krämarberget","lat":59.8297638,"lon":14.955976,"elevationM":null},{"id":"node:10733170010","kind":"peak","name":"Tjärnberget","lat":59.7599344,"lon":14.9171698,"elevationM":null},{"id":"node:10879409994","kind":"peak","name":"Vennikehöjden","lat":59.9784782,"lon":14.0158941,"elevationM":null},{"id":"node:10879409995","kind":"peak","name":"Kassviksberget","lat":59.9762129,"lon":14.0450121,"elevationM":null},{"id":"node:10879409997","kind":"peak","name":"Ladtomthöjden","lat":59.9664304,"lon":14.0992357,"elevationM":null},{"id":"node:10879409998","kind":"peak","name":"Dalkarlsberget","lat":59.9273903,"lon":14.1938519,"elevationM":442},{"id":"node:11099491296","kind":"peak","name":"Husåsen","lat":59.5478601,"lon":14.3225813,"elevationM":275},{"id":"node:11099491297","kind":"peak","name":"Långsjöhöjden","lat":59.5758876,"lon":14.3684788,"elevationM":229},{"id":"node:11099491298","kind":"peak","name":"Rishöjden","lat":59.5616044,"lon":14.3229132,"elevationM":295},{"id":"node:11099491299","kind":"peak","name":"Finnfallshöjden","lat":59.5407133,"lon":14.3615351,"elevationM":280},{"id":"node:11099491300","kind":"peak","name":"Maxhöjden","lat":59.5239642,"lon":14.3813704,"elevationM":220},{"id":"node:11102609530","kind":"peak","name":"Karaberget","lat":59.5147596,"lon":14.92822,"elevationM":140},{"id":"node:11105840967","kind":"peak","name":"Bergshöjden","lat":59.543635,"lon":14.261198,"elevationM":180},{"id":"node:11105840968","kind":"peak","name":"Hollandsberget","lat":59.4950255,"lon":14.344207,"elevationM":160},{"id":"node:11105840972","kind":"peak","name":"Häggdrågshöjden","lat":59.5210533,"lon":14.2652321,"elevationM":160},{"id":"node:11105840973","kind":"peak","name":"Stegelvikshöjden","lat":59.5182723,"lon":14.2843401,"elevationM":230},{"id":"node:11154238548","kind":"peak","name":"Bårsberget","lat":59.6144269,"lon":14.7750016,"elevationM":null},{"id":"node:11154238554","kind":"peak","name":"Sönjaåsen","lat":59.6213065,"lon":14.8020775,"elevationM":null},{"id":"node:11154339963","kind":"peak","name":"Ornäshöjden","lat":59.630534,"lon":14.6728531,"elevationM":null},{"id":"node:11596296242","kind":"peak","name":"Knapphöjden","lat":59.9745453,"lon":14.8021294,"elevationM":null},{"id":"node:11596296244","kind":"peak","name":"Jungfrubrösten","lat":59.9675349,"lon":14.7896946,"elevationM":null},{"id":"node:11596296245","kind":"peak","name":"Jungfrubrösten","lat":59.9668856,"lon":14.7928217,"elevationM":null},{"id":"node:11596296248","kind":"peak","name":"Petter-Nilsberget","lat":59.9240182,"lon":14.783322,"elevationM":null},{"id":"node:11691718786","kind":"peak","name":"Gammelhyttan","lat":59.1876736,"lon":14.6254915,"elevationM":219},{"id":"node:11691718787","kind":"peak","name":"Sjungareberget","lat":59.1591487,"lon":14.6897108,"elevationM":144},{"id":"node:11725136980","kind":"peak","name":"Gåsklinten","lat":59.8647362,"lon":14.3259895,"elevationM":414},{"id":"node:11725199749","kind":"peak","name":"Kroktjärnsberget","lat":59.9390602,"lon":14.8562162,"elevationM":365},{"id":"node:11913535142","kind":"peak","name":"Håkansbodaberget","lat":59.6926379,"lon":14.9101776,"elevationM":null},{"id":"node:11986143145","kind":"peak","name":"Sandsjöberget","lat":59.8567549,"lon":14.1069206,"elevationM":null},{"id":"node:11986205701","kind":"peak","name":"Svarttjärnsberget","lat":59.6865621,"lon":14.2669315,"elevationM":null},{"id":"node:11986218341","kind":"peak","name":"Ängtjärnshöjden","lat":59.6805291,"lon":14.3398147,"elevationM":null},{"id":"node:11989529339","kind":"peak","name":"Blåsjöhöjden","lat":59.603267,"lon":14.3626912,"elevationM":null},{"id":"node:11990913135","kind":"peak","name":"Råbergen","lat":59.3876012,"lon":14.1257546,"elevationM":null},{"id":"node:11990942136","kind":"peak","name":"Svartberget","lat":59.9693666,"lon":14.2420314,"elevationM":null},{"id":"node:11990942137","kind":"peak","name":"Kroktjärnskullen","lat":59.964407,"lon":14.2548589,"elevationM":null},{"id":"node:11990952788","kind":"peak","name":"Hundhallberget","lat":59.9082634,"lon":14.3287929,"elevationM":null},{"id":"node:11990952793","kind":"peak","name":"Åshöjden","lat":59.9028759,"lon":14.2801651,"elevationM":null},{"id":"node:11992763823","kind":"peak","name":"Kattåsberget","lat":59.7273584,"lon":14.8621498,"elevationM":null},{"id":"node:11992763825","kind":"peak","name":"Högåsen","lat":59.7535836,"lon":14.806824,"elevationM":null},{"id":"node:11992763828","kind":"peak","name":"Brännberget","lat":59.7976293,"lon":14.7524318,"elevationM":null},{"id":"node:11992767636","kind":"peak","name":"Torrboklinten","lat":59.5426601,"lon":14.5917011,"elevationM":null},{"id":"node:11992792768","kind":"peak","name":"Grävlingåsarna","lat":59.7420363,"lon":14.8708453,"elevationM":null},{"id":"node:11992794869","kind":"peak","name":"Kalklinten","lat":59.7420057,"lon":14.8908549,"elevationM":null},{"id":"node:11992794887","kind":"peak","name":"Kvarnåsen","lat":59.7578614,"lon":14.6130507,"elevationM":null},{"id":"node:11992794904","kind":"peak","name":"Svarta berget","lat":59.7636904,"lon":14.6278954,"elevationM":null},{"id":"node:11992794905","kind":"peak","name":"Ekebergshöjden","lat":59.7736833,"lon":14.652651,"elevationM":null},{"id":"node:11992794908","kind":"peak","name":"Finnfallshöjden","lat":59.7934808,"lon":14.7016679,"elevationM":null},{"id":"node:11999844084","kind":"peak","name":"Alkotteberget","lat":59.3734501,"lon":14.9891633,"elevationM":null},{"id":"node:11999844085","kind":"peak","name":"Skansberget","lat":59.3707962,"lon":14.9828623,"elevationM":null},{"id":"node:11999874658","kind":"peak","name":"Tulleritopp","lat":59.4136737,"lon":14.5939852,"elevationM":null},{"id":"node:12001729457","kind":"peak","name":"Lönnhöjden","lat":59.5979258,"lon":14.5367366,"elevationM":null},{"id":"node:12002171419","kind":"peak","name":"Bastfothöjden","lat":59.5061219,"lon":14.128545,"elevationM":null},{"id":"node:12002171420","kind":"peak","name":"Legårdshöjderna","lat":59.5001853,"lon":14.1057589,"elevationM":null},{"id":"node:12002171421","kind":"peak","name":"Torphöjden","lat":59.5146834,"lon":14.1214717,"elevationM":null},{"id":"node:12002171422","kind":"peak","name":"Bonnstahöjden","lat":59.516079,"lon":14.1116735,"elevationM":null},{"id":"node:12027559308","kind":"peak","name":"Prästhöjden","lat":59.6112531,"lon":14.2377228,"elevationM":null},{"id":"node:12040756822","kind":"peak","name":"Silverberget","lat":59.7121238,"lon":14.927196,"elevationM":null},{"id":"node:12380800667","kind":"peak","name":"Högberget","lat":59.964291,"lon":14.9978874,"elevationM":null},{"id":"node:12384082509","kind":"peak","name":"Dalkerbergshöjden","lat":59.3727695,"lon":14.2637873,"elevationM":null},{"id":"node:12384103857","kind":"peak","name":"Limkullarna","lat":59.549641,"lon":14.861567,"elevationM":null},{"id":"node:12530474559","kind":"peak","name":"Brännsjöhöjden","lat":59.2219193,"lon":14.7273678,"elevationM":null},{"id":"node:12612245124","kind":"peak","name":"Storängsberget","lat":59.7227513,"lon":14.9214444,"elevationM":null},{"id":"node:12612245169","kind":"peak","name":"Höjdaåsen","lat":59.6747354,"lon":14.7699221,"elevationM":null},{"id":"node:12612307718","kind":"peak","name":"Nydammsbergen","lat":59.6748028,"lon":14.9578573,"elevationM":null},{"id":"node:12613922679","kind":"peak","name":"Björnaberget","lat":59.7991251,"lon":14.8070376,"elevationM":null},{"id":"node:12613922680","kind":"peak","name":"Bondberget","lat":59.7979501,"lon":14.9189878,"elevationM":null},{"id":"node:13673517013","kind":"peak","name":"Hasselkullen","lat":59.770591,"lon":14.7055125,"elevationM":null}]}