{"tileKey":"la_p60_lo_p21","version":"v1-1775891056926","entries":[{"id":"node:282080004","kind":"peak","name":"Borgberg","lat":60.2168566,"lon":21.3046547,"elevationM":null},{"id":"node:430333748","kind":"peak","name":"Hautvuori","lat":60.8621064,"lon":21.7770179,"elevationM":25},{"id":"node:1888875786","kind":"peak","name":"Mannuistenvuori","lat":60.6008103,"lon":21.9202156,"elevationM":56},{"id":"node:4970928878","kind":"peak","name":"Husbergen","lat":60.1798554,"lon":21.8282949,"elevationM":60},{"id":"node:5922468916","kind":"peak","name":"Vargberget","lat":60.1353221,"lon":21.7866705,"elevationM":46},{"id":"node:6381735884","kind":"peak","name":"Munavuori","lat":60.4585469,"lon":21.8370283,"elevationM":40},{"id":"node:6381735885","kind":"peak","name":"Kaasavuori","lat":60.4569321,"lon":21.8330848,"elevationM":50},{"id":"node:6381737203","kind":"peak","name":"Myllykallio","lat":60.4664282,"lon":21.8241128,"elevationM":35},{"id":"node:6604530691","kind":"peak","name":"Pyytinvuori","lat":60.4651509,"lon":21.6480155,"elevationM":45},{"id":"node:6621933552","kind":"peak","name":"Haukkavuori","lat":60.2969857,"lon":21.7214464,"elevationM":40},{"id":"node:6662174172","kind":"peak","name":"Smörasken","lat":60.1502234,"lon":21.9062299,"elevationM":45},{"id":"node:7408982860","kind":"peak","name":"Rauasvuori","lat":60.6479216,"lon":21.9512629,"elevationM":null},{"id":"node:7408982861","kind":"peak","name":"Mynämäen Linnavuori","lat":60.6542186,"lon":21.9371706,"elevationM":null},{"id":"node:8287403429","kind":"peak","name":"Kuuanvuori","lat":60.780734,"lon":21.5841802,"elevationM":49},{"id":"node:9331383911","kind":"peak","name":"Vähä Kuuvanvuori","lat":60.7775992,"lon":21.5783865,"elevationM":null},{"id":"node:9331383912","kind":"peak","name":"Ollinvuori","lat":60.7778728,"lon":21.5908407,"elevationM":null},{"id":"node:9331472317","kind":"peak","name":"Suntivuori","lat":60.7864753,"lon":21.6219514,"elevationM":null},{"id":"node:9557539780","kind":"peak","name":"Linttisvuori","lat":60.7024886,"lon":21.8962187,"elevationM":null},{"id":"node:9557539781","kind":"peak","name":"Kukonvuori","lat":60.6970386,"lon":21.8944592,"elevationM":null},{"id":"node:9557539782","kind":"peak","name":"Ketunluolanmäki","lat":60.6943289,"lon":21.8841381,"elevationM":null},{"id":"node:9557539783","kind":"peak","name":"Laurinmäki","lat":60.6972276,"lon":21.8817992,"elevationM":null},{"id":"node:9557584454","kind":"peak","name":"Myllymäki","lat":60.6424895,"lon":21.8266045,"elevationM":null},{"id":"node:9765990727","kind":"peak","name":"Kirkkovuori","lat":60.6943143,"lon":21.5369342,"elevationM":null},{"id":"node:9766001139","kind":"peak","name":"Isovuori","lat":60.6987758,"lon":21.5153563,"elevationM":null},{"id":"node:9766001140","kind":"peak","name":"Valkiavuori","lat":60.7051048,"lon":21.5345878,"elevationM":null},{"id":"node:9766001141","kind":"peak","name":"Kylävuori","lat":60.7082633,"lon":21.5291516,"elevationM":null},{"id":"node:9766001142","kind":"peak","name":"Rajavuori","lat":60.7090435,"lon":21.5394196,"elevationM":null},{"id":"node:9766001143","kind":"peak","name":"Ritavuori","lat":60.7044775,"lon":21.5143561,"elevationM":null},{"id":"node:9766001144","kind":"peak","name":"Suovuori","lat":60.6981734,"lon":21.492168,"elevationM":null},{"id":"node:9766001145","kind":"peak","name":"Härkähaanvuori","lat":60.690868,"lon":21.4902813,"elevationM":null},{"id":"node:9912845222","kind":"peak","name":"Pärkänvuori","lat":60.6339154,"lon":21.5489668,"elevationM":null},{"id":"node:9912991089","kind":"peak","name":"Hopiavuori","lat":60.5543516,"lon":21.4073884,"elevationM":null},{"id":"node:9912991094","kind":"peak","name":"Kuulivuori","lat":60.5689976,"lon":21.3903367,"elevationM":null},{"id":"node:9912991098","kind":"peak","name":"Rantaniitunvuori","lat":60.5789494,"lon":21.4078712,"elevationM":null},{"id":"node:9912991107","kind":"peak","name":"Hyyppivuori","lat":60.5817068,"lon":21.3946594,"elevationM":null},{"id":"node:9912991108","kind":"peak","name":"Kräkiniemi","lat":60.5809836,"lon":21.3714468,"elevationM":null},{"id":"node:9912991109","kind":"peak","name":"Riskeläisvuori","lat":60.5360526,"lon":21.3730883,"elevationM":null},{"id":"node:9912996313","kind":"peak","name":"Pohjavuori","lat":60.5056731,"lon":21.3260067,"elevationM":null},{"id":"node:9913011320","kind":"peak","name":"Kaasavuori","lat":60.5700203,"lon":21.2540841,"elevationM":null},{"id":"node:9913900245","kind":"peak","name":"Hyyppivuori","lat":60.597246,"lon":21.5632579,"elevationM":null},{"id":"node:9950864507","kind":"peak","name":"Bastberg","lat":60.4035107,"lon":21.4241767,"elevationM":null},{"id":"node:9972004080","kind":"peak","name":"Mustanokka","lat":60.6115787,"lon":21.7783982,"elevationM":null},{"id":"node:9972004081","kind":"peak","name":"Ruopanvuori","lat":60.606091,"lon":21.7576789,"elevationM":null},{"id":"node:9972004083","kind":"peak","name":"Niemenvuori","lat":60.5978524,"lon":21.7502224,"elevationM":null},{"id":"node:9972004084","kind":"peak","name":"Torpanmäki","lat":60.606091,"lon":21.7463057,"elevationM":null},{"id":"node:10044389424","kind":"peak","name":"Matinpervonmäki","lat":60.7783531,"lon":21.9990001,"elevationM":null},{"id":"node:10086395574","kind":"peak","name":"Rumavuori","lat":60.611234,"lon":21.8460252,"elevationM":null},{"id":"node:10126377546","kind":"peak","name":"Mustamäki","lat":60.567353,"lon":21.9411135,"elevationM":null},{"id":"node:10126377550","kind":"peak","name":"Isovuori","lat":60.5574873,"lon":21.9453299,"elevationM":null},{"id":"node:10126377551","kind":"peak","name":"Reisvuori","lat":60.5578169,"lon":21.9466066,"elevationM":null},{"id":"node:10126377553","kind":"peak","name":"Pyölinvuori","lat":60.5612974,"lon":21.9462955,"elevationM":null},{"id":"node:10210201788","kind":"peak","name":"Högberg","lat":60.1081946,"lon":21.6469288,"elevationM":null},{"id":"node:10718772795","kind":"peak","name":"Vinkkilän Linnavuori","lat":60.6738748,"lon":21.7288166,"elevationM":25},{"id":"node:10991814676","kind":"peak","name":"Hooperinvuori","lat":60.5491458,"lon":21.4737471,"elevationM":null},{"id":"node:11049159783","kind":"peak","name":"Mäkilänmäki","lat":60.929968,"lon":21.3361286,"elevationM":null},{"id":"node:11164901900","kind":"peak","name":"Kokonvuori","lat":60.6723637,"lon":21.4640588,"elevationM":null},{"id":"node:11164901901","kind":"peak","name":"Ketunvuori","lat":60.6753652,"lon":21.4405555,"elevationM":22},{"id":"node:11252606168","kind":"peak","name":"Haapaniemenmäki","lat":60.8447109,"lon":21.9136862,"elevationM":null},{"id":"node:11252606172","kind":"peak","name":"Äijänojanmäki","lat":60.8705088,"lon":21.982126,"elevationM":null},{"id":"node:11252606173","kind":"peak","name":"Isomäki","lat":60.8725835,"lon":21.9971847,"elevationM":null},{"id":"node:11252691784","kind":"peak","name":"Pitkäsmäki","lat":60.6542014,"lon":21.8748829,"elevationM":null},{"id":"node:11252691785","kind":"peak","name":"Kappelimäki","lat":60.6665844,"lon":21.8573493,"elevationM":null},{"id":"node:11252691787","kind":"peak","name":"Lauttanpäänmäki","lat":60.651185,"lon":21.8528235,"elevationM":null},{"id":"node:11252691788","kind":"peak","name":"Oksasenmäki","lat":60.6476915,"lon":21.8317144,"elevationM":null},{"id":"node:11252691789","kind":"peak","name":"Koivumäki","lat":60.6549038,"lon":21.9006858,"elevationM":null},{"id":"node:11252691790","kind":"peak","name":"Koivistonvuori","lat":60.6501542,"lon":21.890703,"elevationM":25},{"id":"node:11252691791","kind":"peak","name":"Kallivuori","lat":60.6513291,"lon":21.8713583,"elevationM":null},{"id":"node:11252691793","kind":"peak","name":"Ilmamäki","lat":60.642271,"lon":21.8773483,"elevationM":null},{"id":"node:11313901552","kind":"peak","name":"Isonnummenmäki","lat":60.7968957,"lon":21.6317105,"elevationM":null},{"id":"node:11313901553","kind":"peak","name":"Kiramäki","lat":60.7929325,"lon":21.6592075,"elevationM":null},{"id":"node:11313901554","kind":"peak","name":"Kiikunvuori","lat":60.7805462,"lon":21.6738915,"elevationM":null},{"id":"node:11313928690","kind":"peak","name":"Myllymäki","lat":60.7697745,"lon":21.65108,"elevationM":null},{"id":"node:11414667960","kind":"peak","name":"Myllymäki","lat":60.693012,"lon":21.7660916,"elevationM":null},{"id":"node:11414667962","kind":"peak","name":"Portaankorvenmäki","lat":60.689451,"lon":21.7536622,"elevationM":null},{"id":"node:11422752563","kind":"peak","name":"Lasamäki","lat":60.7880483,"lon":21.4502599,"elevationM":null},{"id":"node:11502891533","kind":"peak","name":"Kappelinkallio","lat":60.791224,"lon":21.1449669,"elevationM":null},{"id":"node:12075002180","kind":"peak","name":"Myllymäki","lat":60.6708053,"lon":21.7999353,"elevationM":null},{"id":"node:12093479643","kind":"peak","name":"Jyrkänvuori","lat":60.8159255,"lon":21.8565984,"elevationM":null},{"id":"node:12093479644","kind":"peak","name":"Pajasuonmäki","lat":60.8214627,"lon":21.837049,"elevationM":null},{"id":"node:12093479646","kind":"peak","name":"Ukonkallio","lat":60.8271834,"lon":21.8578007,"elevationM":null},{"id":"node:12093479647","kind":"peak","name":"Mongonhölppä","lat":60.8208021,"lon":21.8670596,"elevationM":null},{"id":"node:12093479649","kind":"peak","name":"Näkötorninmäki","lat":60.8151878,"lon":21.8223943,"elevationM":null},{"id":"node:12093479651","kind":"peak","name":"Matoluolanmäki","lat":60.8295621,"lon":21.8121255,"elevationM":null},{"id":"node:12093479652","kind":"peak","name":"Kirkkovuori","lat":60.8446365,"lon":21.822037,"elevationM":null},{"id":"node:12114549611","kind":"peak","name":"Sant Henrikin vuoret","lat":60.5261381,"lon":21.4354312,"elevationM":null},{"id":"node:12445951352","kind":"peak","name":"Itsalonvuori","lat":60.5571776,"lon":21.3757494,"elevationM":null},{"id":"node:12450287914","kind":"peak","name":"Knuppilanvuori","lat":60.5515911,"lon":21.4132072,"elevationM":null},{"id":"node:12738776329","kind":"peak","name":"Koivumäki","lat":60.5759852,"lon":21.9019336,"elevationM":null},{"id":"node:12738776398","kind":"peak","name":"Kaukvuorenmäki","lat":60.5726471,"lon":21.9147023,"elevationM":null},{"id":"node:12896620225","kind":"peak","name":"Vuorikko","lat":60.4506807,"lon":21.9236952,"elevationM":null},{"id":"node:12896620296","kind":"peak","name":"Porhonvuori","lat":60.4596668,"lon":21.932987,"elevationM":null},{"id":"node:13504809781","kind":"peak","name":"Rajavuori","lat":60.3238667,"lon":21.8147784,"elevationM":20},{"id":"node:13504809784","kind":"peak","name":"Luolavuori","lat":60.3210148,"lon":21.8341333,"elevationM":null},{"id":"node:13609442920","kind":"peak","name":"Raskinvuori","lat":60.9572253,"lon":21.5629649,"elevationM":null},{"id":"node:13609442923","kind":"peak","name":"Ridankallio","lat":60.9663648,"lon":21.5872764,"elevationM":null},{"id":"node:13609443133","kind":"peak","name":"Vaivankallio","lat":60.9639227,"lon":21.5435886,"elevationM":null},{"id":"node:13609443134","kind":"peak","name":"Kihlakallio","lat":60.9743981,"lon":21.5580779,"elevationM":null},{"id":"node:13611869517","kind":"peak","name":"Pillimäki","lat":60.9736121,"lon":21.5322161,"elevationM":null},{"id":"node:13611870288","kind":"peak","name":"Vuorenmäki","lat":60.9847661,"lon":21.5823734,"elevationM":null},{"id":"node:13611870289","kind":"peak","name":"Saarenmäki","lat":60.9821796,"lon":21.5592956,"elevationM":null},{"id":"node:13638367483","kind":"peak","name":"Veltraumanmäki","lat":60.8980232,"lon":21.4408922,"elevationM":null},{"id":"node:13666593767","kind":"peak","name":"Kihlonvuori","lat":60.9497243,"lon":21.3848018,"elevationM":null}]}