{"tileKey":"la_p61_lo_p152","version":"v1-1775891056926","entries":[{"id":"node:9021933002","kind":"peak","name":"Фаины","lat":61.6020752,"lon":152.4232874,"elevationM":1387},{"id":"node:9021985360","kind":"peak","name":"Сулухачан","lat":61.8722384,"lon":152.7410268,"elevationM":1170},{"id":"node:9024049470","kind":"peak","name":"Горячий Ключ","lat":61.2080994,"lon":152.0315552,"elevationM":1411},{"id":"node:9024119464","kind":"peak","name":"Ташота","lat":61.5715111,"lon":152.062467,"elevationM":1459},{"id":"node:9024124432","kind":"peak","name":"Гряда","lat":61.9399391,"lon":152.9855821,"elevationM":1309},{"id":"node:9024126420","kind":"peak","name":"Герба","lat":61.6869202,"lon":152.4087982,"elevationM":1009},{"id":"node:10600811919","kind":"peak","name":"Шлем","lat":61.7452388,"lon":152.8916453,"elevationM":1030},{"id":"node:10607524385","kind":"peak","name":"Заросший","lat":61.3055984,"lon":152.9809882,"elevationM":1046},{"id":"node:11850252956","kind":"peak","name":"Болдырева","lat":61.0411539,"lon":152.0260646,"elevationM":1663}]}