{"tileKey":"la_p33_lo_m5","version":"v1-1775891056926","entries":[{"id":"node:6146383973","kind":"peak","name":"Moussa ou Salah","lat":33.6917527,"lon":-4.0618894,"elevationM":3172},{"id":"node:6146384288","kind":"peak","name":"جبل بويبلان","lat":33.6792651,"lon":-4.0764624,"elevationM":3081},{"id":"node:6431344150","kind":"peak","name":"Jebel Missour","lat":33.0004195,"lon":-4.1727767,"elevationM":null},{"id":"node:11777014299","kind":"peak","name":"Volcan Aguelmame Sidi Ali","lat":33.0847318,"lon":-4.9960127,"elevationM":null},{"id":"node:11777106669","kind":"peak","name":"ICH N-IRKIBAT","lat":33.8376564,"lon":-4.0908492,"elevationM":null},{"id":"node:11777106670","kind":"peak","name":"ADRAR OU BOUMLAL","lat":33.835622,"lon":-4.0593178,"elevationM":null},{"id":"node:12383335869","kind":"peak","name":"Jbel Qalaa","lat":33.9367833,"lon":-4.0090655,"elevationM":1393},{"id":"node:12463317030","kind":"peak","name":"جبل بولمسكر","lat":33.4406533,"lon":-4.3342658,"elevationM":1841},{"id":"node:12463553802","kind":"peak","name":"جبل بولمسكر","lat":33.4406852,"lon":-4.3342842,"elevationM":null},{"id":"node:12463558102","kind":"peak","name":"قمة تيشوكت لهري","lat":33.4615451,"lon":-4.556657,"elevationM":null},{"id":"node:12647397118","kind":"peak","name":"جبل أحمري بين آيت حسان و آيت الحسن","lat":33.5355739,"lon":-4.166745,"elevationM":null},{"id":"node:12660852998","kind":"peak","name":"Jbal Alm Widdour Ait Hassan","lat":33.4883892,"lon":-4.0556297,"elevationM":2424},{"id":"node:12695519215","kind":"peak","name":"جبل بيزي","lat":33.4905143,"lon":-4.0404553,"elevationM":2200},{"id":"node:13230998201","kind":"peak","name":"تالْمات Talmat","lat":33.4917339,"lon":-4.0439132,"elevationM":2300},{"id":"node:13314353304","kind":"peak","name":"جبل أحمري  Jebel Ahmari","lat":33.5266916,"lon":-4.1720673,"elevationM":2500}]}