{"tileKey":"la_p52_lo_m122","version":"v1-1775891056926","entries":[{"id":"node:7061795146","kind":"peak","name":"Browntop Mountain","lat":52.7078228,"lon":-121.3345099,"elevationM":2024},{"id":"node:7779759223","kind":"peak","name":"Kangaroo Mountain","lat":52.7316512,"lon":-121.721743,"elevationM":1455},{"id":"node:7779759243","kind":"peak","name":"Coyote Hill","lat":52.7590529,"lon":-121.6968093,"elevationM":1335},{"id":"node:7779759298","kind":"peak","name":"Duck Creek Mountain","lat":52.8112912,"lon":-121.5972349,"elevationM":1564},{"id":"node:7779759303","kind":"peak","name":"Keithley Creek Mountain","lat":52.8208643,"lon":-121.6338159,"elevationM":1707},{"id":"node:7779759326","kind":"peak","name":"Cariboo Mountain","lat":52.8577619,"lon":-121.6471329,"elevationM":1928},{"id":"node:7779759427","kind":"peak","name":"Roundtop Mountain","lat":52.9242718,"lon":-121.3161913,"elevationM":2051},{"id":"node:7779759428","kind":"peak","name":"Middle Mountain","lat":52.9103643,"lon":-121.2999416,"elevationM":2025},{"id":"node:7779759509","kind":"peak","name":"Black Stuart Mountain North Peak","lat":52.8956733,"lon":-121.1318372,"elevationM":1928},{"id":"node:7779759510","kind":"peak","name":"Black Stuart Mountain South Peak","lat":52.8933825,"lon":-121.1339678,"elevationM":1925},{"id":"node:11195085503","kind":"peak","name":"Yanks Peak","lat":52.8461486,"lon":-121.43119,"elevationM":1902},{"id":"node:11762703784","kind":"peak","name":"Mount Guy","lat":52.4773029,"lon":-121.907001,"elevationM":null},{"id":"node:11762722231","kind":"peak","name":"Limestone Mountain","lat":52.42032,"lon":-121.8746566,"elevationM":null},{"id":"node:11762726100","kind":"peak","name":"Limestone Mountain","lat":52.419614,"lon":-121.8626401,"elevationM":null}]}