{"tileKey":"la_p45_lo_m1","version":"v1-1775891056926","entries":[{"id":"node:911559561","kind":"peak","name":"Heurte Bise","lat":45.6097032,"lon":-0.1510719,"elevationM":134},{"id":"node:9705828555","kind":"peak","name":"Beaumont","lat":45.4466939,"lon":-0.7527225,"elevationM":null},{"id":"node:10291499052","kind":"peak","name":"Trier Têtu","lat":45.5802161,"lon":-0.9772996,"elevationM":null},{"id":"node:10291510650","kind":"peak","name":"Trier de la Duchesse","lat":45.5888471,"lon":-0.9655966,"elevationM":null},{"id":"node:10291510651","kind":"peak","name":"Trier de la Moutarderie","lat":45.5859154,"lon":-0.9671699,"elevationM":null},{"id":"node:12205205560","kind":"peak","name":"Le Peux","lat":45.6097393,"lon":-0.9493098,"elevationM":null},{"id":"node:12726945547","kind":"peak","name":"Le Terrier","lat":45.7545871,"lon":-0.3736856,"elevationM":50},{"id":"node:12921663987","kind":"peak","name":"les Brandes de Chantier","lat":45.589279,"lon":-0.9315721,"elevationM":null}]}