{"tileKey":"la_p16_lo_p36","version":"v1-1775891056926","entries":[{"id":"node:7731288878","kind":"peak","name":"Jabal Whadaribba","lat":16.5,"lon":36.866667,"elevationM":null},{"id":"node:7731288916","kind":"peak","name":"Jabal Yōyēb","lat":16.690602,"lon":36.6517,"elevationM":null},{"id":"node:7731289049","kind":"peak","name":"جبل بسيد","lat":16.4325,"lon":36.7495,"elevationM":null},{"id":"node:7731289050","kind":"peak","name":"Jabal Karantēla","lat":16.1271,"lon":36.6784,"elevationM":null},{"id":"node:7731289057","kind":"peak","name":"Jabal Sanqadāyēt","lat":16.3842,"lon":36.6483,"elevationM":null},{"id":"node:7731289061","kind":"peak","name":"Jabal Din‘awēb","lat":16.366,"lon":36.7059,"elevationM":null},{"id":"node:7731290101","kind":"peak","name":"Jabal Tisafara","lat":16.833333,"lon":36.016667,"elevationM":null},{"id":"node:7731290129","kind":"peak","name":"Jabal Ōdīn","lat":16.535644,"lon":36.6336,"elevationM":null},{"id":"node:7731290431","kind":"peak","name":"جبل تقولل","lat":16.0609,"lon":36.6259,"elevationM":null},{"id":"node:7731290435","kind":"peak","name":"Jabal Tiēsāy","lat":16.1051,"lon":36.7862,"elevationM":null},{"id":"node:7731290436","kind":"peak","name":"Jabal Shumshādōy","lat":16.1042,"lon":36.7649,"elevationM":null},{"id":"node:7731290437","kind":"peak","name":"جبل الآباب","lat":16.3473,"lon":36.7723,"elevationM":null},{"id":"node:7731290446","kind":"peak","name":"Makēqāb","lat":16.653611,"lon":36.533889,"elevationM":null},{"id":"node:7731290465","kind":"peak","name":"قلمتيت","lat":16.2504,"lon":36.7803,"elevationM":null},{"id":"node:7731290467","kind":"peak","name":"Jabal Tahamadhēr","lat":16.3106,"lon":36.7537,"elevationM":null},{"id":"node:7731290468","kind":"peak","name":"جبل مهمّد بهر","lat":16.1892,"lon":36.7234,"elevationM":null},{"id":"node:7731290469","kind":"peak","name":"جبل بلكواناو","lat":16.0717,"lon":36.6966,"elevationM":null},{"id":"node:7731290472","kind":"peak","name":"Jabal Tibrēbirrisat","lat":16.1873,"lon":36.758,"elevationM":null},{"id":"node:7731290495","kind":"peak","name":"جبل أبشقار","lat":16.2946,"lon":36.6972,"elevationM":null},{"id":"node:7731290500","kind":"peak","name":"Jabal Kōdatāt","lat":16.1913,"lon":36.8129,"elevationM":null},{"id":"node:7731290501","kind":"peak","name":"جبل ميكيي","lat":16.544206,"lon":36.648973,"elevationM":null},{"id":"node:7731290507","kind":"peak","name":"جبل كلّداب","lat":16.2535,"lon":36.8286,"elevationM":null},{"id":"node:7731290517","kind":"peak","name":"Jabal Tawilkinēt","lat":16.0245,"lon":36.5856,"elevationM":null},{"id":"node:7731290519","kind":"peak","name":"Jabal Ēlātyōt","lat":16.3386,"lon":36.7934,"elevationM":null},{"id":"node:7731290520","kind":"peak","name":"Jabal Anōy","lat":16.4884,"lon":36.7808,"elevationM":null},{"id":"node:7731290521","kind":"peak","name":"Jabal Balāwēt","lat":16.2008,"lon":36.5789,"elevationM":null},{"id":"node:7731290522","kind":"peak","name":"Jabal Hakalwēb","lat":16.1688,"lon":36.643,"elevationM":null},{"id":"node:7731291633","kind":"peak","name":"Jabal Rabussom","lat":16.75,"lon":36.983333,"elevationM":null},{"id":"node:7731291998","kind":"peak","name":"جبل مايقرميت","lat":16.4755,"lon":36.6408,"elevationM":null},{"id":"node:7731292422","kind":"peak","name":"Jabal Burāy Akōn","lat":16.7173,"lon":36.1895,"elevationM":null},{"id":"node:7731292482","kind":"peak","name":"Jabal Tuggatriba","lat":16.233333,"lon":36.85,"elevationM":null},{"id":"node:7731292483","kind":"peak","name":"Jabal Atkinad","lat":16.233333,"lon":36.816667,"elevationM":null},{"id":"node:7731292484","kind":"peak","name":"Jabal Garaweb","lat":16.483333,"lon":36.7,"elevationM":null},{"id":"node:7731292485","kind":"peak","name":"Jabal Shababit","lat":16.616667,"lon":36.633333,"elevationM":null},{"id":"node:7731292710","kind":"peak","name":"Rāyda","lat":16.0635,"lon":36.6521,"elevationM":null},{"id":"node:7731292711","kind":"peak","name":"Jabal Adarōt","lat":16.579444,"lon":36.673611,"elevationM":null},{"id":"node:7731292719","kind":"peak","name":"Jabal Arbaqaddor Tōywēt","lat":16.0792,"lon":36.6595,"elevationM":null},{"id":"node:7731292964","kind":"peak","name":"جبل ققنّيت","lat":16.4505,"lon":36.5749,"elevationM":null},{"id":"node:7731292997","kind":"peak","name":"Jabal Sifrah al Abyaḑ","lat":16.8663,"lon":36.0115,"elevationM":null},{"id":"node:7731293019","kind":"peak","name":"Jabal Ayōb","lat":16.528151,"lon":36.747805,"elevationM":null},{"id":"node:7731293021","kind":"peak","name":"Jabal Tekarai","lat":16.1557,"lon":36.6195,"elevationM":null},{"id":"node:7731293034","kind":"peak","name":"جبل زرافياي","lat":16.0168,"lon":36.6948,"elevationM":null},{"id":"node:7731293035","kind":"peak","name":"جبل دلكاي","lat":16.0711,"lon":36.6614,"elevationM":null},{"id":"node:7731293036","kind":"peak","name":"جبل ولكواناو","lat":16.0984,"lon":36.6602,"elevationM":null},{"id":"node:7731293037","kind":"peak","name":"Jabal Mōna","lat":16.1007,"lon":36.6677,"elevationM":null},{"id":"node:7731293038","kind":"peak","name":"جبل تلنسر","lat":16.1212,"lon":36.6534,"elevationM":null},{"id":"node:7731293045","kind":"peak","name":"Jabal Qabāyēt","lat":16.688276,"lon":36.568336,"elevationM":null},{"id":"node:7731293051","kind":"peak","name":"جبل أمرغأر","lat":16.1446,"lon":36.629,"elevationM":null},{"id":"node:7731293052","kind":"peak","name":"جبل وهناقرم","lat":16.1622,"lon":36.6268,"elevationM":null},{"id":"node:7731293053","kind":"peak","name":"Jabal Lēkamāt","lat":16.1405,"lon":36.6531,"elevationM":null},{"id":"node:7731293064","kind":"peak","name":"Jabal Afarēb Shanqiwīt","lat":16.1403,"lon":36.7852,"elevationM":null},{"id":"node:7731293159","kind":"peak","name":"Jabal Awadinōr","lat":16.3052,"lon":36.6416,"elevationM":null},{"id":"node:7731293160","kind":"peak","name":"Jabal Nasrad‘awēb","lat":16.3453,"lon":36.6897,"elevationM":null},{"id":"node:7731293915","kind":"peak","name":"Jabal Nonit","lat":16.983333,"lon":36.933333,"elevationM":null},{"id":"node:7731311308","kind":"peak","name":"Jabal Malogirmei","lat":16.966667,"lon":36.833333,"elevationM":null},{"id":"node:7731311473","kind":"peak","name":"جبل سلمت","lat":16.876,"lon":36.0916,"elevationM":null},{"id":"node:7731311477","kind":"peak","name":"Jabal Hashāyēb","lat":16.507761,"lon":36.765073,"elevationM":null},{"id":"node:7731311485","kind":"peak","name":"جبل هدرباب","lat":16.4424,"lon":36.8181,"elevationM":null},{"id":"node:7731311489","kind":"peak","name":"جبل سفر أسود","lat":16.8807,"lon":36.1419,"elevationM":null},{"id":"node:7731311494","kind":"peak","name":"جبل تهقّق","lat":16.2365,"lon":36.8266,"elevationM":null},{"id":"node:7731311955","kind":"peak","name":"Jabal Benaifer","lat":16.216667,"lon":36.9,"elevationM":null},{"id":"node:7731312101","kind":"peak","name":"Jabal Bakwitne","lat":16.6,"lon":36.783333,"elevationM":null},{"id":"node:7731312102","kind":"peak","name":"Shebergeid","lat":16.45,"lon":36.783333,"elevationM":null},{"id":"node:7731312103","kind":"peak","name":"Jabal Ma’man","lat":16.283333,"lon":36.783333,"elevationM":null},{"id":"node:7731312140","kind":"peak","name":"Jibāl Agalētmōy","lat":16.138,"lon":36.7632,"elevationM":null},{"id":"node:7731312141","kind":"peak","name":"Jabal Salabrōb","lat":16.8822,"lon":36.1115,"elevationM":null},{"id":"node:7731312231","kind":"peak","name":"Jabal Tisheiga","lat":16.1204,"lon":36.5464,"elevationM":null},{"id":"node:7731314392","kind":"peak","name":"Jibāl Kōrēb","lat":16.797864,"lon":36.79961,"elevationM":null},{"id":"node:7731314432","kind":"peak","name":"Jibāl Kōrēb","lat":16.732269,"lon":36.666885,"elevationM":null},{"id":"node:7731314543","kind":"peak","name":"جبال ليلنات","lat":16.916111,"lon":36.356667,"elevationM":null},{"id":"node:7731314547","kind":"peak","name":"Jibāl Askinēb","lat":16.958756,"lon":36.772299,"elevationM":null},{"id":"node:7731314553","kind":"peak","name":"Jabal Agiranai","lat":16.2993,"lon":36.7906,"elevationM":null},{"id":"node:7731314556","kind":"peak","name":"Jibāl Kōtīnēb","lat":16.601548,"lon":36.794491,"elevationM":null},{"id":"node:7731314557","kind":"peak","name":"Jibāl Kōtīnēb","lat":16.63475,"lon":36.661941,"elevationM":null},{"id":"node:7731314558","kind":"peak","name":"Jibāl Askinēb","lat":16.86566,"lon":36.810142,"elevationM":null},{"id":"node:7731314562","kind":"peak","name":"جبال إسكيني","lat":16.98623,"lon":36.722367,"elevationM":null},{"id":"node:7731314862","kind":"peak","name":"Jabal Andi","lat":16.4,"lon":36.816667,"elevationM":null},{"id":"node:7731314866","kind":"peak","name":"Jibāl Hatqōn","lat":16.931944,"lon":36.395,"elevationM":null},{"id":"node:7731314867","kind":"peak","name":"Jibāl Kōtīnēb","lat":16.730083,"lon":36.813635,"elevationM":null},{"id":"node:7731314967","kind":"peak","name":"جبال كنياب","lat":16.996691,"lon":36.900002,"elevationM":null}]}