{"tileKey":"la_p32_lo_p130","version":"v1-1775891056926","entries":[{"id":"node:936122097","kind":"peak","name":"国見岳","lat":32.7621746,"lon":130.2871442,"elevationM":1347},{"id":"node:936122402","kind":"peak","name":"普賢岳","lat":32.759954,"lon":130.2922357,"elevationM":1359},{"id":"node:1289648319","kind":"peak","name":"雁俣山","lat":32.5836142,"lon":130.9071033,"elevationM":1315},{"id":"node:1289856496","kind":"peak","name":"高塚山","lat":32.4192914,"lon":130.9451681,"elevationM":1508},{"id":"node:1297008372","kind":"peak","name":"多良岳","lat":32.9756133,"lon":130.0927689,"elevationM":996},{"id":"node:1297011745","kind":"peak","name":"経ヶ岳","lat":32.9875215,"lon":130.0762744,"elevationM":1076},{"id":"node:1702574755","kind":"peak","name":"ツームシ山","lat":32.9637084,"lon":130.9428506,"elevationM":1064},{"id":"node:1702574758","kind":"peak","name":"俵山","lat":32.8378569,"lon":130.9704952,"elevationM":1095},{"id":"node:1702574761","kind":"peak","name":"冠ヶ岳","lat":32.8080494,"lon":130.9762572,"elevationM":1154},{"id":"node:1702574770","kind":"peak","name":"孫岳","lat":32.9678801,"lon":130.9440968,"elevationM":null},{"id":"node:1702574783","kind":"peak","name":"鞍岳","lat":32.9533817,"lon":130.9339005,"elevationM":1118},{"id":"node:1702610599","kind":"peak","name":"南山犬切","lat":32.4503385,"lon":130.9590351,"elevationM":1562},{"id":"node:1708226369","kind":"peak","name":"仰烏帽子山","lat":32.3714574,"lon":130.7777124,"elevationM":1302},{"id":"node:1717826125","kind":"peak","name":"丸山","lat":32.968356,"lon":130.5381192,"elevationM":null},{"id":"node:1717826126","kind":"peak","name":"筒ヶ岳","lat":32.9845742,"lon":130.5273004,"elevationM":501},{"id":"node:1717826128","kind":"peak","name":"観音岳","lat":32.9769487,"lon":130.5308564,"elevationM":null},{"id":"node:1717842441","kind":"peak","name":"大金峰","lat":32.5520105,"lon":130.9101713,"elevationM":1396},{"id":"node:1717842445","kind":"peak","name":"小金峰","lat":32.52793,"lon":130.9246781,"elevationM":1377},{"id":"node:1736868169","kind":"peak","name":"七遍巡り","lat":32.4523765,"lon":130.9653229,"elevationM":1590},{"id":"node:1736868170","kind":"peak","name":"岩茸山","lat":32.4397717,"lon":130.9100746,"elevationM":1438},{"id":"node:1736868171","kind":"peak","name":"石楠山","lat":32.4396787,"lon":130.9419011,"elevationM":1442},{"id":"node:1736868172","kind":"peak","name":"積岩山","lat":32.4416788,"lon":130.9045744,"elevationM":1414},{"id":"node:1736868173","kind":"peak","name":"蕨野山","lat":32.4405966,"lon":130.9170216,"elevationM":1438},{"id":"node:1736868174","kind":"peak","name":"鷹巣山","lat":32.4417132,"lon":130.9286609,"elevationM":1454},{"id":"node:1736869174","kind":"peak","name":"京丈山","lat":32.5796423,"lon":130.9505812,"elevationM":1473},{"id":"node:1752919323","kind":"peak","name":"妙見岳","lat":32.7567929,"lon":130.2855773,"elevationM":null},{"id":"node:1752919328","kind":"peak","name":"立岩の峰","lat":32.7625807,"lon":130.2949683,"elevationM":null},{"id":"node:1752931412","kind":"peak","name":"前岳","lat":32.9762443,"lon":130.0979621,"elevationM":983},{"id":"node:1752931415","kind":"peak","name":"舞岳","lat":32.9817775,"lon":130.076498,"elevationM":867},{"id":"node:1759388080","kind":"peak","name":"上福根山","lat":32.4727973,"lon":130.9478923,"elevationM":1646},{"id":"node:1759388081","kind":"peak","name":"茶臼山","lat":32.4779796,"lon":130.9284252,"elevationM":1446},{"id":"node:1788617107","kind":"peak","name":"花岡山","lat":32.7965866,"lon":130.6863371,"elevationM":132},{"id":"node:1883385057","kind":"peak","name":"一ノ峯","lat":32.8172704,"lon":130.9526495,"elevationM":null},{"id":"node:1883385059","kind":"peak","name":"二ノ峯","lat":32.8184485,"lon":130.9579257,"elevationM":null},{"id":"node:2192261986","kind":"peak","name":"保口岳","lat":32.5096063,"lon":130.8800997,"elevationM":1281},{"id":"node:2192261995","kind":"peak","name":"普賢峰","lat":32.5055859,"lon":130.8816495,"elevationM":null},{"id":"node:2347391200","kind":"peak","name":"九千部岳","lat":32.775459,"lon":130.2606457,"elevationM":1062},{"id":"node:2347391206","kind":"peak","name":"吾妻岳","lat":32.7911271,"lon":130.2527931,"elevationM":null},{"id":"node:3044521096","kind":"peak","name":"Shirahatayama - 白旗山","lat":32.702361,"lon":130.7878351,"elevationM":138},{"id":"node:3283340585","kind":"peak","name":"五家原岳","lat":32.9580485,"lon":130.0765559,"elevationM":1057},{"id":"node:3283340587","kind":"peak","name":"倉岳","lat":32.4277996,"lon":130.3269638,"elevationM":682},{"id":"node:3283340593","kind":"peak","name":"国見山","lat":32.1877573,"lon":130.6141573,"elevationM":969},{"id":"node:3283340600","kind":"peak","name":"平成新山","lat":32.7613516,"lon":130.298897,"elevationM":1483},{"id":"node:3283340617","kind":"peak","name":"白髪岳","lat":32.1502794,"lon":130.9433398,"elevationM":1417},{"id":"node:3283340619","kind":"peak","name":"矢筈岳","lat":32.1229134,"lon":130.4006413,"elevationM":687},{"id":"node:3283340622","kind":"peak","name":"角山","lat":32.3993321,"lon":130.0938917,"elevationM":526},{"id":"node:3283340628","kind":"peak","name":"金峰山","lat":32.8138785,"lon":130.6388716,"elevationM":665},{"id":"node:3407057347","kind":"peak","name":"長塚山","lat":32.6580239,"lon":130.791983,"elevationM":195},{"id":"node:3409042878","kind":"peak","name":"金毘羅山","lat":32.6281411,"lon":130.8053909,"elevationM":236},{"id":"node:3437626487","kind":"peak","name":"東光山","lat":32.0984958,"lon":130.3618009,"elevationM":160},{"id":"node:3450580773","kind":"peak","name":"甲佐岳","lat":32.664098,"lon":130.876207,"elevationM":753},{"id":"node:3507868839","kind":"peak","name":"飯田山","lat":32.7400572,"lon":130.8276427,"elevationM":431},{"id":"node:3550857735","kind":"peak","name":"笠山","lat":32.1097443,"lon":130.2260768,"elevationM":395},{"id":"node:3586241892","kind":"volcano","name":"雲仙岳","lat":32.7618964,"lon":130.2916464,"elevationM":null},{"id":"node:3687734105","kind":"peak","name":"小山山","lat":32.8367801,"lon":130.7930558,"elevationM":190},{"id":"node:3687734106","kind":"peak","name":"神園山","lat":32.8399303,"lon":130.7883624,"elevationM":183},{"id":"node:3701037851","kind":"peak","name":"鷹首山","lat":32.0133175,"lon":130.2533542,"elevationM":268},{"id":"node:3706561532","kind":"peak","name":"愛宕山","lat":32.0040004,"lon":130.2214407,"elevationM":196},{"id":"node:3746826781","kind":"peak","name":"大行寺山","lat":32.5652422,"lon":130.8376357,"elevationM":957},{"id":"node:3746826783","kind":"peak","name":"白山","lat":32.572664,"lon":130.852253,"elevationM":1073},{"id":"node:3781813645","kind":"peak","name":"北山犬切","lat":32.4665633,"lon":130.9646985,"elevationM":null},{"id":"node:3869987029","kind":"peak","name":"矢護山","lat":32.9409098,"lon":130.9483527,"elevationM":942},{"id":"node:4116423215","kind":"peak","name":"龍ヶ岳","lat":32.4022797,"lon":130.3784886,"elevationM":469},{"id":"node:4116762473","kind":"peak","name":"千巌山","lat":32.5106662,"lon":130.4196751,"elevationM":162},{"id":"node:4116762474","kind":"peak","name":"高舞登山","lat":32.522572,"lon":130.4416406,"elevationM":116},{"id":"node:4129711001","kind":"peak","name":"Kitamukiyama - 北向山","lat":32.8627814,"lon":130.9783977,"elevationM":797},{"id":"node:4137672178","kind":"peak","name":"高畑山","lat":32.797493,"lon":130.9376013,"elevationM":796},{"id":"node:4138617294","kind":"peak","name":"大峯","lat":32.8357207,"lon":130.9248513,"elevationM":409},{"id":"node:4141972771","kind":"peak","name":"長山","lat":32.7885822,"lon":130.9252739,"elevationM":658},{"id":"node:4141972772","kind":"peak","name":"二ツ山","lat":32.7784348,"lon":130.9284872,"elevationM":691},{"id":"node:4141972775","kind":"peak","name":"権現山","lat":32.792695,"lon":130.9065467,"elevationM":515},{"id":"node:4141992536","kind":"peak","name":"追分山","lat":32.7630185,"lon":130.9635416,"elevationM":706},{"id":"node:4141992538","kind":"peak","name":"馬蹄山","lat":32.7646515,"lon":130.9764483,"elevationM":774},{"id":"node:4141992540","kind":"peak","name":"電信山","lat":32.7445485,"lon":130.9476307,"elevationM":576},{"id":"node:4141992542","kind":"peak","name":"城山","lat":32.787943,"lon":130.8836332,"elevationM":481},{"id":"node:4149059774","kind":"peak","name":"Kamikuriyama - 上栗山","lat":32.7339271,"lon":130.8059248,"elevationM":131},{"id":"node:4162302996","kind":"peak","name":"大矢岳","lat":32.793872,"lon":130.9992256,"elevationM":1220},{"id":"node:4166780049","kind":"peak","name":"オケラ山","lat":32.9782691,"lon":130.9914613,"elevationM":955},{"id":"node:4167228626","kind":"peak","name":"郡岳","lat":32.9923304,"lon":130.0070147,"elevationM":null},{"id":"node:4636664194","kind":"peak","name":"八原岳","lat":32.3971849,"lon":130.854902,"elevationM":1150},{"id":"node:5275509132","kind":"peak","name":"高島山","lat":32.5216045,"lon":130.5771118,"elevationM":null},{"id":"node:5354321610","kind":"peak","name":"天竺","lat":32.4362678,"lon":130.0837763,"elevationM":538},{"id":"node:5359063357","kind":"peak","name":"Some-dake","lat":32.4475726,"lon":130.1599527,"elevationM":380},{"id":"node:5940920835","kind":"peak","name":"矢筈岳","lat":32.3843055,"lon":130.092447,"elevationM":481},{"id":"node:5940924090","kind":"peak","name":"行人岳","lat":32.3586174,"lon":130.1154733,"elevationM":483},{"id":"node:5940926237","kind":"peak","name":"頭岳","lat":32.3494858,"lon":130.1064656,"elevationM":466},{"id":"node:5943507176","kind":"peak","name":"蕗嶽","lat":32.4747584,"lon":130.4275077,"elevationM":320},{"id":"node:5943507345","kind":"peak","name":"白嶽","lat":32.4659369,"lon":130.4206175,"elevationM":373},{"id":"node:5943604268","kind":"peak","name":"鹿見岳","lat":32.4501053,"lon":130.4065645,"elevationM":285},{"id":"node:5943605183","kind":"peak","name":"烏帽子岳","lat":32.4232775,"lon":130.3776937,"elevationM":468},{"id":"node:5943605184","kind":"peak","name":"念珠岳","lat":32.4319996,"lon":130.3815304,"elevationM":503},{"id":"node:6011867753","kind":"peak","name":"間谷山","lat":32.6925449,"lon":130.9192255,"elevationM":812},{"id":"node:6032660241","kind":"peak","name":"柱岳","lat":32.4598641,"lon":130.0822095,"elevationM":518},{"id":"node:6032660242","kind":"peak","name":"苓州","lat":32.4524577,"lon":130.0940391,"elevationM":521},{"id":"node:6039819805","kind":"peak","name":"矢筈岳","lat":32.4697096,"lon":130.0880487,"elevationM":480},{"id":"node:6039880398","kind":"peak","name":"水ノ元","lat":32.4820639,"lon":130.0975818,"elevationM":489},{"id":"node:6074241344","kind":"peak","name":"雪州","lat":32.4527134,"lon":130.0997926,"elevationM":518},{"id":"node:6187514114","kind":"peak","name":"立田山","lat":32.8269293,"lon":130.7322568,"elevationM":null},{"id":"node:6187514115","kind":"peak","name":"宝積寺山","lat":32.8340829,"lon":130.7523358,"elevationM":null},{"id":"node:6187514116","kind":"peak","name":"岩倉山緑地","lat":32.8435119,"lon":130.7448578,"elevationM":null},{"id":"node:6187514117","kind":"peak","name":"乗越ヶ丘","lat":32.8346103,"lon":130.7337105,"elevationM":null},{"id":"node:6187765183","kind":"peak","name":"万日山","lat":32.7941833,"lon":130.680474,"elevationM":138},{"id":"node:6286471193","kind":"peak","name":"老嶽","lat":32.4808205,"lon":130.3400859,"elevationM":590},{"id":"node:6286471194","kind":"peak","name":"行人岳","lat":32.4200084,"lon":130.1461006,"elevationM":506},{"id":"node:6511258451","kind":"peak","name":"霧氷沢","lat":32.7609876,"lon":130.2948126,"elevationM":null},{"id":"node:6584384192","kind":"peak","name":"三つ岩","lat":32.4145947,"lon":130.3711961,"elevationM":401},{"id":"node:6735637828","kind":"peak","name":"高岳","lat":32.8271683,"lon":130.0284934,"elevationM":138},{"id":"node:6735637829","kind":"peak","name":"八天岳","lat":32.7985483,"lon":130.018537,"elevationM":297},{"id":"node:6735637830","kind":"peak","name":"飯盛山","lat":32.7853624,"lon":130.0024009,"elevationM":294},{"id":"node:6967189768","kind":"peak","name":"飯高山","lat":32.8759998,"lon":130.7834928,"elevationM":125},{"id":"node:7619286353","kind":"peak","name":"大岳","lat":32.653549,"lon":130.5775148,"elevationM":477},{"id":"node:7619286354","kind":"peak","name":"雄岳","lat":32.6583093,"lon":130.5645597,"elevationM":348},{"id":"node:7619286358","kind":"peak","name":"笹山","lat":32.673239,"lon":130.5807388,"elevationM":178},{"id":"node:7619286360","kind":"peak","name":"高山","lat":32.6875793,"lon":130.5816507,"elevationM":305},{"id":"node:7619286365","kind":"peak","name":"柴尾山","lat":32.6543078,"lon":130.6220555,"elevationM":359},{"id":"node:7619286368","kind":"peak","name":"白山","lat":32.6725436,"lon":130.6355739,"elevationM":218},{"id":"node:7619286692","kind":"peak","name":"野添山","lat":32.683263,"lon":130.5988598,"elevationM":167},{"id":"node:7619286695","kind":"peak","name":"糖塚山","lat":32.6907848,"lon":130.6033981,"elevationM":155},{"id":"node:7690088889","kind":"peak","name":"Hachiryuzan - 八竜山","lat":32.4538838,"lon":130.6390795,"elevationM":498},{"id":"node:7987081842","kind":"peak","name":"三角岳","lat":32.6277286,"lon":130.4666161,"elevationM":406},{"id":"node:8020072190","kind":"peak","name":"百貫山","lat":32.085938,"lon":130.7840824,"elevationM":693},{"id":"node:8020072191","kind":"peak","name":"矢岳山","lat":32.0859016,"lon":130.7565951,"elevationM":739},{"id":"node:8020072192","kind":"peak","name":"滝下山","lat":32.0862652,"lon":130.7354808,"elevationM":785},{"id":"node:8528783354","kind":"peak","name":"七郎山","lat":32.2759817,"lon":130.2364198,"elevationM":393},{"id":"node:8575075966","kind":"peak","name":"行人岳","lat":32.175042,"lon":130.1662139,"elevationM":394},{"id":"node:8575256853","kind":"peak","name":"大中岳","lat":32.1586491,"lon":130.1576223,"elevationM":403},{"id":"node:8575256854","kind":"peak","name":"矢岳","lat":32.1494337,"lon":130.1603338,"elevationM":402},{"id":"node:8663845263","kind":"peak","name":"赤城山","lat":32.3548768,"lon":130.1631357,"elevationM":226},{"id":"node:8664054700","kind":"peak","name":"古江岳","lat":32.2886684,"lon":130.0897865,"elevationM":342},{"id":"node:8671113446","kind":"peak","name":"平家城山","lat":32.3787943,"lon":130.164416,"elevationM":317},{"id":"node:8690769929","kind":"peak","name":"権現山","lat":32.2342394,"lon":130.0278585,"elevationM":402},{"id":"node:8697204336","kind":"peak","name":"石神山","lat":32.2852153,"lon":130.0116253,"elevationM":334},{"id":"node:8697275611","kind":"peak","name":"五通山","lat":32.2934936,"lon":130.036514,"elevationM":266},{"id":"node:8699754198","kind":"peak","name":"高取山","lat":32.2596826,"lon":130.0420661,"elevationM":341},{"id":"node:8699754199","kind":"peak","name":"観音山","lat":32.2652119,"lon":130.0527122,"elevationM":297},{"id":"node:8709352749","kind":"peak","name":"日嶽","lat":32.9518729,"lon":130.5214368,"elevationM":null},{"id":"node:8733169818","kind":"peak","name":"次郎丸嶽","lat":32.4788451,"lon":130.4066606,"elevationM":397},{"id":"node:8733169819","kind":"peak","name":"太郎丸嶽","lat":32.4861134,"lon":130.4091446,"elevationM":281},{"id":"node:8766646123","kind":"peak","name":"矢筈嶽","lat":32.4179576,"lon":130.3163556,"elevationM":626},{"id":"node:8806069169","kind":"peak","name":"柴尾山","lat":32.6223354,"lon":130.4412757,"elevationM":226},{"id":"node:8809137054","kind":"peak","name":"高山","lat":32.565082,"lon":130.4783372,"elevationM":167},{"id":"node:8810360232","kind":"peak","name":"飛岳","lat":32.610824,"lon":130.4528166,"elevationM":229},{"id":"node:8826651015","kind":"peak","name":"蓮華石岳","lat":32.8159498,"lon":130.1035727,"elevationM":280},{"id":"node:8826651016","kind":"peak","name":"獅子喰岳","lat":32.8150662,"lon":130.1138295,"elevationM":234},{"id":"node:8826699917","kind":"peak","name":"上山","lat":32.8404245,"lon":130.0437992,"elevationM":123},{"id":"node:8826699918","kind":"peak","name":"御館山","lat":32.8469145,"lon":130.0354711,"elevationM":100},{"id":"node:9402166962","kind":"peak","name":"弁天山","lat":32.8964212,"lon":130.7254208,"elevationM":null},{"id":"node:9436959575","kind":"peak","name":"重盤岩","lat":32.2328755,"lon":130.4591199,"elevationM":null},{"id":"node:9692605617","kind":"peak","name":"河内山","lat":32.8289285,"lon":130.6098917,"elevationM":363},{"id":"node:9694420393","kind":"peak","name":"焼山","lat":32.847825,"lon":130.5947828,"elevationM":145},{"id":"node:9717655868","kind":"peak","name":"鞍岳（女岳）","lat":32.9514034,"lon":130.933297,"elevationM":1090},{"id":"node:9767047026","kind":"peak","name":"遠目山","lat":32.9987215,"lon":130.0302204,"elevationM":849},{"id":"node:9829438588","kind":"peak","name":"絹笠山","lat":32.7371485,"lon":130.2511777,"elevationM":879},{"id":"node:9829645765","kind":"peak","name":"高岩山","lat":32.7177253,"lon":130.2699266,"elevationM":881},{"id":"node:9829645777","kind":"peak","name":"稲生山","lat":32.7607929,"lon":130.3120971,"elevationM":845},{"id":"node:9829645780","kind":"peak","name":"高岳","lat":32.7369243,"lon":130.2385674,"elevationM":771},{"id":"node:9829692012","kind":"peak","name":"矢岳","lat":32.7371432,"lon":130.2707164,"elevationM":940},{"id":"node:9829692053","kind":"peak","name":"石割山","lat":32.7525772,"lon":130.2717165,"elevationM":968},{"id":"node:9829692054","kind":"peak","name":"野岳","lat":32.7453405,"lon":130.2857347,"elevationM":1142},{"id":"node:10267886088","kind":"peak","name":"愛宕山","lat":32.6270244,"lon":130.1792604,"elevationM":291},{"id":"node:10269026557","kind":"peak","name":"岩戸山","lat":32.6244207,"lon":130.1568785,"elevationM":null},{"id":"node:10299694624","kind":"peak","name":"烽火山","lat":32.6012133,"lon":130.1806479,"elevationM":94},{"id":"node:10304616672","kind":"peak","name":"鳳上岳","lat":32.6412448,"lon":130.2090037,"elevationM":410},{"id":"node:10565279279","kind":"peak","name":"猿葉山","lat":32.7675477,"lon":130.2044291,"elevationM":364},{"id":"node:10687329186","kind":"peak","name":"七面山（眉山）","lat":32.77176,"lon":130.3370188,"elevationM":819},{"id":"node:10687329187","kind":"peak","name":"天狗山","lat":32.7672411,"lon":130.3420321,"elevationM":695},{"id":"node:10687368518","kind":"peak","name":"焼山","lat":32.7802729,"lon":130.3134413,"elevationM":467},{"id":"node:10687949767","kind":"peak","name":"貝野岳","lat":32.7516224,"lon":130.3240718,"elevationM":485},{"id":"node:10687949768","kind":"peak","name":"岩上山","lat":32.7597149,"lon":130.3244245,"elevationM":513},{"id":"node:10687949769","kind":"peak","name":"舞岳","lat":32.7881502,"lon":130.2881724,"elevationM":703},{"id":"node:10687949770","kind":"peak","name":"鳥甲山","lat":32.7881244,"lon":130.2718873,"elevationM":822},{"id":"node:10724787640","kind":"peak","name":"富士山","lat":32.6265798,"lon":130.1891421,"elevationM":180},{"id":"node:10975641271","kind":"peak","name":"釋師嶽","lat":32.3961786,"lon":130.4148602,"elevationM":136},{"id":"node:10975641273","kind":"peak","name":"泊山","lat":32.3746699,"lon":130.4225099,"elevationM":193},{"id":"node:11245571064","kind":"peak","name":"Yayamadake - 矢山岳","lat":32.5480878,"lon":130.7871877,"elevationM":870},{"id":"node:11245599522","kind":"peak","name":"Yoshinoyama - 吉野山","lat":32.7219763,"lon":130.75004,"elevationM":88},{"id":"node:11245599897","kind":"peak","name":"鎌倉山","lat":32.6426645,"lon":130.8520034,"elevationM":371},{"id":"node:11250147026","kind":"peak","name":"Johnohyama - 城尾山（ジョウノウヤマ）","lat":32.7317127,"lon":130.9108433,"elevationM":534},{"id":"node:11250157019","kind":"peak","name":"熊野岳（二ノ岳）","lat":32.8444534,"lon":130.6222691,"elevationM":686},{"id":"node:11250162108","kind":"peak","name":"三ノ岳","lat":32.8548236,"lon":130.6315084,"elevationM":682},{"id":"node:11250168044","kind":"peak","name":"Gankaisan - 雁回山","lat":32.6880861,"lon":130.7088282,"elevationM":314},{"id":"node:11250186626","kind":"peak","name":"間谷山 西峰","lat":32.6874907,"lon":130.9036124,"elevationM":794},{"id":"node:11253929272","kind":"peak","name":"目丸山","lat":32.6034606,"lon":130.9683728,"elevationM":1341},{"id":"node:11253930313","kind":"peak","name":"Takadakeyama - 高岳山","lat":32.6605726,"lon":130.7236476,"elevationM":153},{"id":"node:11253940330","kind":"peak","name":"Araoyama - 荒尾山","lat":32.8194252,"lon":130.6648044,"elevationM":445},{"id":"node:11253963094","kind":"peak","name":"Konohayama - 木葉山","lat":32.9276001,"lon":130.6206738,"elevationM":284},{"id":"node:11253965591","kind":"peak","name":"洞が岳","lat":32.6119197,"lon":130.9288723,"elevationM":997},{"id":"node:11258701156","kind":"peak","name":"四万丈","lat":32.6093954,"lon":130.895523,"elevationM":750},{"id":"node:11258705177","kind":"peak","name":"Ropponsugiyama - 六本杉山","lat":32.4941274,"lon":130.8081533,"elevationM":1149},{"id":"node:11258783417","kind":"peak","name":"Chouraisan - 朝来山","lat":32.7707595,"lon":130.8635979,"elevationM":465},{"id":"node:11258784915","kind":"peak","name":"茂見山","lat":32.5997551,"lon":130.9376282,"elevationM":1159},{"id":"node:11258789194","kind":"peak","name":"Funanoyama - 船野山","lat":32.7643772,"lon":130.832726,"elevationM":308},{"id":"node:11258813832","kind":"peak","name":"Suishozan - 水昌山","lat":32.6285168,"lon":130.7705849,"elevationM":334},{"id":"node:11258816659","kind":"peak","name":"手蝶山","lat":32.6286696,"lon":130.8382305,"elevationM":390},{"id":"node:11268655161","kind":"peak","name":"Shiroyama - 城山","lat":32.6878028,"lon":130.9485609,"elevationM":622},{"id":"node:11268687762","kind":"peak","name":"Karasuyama - 烏山","lat":32.5682581,"lon":130.7667683,"elevationM":465},{"id":"node:11309365233","kind":"peak","name":"Kunimiyama - 国見山","lat":32.9454864,"lon":130.6372564,"elevationM":389},{"id":"node:11315542013","kind":"peak","name":"Toshimayama - 戸島山","lat":32.8199961,"lon":130.8003927,"elevationM":133},{"id":"node:11353289322","kind":"peak","name":"Shiragatake - 白髪岳","lat":32.4548279,"lon":130.8193075,"elevationM":1244},{"id":"node:11384808421","kind":"peak","name":"Mansakayama - 万坂山","lat":32.6571616,"lon":130.9395078,"elevationM":664},{"id":"node:11384823647","kind":"peak","name":"Mitsumineyama - 三峰山","lat":32.4937969,"lon":130.7029565,"elevationM":714},{"id":"node:11384833059","kind":"peak","name":"Mantanyama-Higashimine - 間谷山東峰","lat":32.7008478,"lon":130.9358631,"elevationM":798},{"id":"node:11509913564","kind":"peak","name":"Yakushiyama - やくし山","lat":32.34432,"lon":130.7441811,"elevationM":999},{"id":"node:11961533174","kind":"peak","name":"中嶽","lat":32.628077,"lon":130.8227266,"elevationM":268},{"id":"node:11991344504","kind":"peak","name":"早川山","lat":32.6868823,"lon":130.8135082,"elevationM":192},{"id":"node:12032201664","kind":"peak","name":"Hacchozan - 八丁山","lat":32.4810323,"lon":130.642758,"elevationM":376},{"id":"node:12032204549","kind":"peak","name":"Dotokuzan - 道徳山","lat":32.6673685,"lon":130.6940834,"elevationM":132},{"id":"node:12032256648","kind":"peak","name":"Ryuhozan - 竜峰山","lat":32.5178697,"lon":130.6718123,"elevationM":517},{"id":"node:12032258492","kind":"peak","name":"Happohsan - 八峰山","lat":32.4911195,"lon":130.6684547,"elevationM":574},{"id":"node:12097968481","kind":"peak","name":"独鈷山","lat":32.7882118,"lon":130.6684922,"elevationM":118},{"id":"node:12147127542","kind":"peak","name":"Joyama - 城山","lat":32.7849184,"lon":130.6612308,"elevationM":47},{"id":"node:12147145355","kind":"peak","name":"Onbosan - 御坊山","lat":32.7760314,"lon":130.6423721,"elevationM":29},{"id":"node:12153572628","kind":"peak","name":"Kunimidake - 国見岳","lat":32.4837065,"lon":130.7818997,"elevationM":1031},{"id":"node:12153617602","kind":"peak","name":"Hiraishiyama - 平石山","lat":32.4882149,"lon":130.8343821,"elevationM":1130},{"id":"node:12153619102","kind":"peak","name":"Kunimiyama - 国見山","lat":32.4353133,"lon":130.8188418,"elevationM":1253},{"id":"node:12231166848","kind":"peak","name":"Shiroyama - 城山","lat":32.7137507,"lon":130.8003002,"elevationM":38},{"id":"node:12308377320","kind":"peak","name":"拝ヶ石山","lat":32.8398259,"lon":130.6495039,"elevationM":448},{"id":"node:12433199121","kind":"peak","name":"Gongenyama - 権現山","lat":32.565513,"lon":130.8163927,"elevationM":753},{"id":"node:12700972306","kind":"peak","name":"彦山","lat":32.6688038,"lon":130.1725365,"elevationM":380},{"id":"node:12763527442","kind":"peak","name":"米山","lat":32.5564726,"lon":130.7227498,"elevationM":242},{"id":"node:12839024299","kind":"peak","name":"西岳","lat":32.9754803,"lon":130.0861142,"elevationM":963},{"id":"node:13071913331","kind":"peak","name":"Futatsukayama - 二塚山","lat":32.8954511,"lon":130.7201677,"elevationM":118},{"id":"node:13071936806","kind":"peak","name":"Yokoyama - 横山","lat":32.9100662,"lon":130.7104051,"elevationM":127},{"id":"node:13098494889","kind":"peak","name":"Yokohirayama - 横平山","lat":32.8968315,"lon":130.6463603,"elevationM":144},{"id":"node:13108522351","kind":"peak","name":"石神山","lat":32.8088675,"lon":130.6805549,"elevationM":123},{"id":"node:13108541865","kind":"peak","name":"Gongenyama - 権現山","lat":32.7888369,"lon":130.6303159,"elevationM":273},{"id":"node:13108585050","kind":"peak","name":"Hanazonoyama - 花園山","lat":32.6800982,"lon":130.6861148,"elevationM":61},{"id":"node:13109425258","kind":"peak","name":"Hanakue - ハナクエ","lat":32.6699152,"lon":130.611909,"elevationM":417},{"id":"node:13109442054","kind":"peak","name":"Mimitoriyama - 耳鳥山","lat":32.6683309,"lon":130.6181279,"elevationM":400},{"id":"node:13109447461","kind":"peak","name":"Takajoyama - 高城山","lat":32.7816967,"lon":130.6310909,"elevationM":59},{"id":"node:13179144863","kind":"peak","name":"三谷山","lat":32.5733697,"lon":130.8796328,"elevationM":1139},{"id":"node:13179147863","kind":"peak","name":"Hetamiyama - 辺田見山","lat":32.7072291,"lon":130.8134775,"elevationM":169},{"id":"node:13194618683","kind":"peak","name":"Shogunyama - 将軍山","lat":32.6930513,"lon":130.8708289,"elevationM":439},{"id":"node:13194625241","kind":"peak","name":"Chorakuzan - 長楽山","lat":32.6559407,"lon":130.8154713,"elevationM":161},{"id":"node:13194662531","kind":"peak","name":"Kamadayama - 竈田山","lat":32.6454683,"lon":130.6123037,"elevationM":195},{"id":"node:13228499320","kind":"peak","name":"Myokenzan - 妙見山","lat":32.7009048,"lon":130.8066644,"elevationM":116},{"id":"node:13293844646","kind":"peak","name":"Karasutohge - 烏峠","lat":32.3266299,"lon":130.348789,"elevationM":442},{"id":"node:13332823013","kind":"peak","name":"Hidake - 日岳","lat":32.5928307,"lon":130.7237669,"elevationM":243},{"id":"node:13380413353","kind":"volcano","name":"泥火山","lat":32.7387331,"lon":130.2642931,"elevationM":null},{"id":"node:13507824641","kind":"peak","name":"Komenokubo - 米の窪","lat":32.3795145,"lon":130.6913411,"elevationM":673},{"id":"node:13507845023","kind":"peak","name":"Gongenyama - 権現山","lat":32.275961,"lon":130.6321233,"elevationM":694},{"id":"node:13712550766","kind":"peak","name":"Hankohyama - 半高山","lat":32.8784158,"lon":130.6418754,"elevationM":294}]}