{"tileKey":"la_p52_lo_m118","version":"v1-1775891056926","entries":[{"id":"node:331675016","kind":"peak","name":"Snow Dome","lat":52.1873861,"lon":-117.317115,"elevationM":3458},{"id":"node:2697249861","kind":"peak","name":"Monchy Mountain","lat":52.0049126,"lon":-117.025626,"elevationM":3210},{"id":"node:2697249869","kind":"peak","name":"Mount Hooge","lat":52.0000605,"lon":-117.0023643,"elevationM":3216},{"id":"node:2697249873","kind":"peak","name":"Mount Spring-Rice","lat":52.0163539,"lon":-117.2351661,"elevationM":3275},{"id":"node:2697249875","kind":"peak","name":"Mount Willerval","lat":52.0193481,"lon":-117.0316586,"elevationM":3180},{"id":"node:2697249877","kind":"peak","name":"Queant Mountain","lat":52.0078635,"lon":-117.2396849,"elevationM":3113},{"id":"node:2697249884","kind":"peak","name":"Watchman Peak","lat":52.0410675,"lon":-117.2334391,"elevationM":3009},{"id":"node:2698382907","kind":"peak","name":"Pawn Peak","lat":52.0171737,"lon":-117.4783515,"elevationM":3090},{"id":"node:2698382909","kind":"peak","name":"Rook Peak","lat":52.008934,"lon":-117.5878715,"elevationM":3081},{"id":"node:2698411754","kind":"peak","name":"Apex Mountain","lat":52.2148752,"lon":-117.82099,"elevationM":3246},{"id":"node:2698411758","kind":"peak","name":"Blackfriars Peak","lat":52.3272976,"lon":-117.6187631,"elevationM":3210},{"id":"node:2698411766","kind":"peak","name":"Brouillard Mountain","lat":52.2810587,"lon":-117.8587532,"elevationM":3065},{"id":"node:2698411772","kind":"peak","name":"Chisel Peak","lat":52.3490843,"lon":-117.8282213,"elevationM":3049},{"id":"node:2698411777","kind":"peak","name":"Cowl Mountain","lat":52.1836505,"lon":-117.9319331,"elevationM":3102},{"id":"node:2698411781","kind":"peak","name":"Dais Mountain","lat":52.276085,"lon":-117.6401447,"elevationM":3234},{"id":"node:2698411785","kind":"peak","name":"Duplicate Mountain","lat":52.2016745,"lon":-117.8767247,"elevationM":3150},{"id":"node:2698411791","kind":"peak","name":"Ghost Mountain","lat":52.3102811,"lon":-117.8868871,"elevationM":3204},{"id":"node:2698411794","kind":"peak","name":"Listening Mountain","lat":52.2472561,"lon":-117.7342404,"elevationM":3160},{"id":"node:2698411798","kind":"peak","name":"Mount Amundsen","lat":52.2540625,"lon":-117.832825,"elevationM":3150},{"id":"node:2698411809","kind":"peak","name":"Mount Chettan","lat":52.1947086,"lon":-117.9506343,"elevationM":3040},{"id":"node:2698411812","kind":"peak","name":"Mount Clemenceau","lat":52.2475,"lon":-117.9583,"elevationM":3664},{"id":"node:2698411819","kind":"peak","name":"Mount Ellis","lat":52.1495712,"lon":-117.8239817,"elevationM":2970},{"id":"node:2698411827","kind":"peak","name":"Mount Irvine","lat":52.1973078,"lon":-117.9398483,"elevationM":3060},{"id":"node:2698411830","kind":"peak","name":"Mount King Edward","lat":52.1503439,"lon":-117.5192176,"elevationM":3490},{"id":"node:2698411833","kind":"peak","name":"Mount Livingstone","lat":52.1545675,"lon":-117.9358371,"elevationM":3111},{"id":"node:2698411840","kind":"peak","name":"Mount Massey","lat":52.2980993,"lon":-117.5952639,"elevationM":2940},{"id":"node:2698411847","kind":"peak","name":"Mount Norton","lat":52.1961191,"lon":-117.8074634,"elevationM":3060},{"id":"node:2698411850","kind":"peak","name":"Mount Odell","lat":52.0584439,"lon":-117.8263902,"elevationM":3150},{"id":"node:2698411853","kind":"peak","name":"Mount Peary","lat":52.272914,"lon":-117.8443452,"elevationM":3068},{"id":"node:2698411856","kind":"peak","name":"Mount Quincy","lat":52.328509,"lon":-117.6627516,"elevationM":3150},{"id":"node:2698411859","kind":"peak","name":"Mount Rhodes","lat":52.1470439,"lon":-117.9301684,"elevationM":3063},{"id":"node:2698411864","kind":"peak","name":"Mount Sadleir","lat":52.3394804,"lon":-117.7594604,"elevationM":2872},{"id":"node:2698411867","kind":"peak","name":"Mount Shackleton","lat":52.1845592,"lon":-117.9053454,"elevationM":3330},{"id":"node:2698411870","kind":"peak","name":"Mount Shipton","lat":52.1932419,"lon":-117.9588361,"elevationM":3040},{"id":"node:2698411871","kind":"peak","name":"Mount Somervell","lat":52.1382449,"lon":-117.8434413,"elevationM":3105},{"id":"node:2698411872","kind":"peak","name":"Mount Stanley","lat":52.1573447,"lon":-117.9362253,"elevationM":3126},{"id":"node:2698411875","kind":"peak","name":"Pic Tordu","lat":52.1766135,"lon":-117.9404922,"elevationM":3230},{"id":"node:2698411877","kind":"peak","name":"Sir Ernest Peak","lat":52.1885559,"lon":-117.8916023,"elevationM":3170},{"id":"node:2698411880","kind":"peak","name":"Sundial Mountain","lat":52.232487,"lon":-117.6327288,"elevationM":3182},{"id":"node:2698411899","kind":"peak","name":"Tsar Mountain","lat":52.095784,"lon":-117.8089251,"elevationM":3424},{"id":"node:2698411902","kind":"peak","name":"Tusk Peak","lat":52.2084688,"lon":-117.9374944,"elevationM":3362},{"id":"node:2698411914","kind":"peak","name":"Warwick Mountain","lat":52.232161,"lon":-117.55962,"elevationM":2906},{"id":"node:2698411917","kind":"peak","name":"Younghusband Peak","lat":52.2278312,"lon":-117.8156029,"elevationM":3150},{"id":"node:2698430826","kind":"peak","name":"Bishop Peak","lat":52.0460128,"lon":-117.5320816,"elevationM":3044},{"id":"node:2698430834","kind":"peak","name":"King Peak","lat":52.0473861,"lon":-117.5157737,"elevationM":3095},{"id":"node:2698430840","kind":"peak","name":"Queen Peak","lat":52.0466995,"lon":-117.5411796,"elevationM":3096},{"id":"node:2698438464","kind":"peak","name":"Aqueduct Peak","lat":52.1055774,"lon":-117.6344288,"elevationM":3183},{"id":"node:2698438468","kind":"peak","name":"False Chaba Peak","lat":52.20656,"lon":-117.6530036,"elevationM":3146},{"id":"node:2698438476","kind":"peak","name":"Toronto Peak","lat":52.1641938,"lon":-117.5664103,"elevationM":2926},{"id":"node:2698466280","kind":"peak","name":"Big Bend Peak","lat":52.1480864,"lon":-117.111663,"elevationM":2804},{"id":"node:2698466287","kind":"peak","name":"Hilda Peak","lat":52.1911843,"lon":-117.1788836,"elevationM":3060},{"id":"node:2698466290","kind":"peak","name":"Lighthouse Tower","lat":52.1035311,"lon":-117.0650968,"elevationM":2960},{"id":"node:2698466294","kind":"peak","name":"Little Alberta","lat":52.2739954,"lon":-117.4388115,"elevationM":2956},{"id":"node:2698466297","kind":"peak","name":"Mount Alberta","lat":52.2880175,"lon":-117.4763934,"elevationM":3619},{"id":"node:2698466300","kind":"peak","name":"Mount Andromeda","lat":52.1778604,"lon":-117.2313021,"elevationM":3450},{"id":"node:2698466303","kind":"peak","name":"Mount Athabasca","lat":52.1811529,"lon":-117.199914,"elevationM":3479},{"id":"node:2698466307","kind":"peak","name":"Mount Bryce","lat":52.0410835,"lon":-117.3298444,"elevationM":3507},{"id":"node:2698466308","kind":"peak","name":"Mount Cromwell","lat":52.2688692,"lon":-117.3927636,"elevationM":3342},{"id":"node:2698466309","kind":"peak","name":"Mount Engelhard","lat":52.2753558,"lon":-117.4064831,"elevationM":3270},{"id":"node:2698466311","kind":"peak","name":"Mount K2","lat":52.2219,"lon":-117.2897,"elevationM":3090},{"id":"node:2698466334","kind":"peak","name":"Mount Saskatchewan","lat":52.099486,"lon":-117.0912159,"elevationM":3342},{"id":"node:2698466337","kind":"peak","name":"Mount Wilcox","lat":52.2449212,"lon":-117.2411536,"elevationM":2884},{"id":"node:2698466341","kind":"peak","name":"Mount Woolley","lat":52.2971954,"lon":-117.42598,"elevationM":3405},{"id":"node:2698466345","kind":"peak","name":"Nigel Peak","lat":52.2394,"lon":-117.1719,"elevationM":3211},{"id":"node:2698466348","kind":"peak","name":"North Twin Peak","lat":52.2234946,"lon":-117.4336792,"elevationM":3730},{"id":"node:2698466351","kind":"peak","name":"Parker Ridge","lat":52.1812813,"lon":-117.0922972,"elevationM":2350},{"id":"node:2698466361","kind":"peak","name":"South Twin Peak","lat":52.2031247,"lon":-117.4344747,"elevationM":3566},{"id":"node:2698466365","kind":"peak","name":"Stutfield Peak","lat":52.2387251,"lon":-117.4067439,"elevationM":3450},{"id":"node:2698466369","kind":"peak","name":"Terrace Mountain","lat":52.0908554,"lon":-117.1712302,"elevationM":2932},{"id":"node:2698466372","kind":"peak","name":"The Castelets","lat":52.062671,"lon":-117.1324661,"elevationM":2865},{"id":"node:2698466375","kind":"peak","name":"Twins Tower","lat":52.2268658,"lon":-117.4393515,"elevationM":3627},{"id":"node:2698466379","kind":"peak","name":"West Twin Peak","lat":52.2092628,"lon":-117.4450492,"elevationM":3360},{"id":"node:2699034348","kind":"peak","name":"Brussels Peak","lat":52.5176846,"lon":-117.8241468,"elevationM":3161},{"id":"node:2699034353","kind":"peak","name":"Catacombs Mountain","lat":52.4300536,"lon":-117.7515905,"elevationM":3330},{"id":"node:2699034358","kind":"peak","name":"Convergence Peak","lat":52.4819644,"lon":-117.9801888,"elevationM":2877},{"id":"node:2699034360","kind":"peak","name":"Divergence Peak","lat":52.5011392,"lon":-117.9915949,"elevationM":2827},{"id":"node:2699034361","kind":"peak","name":"Dragon Peak","lat":52.4494637,"lon":-117.6966009,"elevationM":2920},{"id":"node:2699034362","kind":"peak","name":"Fortress Mountain","lat":52.38977,"lon":-117.7223521,"elevationM":3020},{"id":"node:2699034363","kind":"peak","name":"Kleodora Peak","lat":52.4930728,"lon":-117.9255765,"elevationM":2850},{"id":"node:2699034364","kind":"peak","name":"Lick Peak","lat":52.4464159,"lon":-117.9167355,"elevationM":2877},{"id":"node:2699034365","kind":"peak","name":"Mount Belanger","lat":52.5117672,"lon":-117.9237125,"elevationM":3120},{"id":"node:2699034366","kind":"peak","name":"Mount Christie","lat":52.530473,"lon":-117.8093207,"elevationM":3103},{"id":"node:2699034368","kind":"peak","name":"Mount Fryatt","lat":52.5503114,"lon":-117.9091206,"elevationM":3361},{"id":"node:2699034369","kind":"peak","name":"Fluted Peak","lat":52.5902764,"lon":-117.9153584,"elevationM":2900},{"id":"node:2699034370","kind":"peak","name":"Mount Lapensee","lat":52.5146991,"lon":-117.9405,"elevationM":3106},{"id":"node:2699034371","kind":"peak","name":"Mount Lowell","lat":52.5040215,"lon":-117.8326902,"elevationM":3170},{"id":"node:2699034373","kind":"peak","name":"Mount Olympus","lat":52.482345,"lon":-117.9110169,"elevationM":2987},{"id":"node:2699034374","kind":"peak","name":"Mount Parnassus","lat":52.5015853,"lon":-117.932113,"elevationM":2910},{"id":"node:2699034378","kind":"peak","name":"Mount Xerxes","lat":52.4864069,"lon":-117.8843472,"elevationM":2970},{"id":"node:2699034380","kind":"peak","name":"Siege Peak","lat":52.4176969,"lon":-117.8452513,"elevationM":2926},{"id":"node:2699034381","kind":"peak","name":"Whirlpool Mountain","lat":52.6072,"lon":-117.9569,"elevationM":2900},{"id":"node:2699059435","kind":"peak","name":"Diadem Peak","lat":52.310537,"lon":-117.421692,"elevationM":3371},{"id":"node:2699059436","kind":"peak","name":"Gong Peak","lat":52.3695467,"lon":-117.4597262,"elevationM":3120},{"id":"node:2699059437","kind":"peak","name":"Mount Adam Joachim","lat":52.4043853,"lon":-117.5286776,"elevationM":3094},{"id":"node:2699059438","kind":"peak","name":"Mount Confederation","lat":52.4034023,"lon":-117.5761034,"elevationM":3001},{"id":"node:2699059439","kind":"peak","name":"Mount Gec","lat":52.3359744,"lon":-117.4494573,"elevationM":3130},{"id":"node:2699059440","kind":"peak","name":"Mount McGuire","lat":52.3745225,"lon":-117.4535908,"elevationM":3030},{"id":"node:2699059441","kind":"peak","name":"Mount Weiss W1","lat":52.3893591,"lon":-117.4901224,"elevationM":3085},{"id":"node:2699059442","kind":"peak","name":"Mount Morden Long","lat":52.4221526,"lon":-117.5386388,"elevationM":3040},{"id":"node:2699059443","kind":"peak","name":"Mount Nelson","lat":52.3460297,"lon":-117.4698176,"elevationM":3150},{"id":"node:2699059444","kind":"peak","name":"Mount Palmer","lat":52.3525942,"lon":-117.5208622,"elevationM":3150},{"id":"node:2699059445","kind":"peak","name":"Mount Smythe","lat":52.355922,"lon":-117.4777041,"elevationM":3246},{"id":"node:2699059446","kind":"peak","name":"Mount Weiss","lat":52.3910253,"lon":-117.4752222,"elevationM":3090},{"id":"node:2699059447","kind":"peak","name":"Mushroom Peak","lat":52.3115286,"lon":-117.3970758,"elevationM":3210},{"id":"node:2699059448","kind":"peak","name":"Thorington Tower","lat":52.3578999,"lon":-117.5035594,"elevationM":3155},{"id":"node:2699080989","kind":"peak","name":"Chocolate Mountain","lat":52.4722,"lon":-117.1039,"elevationM":3049},{"id":"node:2699080995","kind":"peak","name":"Flat Ridge","lat":52.3586,"lon":-117.1078,"elevationM":2787},{"id":"node:2699080999","kind":"peak","name":"Marble Mountain","lat":52.3536,"lon":-117.0544,"elevationM":2962},{"id":"node:2699081002","kind":"peak","name":"Mount Aztec","lat":52.4483,"lon":-117.0222,"elevationM":3124},{"id":"node:2699081006","kind":"peak","name":"Mount Olympus","lat":52.4694,"lon":-117.0356,"elevationM":3088},{"id":"node:2699081008","kind":"peak","name":"Poboktan Mountain","lat":52.4406,"lon":-117.2156,"elevationM":3320},{"id":"node:2699081011","kind":"peak","name":"Sawtooth Mountain","lat":52.5069,"lon":-117.0111,"elevationM":2933},{"id":"node:2699081015","kind":"peak","name":"Sunwapta Peak","lat":52.3489,"lon":-117.2747,"elevationM":3315},{"id":"node:2699081018","kind":"peak","name":"Tangle Ridge","lat":52.2984361,"lon":-117.2872727,"elevationM":3001},{"id":"node:2699081024","kind":"peak","name":"Waterfall Peaks","lat":52.4175059,"lon":-117.3167598,"elevationM":2960},{"id":"node:2699141679","kind":"peak","name":"Chivalry Peak","lat":52.6825332,"lon":-117.3283195,"elevationM":3150},{"id":"node:2699141682","kind":"peak","name":"Copia Peak","lat":52.5467491,"lon":-117.0811271,"elevationM":3160},{"id":"node:2699141688","kind":"peak","name":"Cornucopia Peak","lat":52.5778,"lon":-117.2639,"elevationM":3210},{"id":"node:2699141694","kind":"peak","name":"Coronet Mountain","lat":52.5156,"lon":-117.3772,"elevationM":3152},{"id":"node:2699141699","kind":"peak","name":"Cotter Peak","lat":52.5143665,"lon":-117.5111174,"elevationM":2794},{"id":"node:2699141705","kind":"peak","name":"Crusade Peak","lat":52.7182388,"lon":-117.3399925,"elevationM":2675},{"id":"node:2699141714","kind":"peak","name":"Fortuna Peak","lat":52.5709533,"lon":-117.2696113,"elevationM":3205},{"id":"node:2699141719","kind":"peak","name":"Isaac Peak","lat":52.5012588,"lon":-117.1642112,"elevationM":3160},{"id":"node:2699141724","kind":"peak","name":"Leah Peak","lat":52.7119,"lon":-117.5586,"elevationM":2801},{"id":"node:2699141729","kind":"peak","name":"Llysfran Peak","lat":52.5806,"lon":-117.4833,"elevationM":3141},{"id":"node:2699141734","kind":"peak","name":"Maligne Mountain","lat":52.6517,"lon":-117.4,"elevationM":3192},{"id":"node:2699141739","kind":"peak","name":"Monkhead Mountain","lat":52.5822,"lon":-117.3922,"elevationM":3211},{"id":"node:2699141744","kind":"peak","name":"Moriah Peak","lat":52.5393676,"lon":-117.2143363,"elevationM":3175},{"id":"node:2699141749","kind":"peak","name":"Mount Brazeau","lat":52.5511,"lon":-117.355,"elevationM":3470},{"id":"node:2699141754","kind":"peak","name":"Mount Charlton","lat":52.6117,"lon":-117.5111,"elevationM":3217},{"id":"node:2699141759","kind":"peak","name":"Mount Chief Warden","lat":52.6611,"lon":-117.2694,"elevationM":3126},{"id":"node:2699141769","kind":"peak","name":"Mount Henry MacLeod","lat":52.5278,"lon":-117.3508,"elevationM":3288},{"id":"node:2699141773","kind":"peak","name":"Mount Julian","lat":52.5722,"lon":-117.4417,"elevationM":2760},{"id":"node:2699141778","kind":"peak","name":"Mount Mary Vaux","lat":52.5594,"lon":-117.4556,"elevationM":3201},{"id":"node:2699141806","kind":"peak","name":"Mount Moffat","lat":52.5944,"lon":-117.5083,"elevationM":3090},{"id":"node:2699141809","kind":"peak","name":"Mount Paul","lat":52.6169,"lon":-117.4353,"elevationM":2805},{"id":"node:2699141814","kind":"peak","name":"Mount Southesk","lat":52.6678,"lon":-117.1386,"elevationM":3125},{"id":"node:2699141818","kind":"peak","name":"Mount Unwin","lat":52.6111,"lon":-117.5283,"elevationM":3268},{"id":"node:2699141822","kind":"peak","name":"Mount Warden Robinson","lat":52.6722,"lon":-117.2667,"elevationM":3000},{"id":"node:2699141827","kind":"peak","name":"Mount Warren","lat":52.5636,"lon":-117.3764,"elevationM":3140},{"id":"node:2699141831","kind":"peak","name":"Rebakah Peak","lat":52.5273513,"lon":-117.1860122,"elevationM":3210},{"id":"node:2699141836","kind":"peak","name":"Replica Peak","lat":52.5087012,"lon":-117.4334234,"elevationM":2794},{"id":"node:2699141840","kind":"peak","name":"Samson Peak","lat":52.6803,"lon":-117.5106,"elevationM":3081},{"id":"node:2699141843","kind":"peak","name":"Shackle Peak","lat":52.5369016,"lon":-117.5543224,"elevationM":2867},{"id":"node:2699141846","kind":"peak","name":"Southesk Cairn","lat":52.72,"lon":-117.1433,"elevationM":2575},{"id":"node:2699141851","kind":"peak","name":"Tyche Peak","lat":52.5549888,"lon":-117.237339,"elevationM":3125},{"id":"node:2699141855","kind":"peak","name":"Valad Peak","lat":52.5378,"lon":-117.3492,"elevationM":3250},{"id":"node:2699165515","kind":"peak","name":"Amber Mountain","lat":52.8117,"lon":-117.9058,"elevationM":2565},{"id":"node:2699165516","kind":"peak","name":"Antler Mountain","lat":52.7592,"lon":-117.8461,"elevationM":2557},{"id":"node:2699165517","kind":"peak","name":"Centre Mountain","lat":52.8292,"lon":-117.8936,"elevationM":2700},{"id":"node:2699165518","kind":"peak","name":"Clevis Peak","lat":52.5964482,"lon":-117.662555,"elevationM":2785},{"id":"node:2699165519","kind":"peak","name":"Curator Mountain","lat":52.7774881,"lon":-117.847938,"elevationM":2622},{"id":"node:2699165520","kind":"peak","name":"Empathy Peak","lat":52.6417292,"lon":-117.7122616,"elevationM":2765},{"id":"node:2699165521","kind":"peak","name":"Evelyn Peak","lat":52.6717621,"lon":-117.7618377,"elevationM":2855},{"id":"node:2699165522","kind":"peak","name":"Excelsior Mountain","lat":52.8461,"lon":-117.8881,"elevationM":2744},{"id":"node:2699165523","kind":"peak","name":"Mount Hardisty","lat":52.704856,"lon":-117.8243464,"elevationM":2700},{"id":"node:2699165524","kind":"peak","name":"Mount Kerkeslin","lat":52.6490172,"lon":-117.8268395,"elevationM":2984},{"id":"node:2699165526","kind":"peak","name":"Mount Tekarra","lat":52.8419,"lon":-117.9397,"elevationM":2694},{"id":"node:2699165528","kind":"peak","name":"Mount Windy Castle","lat":52.6273022,"lon":-117.7661691,"elevationM":2820},{"id":"node:2699165531","kind":"peak","name":"Signal Mountain","lat":52.8594,"lon":-117.9669,"elevationM":2311},{"id":"node:2699165537","kind":"peak","name":"Sympathy Peak","lat":52.6140403,"lon":-117.6632308,"elevationM":2780},{"id":"node:2699165539","kind":"peak","name":"The Watchtower","lat":52.8222,"lon":-117.8417,"elevationM":2791},{"id":"node:2699165541","kind":"peak","name":"Trowel Peak","lat":52.7256202,"lon":-117.7710342,"elevationM":2640},{"id":"node:2699188809","kind":"peak","name":"Annunciation Peak","lat":52.8302782,"lon":-117.5974447,"elevationM":2740},{"id":"node:2699188810","kind":"peak","name":"Blackface Mountain","lat":52.8992,"lon":-117.4108,"elevationM":2867},{"id":"node:2699188811","kind":"peak","name":"Cheviot Mountain","lat":52.9111,"lon":-117.3519,"elevationM":2720},{"id":"node:2699188812","kind":"peak","name":"Climax Mountain","lat":52.9047,"lon":-117.4211,"elevationM":2823},{"id":"node:2699188813","kind":"peak","name":"Deception Mountain","lat":52.8694,"lon":-117.3975,"elevationM":2819},{"id":"node:2699188814","kind":"peak","name":"GMMC Mountain","lat":52.7398681,"lon":-117.1240425,"elevationM":2844},{"id":"node:2699188815","kind":"peak","name":"Garter Peak","lat":52.809391,"lon":-117.5415229,"elevationM":2740},{"id":"node:2699188816","kind":"peak","name":"Helmet Mountain","lat":52.7731,"lon":-117.4897,"elevationM":2612},{"id":"node:2699188817","kind":"peak","name":"Meda Mountain","lat":52.7636,"lon":-117.2717,"elevationM":2858},{"id":"node:2699188818","kind":"peak","name":"Mount Balcarres","lat":52.7967,"lon":-117.3419,"elevationM":2897},{"id":"node:2699188819","kind":"peak","name":"Mount Balinhard","lat":52.7603,"lon":-117.3003,"elevationM":3130},{"id":"node:2699188820","kind":"peak","name":"Mount Cardinal","lat":52.8475,"lon":-117.3192,"elevationM":2515},{"id":"node:2699188821","kind":"peak","name":"Mount La Grace","lat":52.7833,"lon":-117.1833,"elevationM":2822},{"id":"node:2699188822","kind":"peak","name":"Mount Lindsay","lat":52.86,"lon":-117.3736,"elevationM":2743},{"id":"node:2699188823","kind":"peak","name":"Mount Mackenzie","lat":52.8511,"lon":-117.2372,"elevationM":2764},{"id":"node:2699188824","kind":"peak","name":"Mount McBeath","lat":52.7628,"lon":-117.1528,"elevationM":2845},{"id":"node:2699188825","kind":"peak","name":"Mount Russell","lat":52.8192,"lon":-117.1761,"elevationM":2819},{"id":"node:2699188826","kind":"peak","name":"Mount Toma","lat":52.8167,"lon":-117.2,"elevationM":2760},{"id":"node:2699188827","kind":"peak","name":"Opal Peak","lat":52.7528,"lon":-117.5944,"elevationM":2800},{"id":"node:2699188828","kind":"peak","name":"Prospect Mountain","lat":52.9118728,"lon":-117.3969841,"elevationM":2819},{"id":"node:2699188829","kind":"peak","name":"Redcap Mountain","lat":52.9322599,"lon":-117.0846711,"elevationM":2393},{"id":"node:2699188830","kind":"peak","name":"Rock Door Peak","lat":52.872979,"lon":-117.5905483,"elevationM":2660},{"id":"node:2699188831","kind":"peak","name":"Ruby Mountain","lat":52.7739,"lon":-117.1075,"elevationM":2900},{"id":"node:2699188832","kind":"peak","name":"Thistle Mountain","lat":52.7608108,"lon":-117.0763206,"elevationM":2860},{"id":"node:2699188833","kind":"peak","name":"Tripoli Mountain","lat":52.8992,"lon":-117.3303,"elevationM":2620},{"id":"node:2699267448","kind":"peak","name":"Grisette Mountain","lat":52.9458,"lon":-117.9303,"elevationM":2620},{"id":"node:2699267454","kind":"peak","name":"Merlin Ridge","lat":52.9989131,"lon":-117.8657129,"elevationM":2362},{"id":"node:2699267457","kind":"peak","name":"Mount CR2","lat":52.9611,"lon":-117.9667,"elevationM":2620},{"id":"node:2699267461","kind":"peak","name":"Mount Dromore","lat":52.9383333,"lon":-117.8813889,"elevationM":2660},{"id":"node:2699267463","kind":"peak","name":"Mount Merlin","lat":52.9853,"lon":-117.8347,"elevationM":2711},{"id":"node:2699267465","kind":"peak","name":"Roche Bonhomme","lat":52.945,"lon":-117.9436,"elevationM":2495},{"id":"node:2699267468","kind":"peak","name":"Sirdar Mountain","lat":52.9266666,"lon":-117.8116667,"elevationM":2804},{"id":"node:2699272042","kind":"peak","name":"Cadomin Mountain","lat":52.9875755,"lon":-117.2785377,"elevationM":2400},{"id":"node:3613838387","kind":"peak","name":"Castleguard Mountain","lat":52.1100451,"lon":-117.2543808,"elevationM":3078},{"id":"node:3681125377","kind":"peak","name":"Notch Peak","lat":52.7942831,"lon":-117.879007,"elevationM":2594},{"id":"node:3703090435","kind":"peak","name":"Mount Russell","lat":52.8191665,"lon":-117.1760622,"elevationM":2804},{"id":"node:3703090436","kind":"peak","name":"Mount Toma","lat":52.8129274,"lon":-117.2098637,"elevationM":2725},{"id":"node:3703196643","kind":"peak","name":"Mount Mitchell","lat":52.4033854,"lon":-117.5041753,"elevationM":3085},{"id":"node:3704825855","kind":"peak","name":"Woolley Shoulder","lat":52.2884107,"lon":-117.4208795,"elevationM":2945},{"id":"node:4055229498","kind":"peak","name":"Mount Willis","lat":52.2713483,"lon":-117.0134815,"elevationM":3164},{"id":"node:4055607077","kind":"peak","name":"Mount Androlumbia","lat":52.1621485,"lon":-117.2507361,"elevationM":3313},{"id":"node:6330433710","kind":"peak","name":"Stutfield East","lat":52.2528291,"lon":-117.3862794,"elevationM":3422},{"id":"node:6585506269","kind":"peak","name":"Mount Kitchener","lat":52.2173352,"lon":-117.321524,"elevationM":3500},{"id":"node:7041984262","kind":"peak","name":"Cardinal Divide Ridge","lat":52.9087111,"lon":-117.2082121,"elevationM":2187},{"id":"node:9959875175","kind":"peak","name":"Mount Aberhart","lat":52.7332684,"lon":-117.795058,"elevationM":2532},{"id":"node:10604512182","kind":"peak","name":"Nosecone Peak","lat":52.2562548,"lon":-117.1317599,"elevationM":3045},{"id":"node:10608105811","kind":"peak","name":"Mount Esau","lat":52.59688,"lon":-117.01264,"elevationM":3075},{"id":"node:10616252695","kind":"peak","name":"Sunset Peak","lat":52.742372,"lon":-117.756529,"elevationM":2480},{"id":"node:10616252696","kind":"peak","name":"Shovel Ridge","lat":52.707387,"lon":-117.744341,"elevationM":2508},{"id":"node:10616252697","kind":"peak","name":"Bald Hills","lat":52.696985,"lon":-117.683315,"elevationM":2400},{"id":"node:12583438125","kind":"peak","name":"East Rice Peak","lat":52.0295881,"lon":-117.2125785,"elevationM":3062},{"id":"node:12583438126","kind":"peak","name":"Mount Spring-Rice W3.5","lat":52.0125397,"lon":-117.2788907,"elevationM":2825},{"id":"node:12583438127","kind":"peak","name":"Mount Spring-Rice W1.6","lat":52.0147216,"lon":-117.2579511,"elevationM":3129},{"id":"node:12597632142","kind":"peak","name":"Snow Dome E2.7","lat":52.2030965,"lon":-117.2623107,"elevationM":2672},{"id":"node:12597632143","kind":"peak","name":"Little Snow Dome","lat":52.1940497,"lon":-117.2799028,"elevationM":3140},{"id":"node:12597632144","kind":"peak","name":"Parker Ridge W1","lat":52.1828053,"lon":-117.1130406,"elevationM":2330},{"id":"node:12597632145","kind":"peak","name":"Boundary Peak","lat":52.1990629,"lon":-117.1952511,"elevationM":2871},{"id":"node:12597632146","kind":"peak","name":"A2 Tower","lat":52.1867246,"lon":-117.1889777,"elevationM":3060},{"id":"node:12597632147","kind":"peak","name":"Mount Andromeda SW1","lat":52.1736845,"lon":-117.2360865,"elevationM":3428},{"id":"node:12597632148","kind":"peak","name":"Mount Andromeda SE2.1","lat":52.1610146,"lon":-117.2161064,"elevationM":3220},{"id":"node:12597632149","kind":"peak","name":"Castleguard Mountain E2.3","lat":52.1186714,"lon":-117.2237511,"elevationM":2822},{"id":"node:12597632150","kind":"peak","name":"Mount Saskatchewan N5.5","lat":52.1425125,"lon":-117.138036,"elevationM":2850},{"id":"node:12597632151","kind":"peak","name":"Mount Saskatchewan NW3.3","lat":52.1232594,"lon":-117.1283489,"elevationM":2979},{"id":"node:12597632152","kind":"peak","name":"Mount Saskatchewan W4.5","lat":52.1248295,"lon":-117.1448222,"elevationM":2936},{"id":"node:12597632153","kind":"peak","name":"Mount Saskatchewan NE4.4","lat":52.1338002,"lon":-117.0686676,"elevationM":2910},{"id":"node:12597632154","kind":"peak","name":"Mount Saskatchewan NE2.5","lat":52.1199332,"lon":-117.0756413,"elevationM":2930},{"id":"node:12597632155","kind":"peak","name":"Terrace Mountain S1.9","lat":52.0740029,"lon":-117.1750413,"elevationM":2860},{"id":"node:12619896062","kind":"peak","name":"Mount Sadleir SW2.5","lat":52.3190082,"lon":-117.7746602,"elevationM":3020},{"id":"node:12619896063","kind":"peak","name":"Chisel Peak SW2.9","lat":52.3380866,"lon":-117.8677449,"elevationM":2921},{"id":"node:12619896064","kind":"peak","name":"Chisel Peak SW1.9","lat":52.3361381,"lon":-117.8492134,"elevationM":2945},{"id":"node:12619896065","kind":"peak","name":"Mount Franklin E2.3","lat":52.29382,"lon":-117.7920484,"elevationM":3020},{"id":"node:12619896066","kind":"peak","name":"Mount Franklin SE2.2","lat":52.2720878,"lon":-117.8061367,"elevationM":2930},{"id":"node:12619896067","kind":"peak","name":"Mount Franklin","lat":52.2885473,"lon":-117.8250491,"elevationM":3191},{"id":"node:12619896068","kind":"peak","name":"Mount Amundsen NW1","lat":52.2572604,"lon":-117.8458074,"elevationM":3110},{"id":"node:12619896069","kind":"peak","name":"Listening Mountain SE1.7","lat":52.235258,"lon":-117.7159934,"elevationM":2970},{"id":"node:12619896070","kind":"peak","name":"Listening Mountain S0.4","lat":52.2434052,"lon":-117.7322177,"elevationM":3110},{"id":"node:12619896071","kind":"peak","name":"Walcott Peak","lat":52.2188766,"lon":-117.798914,"elevationM":3110},{"id":"node:12619896072","kind":"peak","name":"Lawrence Peak","lat":52.2160652,"lon":-117.785822,"elevationM":3100},{"id":"node:12619896073","kind":"peak","name":"Gray Peak","lat":52.2046773,"lon":-117.7529208,"elevationM":3182},{"id":"node:12619896074","kind":"peak","name":"Noel Peak","lat":52.2020949,"lon":-117.7393243,"elevationM":3130},{"id":"node:12619896075","kind":"peak","name":"Eden Peak","lat":52.1884954,"lon":-117.734993,"elevationM":3198},{"id":"node:12619896076","kind":"peak","name":"Wales Peak","lat":52.1849466,"lon":-117.6566793,"elevationM":3121},{"id":"node:12619896077","kind":"peak","name":"Daemon's Horns","lat":52.191239,"lon":-117.6595675,"elevationM":3010},{"id":"node:12619896078","kind":"peak","name":"Chaba Peak","lat":52.1975617,"lon":-117.6722865,"elevationM":3211},{"id":"node:12619896079","kind":"peak","name":"Sundial Mountain SE1.8","lat":52.2210745,"lon":-117.614814,"elevationM":3085},{"id":"node:12619896080","kind":"peak","name":"Station 108","lat":52.2045882,"lon":-117.5689653,"elevationM":2869},{"id":"node:12619896081","kind":"peak","name":"Warwick Mountain SW3","lat":52.2245054,"lon":-117.5970091,"elevationM":2890},{"id":"node:12619896082","kind":"peak","name":"Warwick Mountain SW2","lat":52.2232423,"lon":-117.5833192,"elevationM":3145},{"id":"node:12619896083","kind":"peak","name":"Sundial Mountain SW1","lat":52.2263865,"lon":-117.6416407,"elevationM":3041},{"id":"node:12619896084","kind":"peak","name":"Mount Quincy SW2","lat":52.3144322,"lon":-117.6733288,"elevationM":3003},{"id":"node:12619896085","kind":"peak","name":"Mount Quincy E1","lat":52.3302127,"lon":-117.6510465,"elevationM":3010},{"id":"node:12619896086","kind":"peak","name":"Blackfriars Peak N2.1","lat":52.3428781,"lon":-117.6322105,"elevationM":3001},{"id":"node:12619896087","kind":"peak","name":"Blackfriars Peak N3.7","lat":52.3563795,"lon":-117.6414173,"elevationM":2968},{"id":"node:12619896088","kind":"peak","name":"Mount Adam Joachim N1","lat":52.4122521,"lon":-117.5346774,"elevationM":2920},{"id":"node:12619896089","kind":"peak","name":"Mount Palmer S2.5","lat":52.3325608,"lon":-117.5243912,"elevationM":3030},{"id":"node:12619896090","kind":"peak","name":"Mount Alberta NW2.4","lat":52.2994391,"lon":-117.5062227,"elevationM":2970},{"id":"node:12619896091","kind":"peak","name":"Mount Cromwell E1","lat":52.2676984,"lon":-117.3702211,"elevationM":3160},{"id":"node:12619896092","kind":"peak","name":"Aqueduct Peak SW2.2","lat":52.0878976,"lon":-117.6476186,"elevationM":2989},{"id":"node:12619896093","kind":"peak","name":"Central Aqueduct Peak","lat":52.1206871,"lon":-117.6465413,"elevationM":3109},{"id":"node:12619896094","kind":"peak","name":"Watershed North Peak","lat":52.1444384,"lon":-117.6099924,"elevationM":3090},{"id":"node:12619896095","kind":"peak","name":"Watershed Peak","lat":52.1400006,"lon":-117.6037974,"elevationM":3158},{"id":"node:12619896096","kind":"peak","name":"Omega Peak","lat":52.1287356,"lon":-117.5790615,"elevationM":3116},{"id":"node:12619896097","kind":"peak","name":"Triad Peak SE1.9","lat":52.1173456,"lon":-117.536113,"elevationM":2900},{"id":"node:12619896098","kind":"peak","name":"Triad Peak","lat":52.1282281,"lon":-117.5582054,"elevationM":3058},{"id":"node:12619896099","kind":"peak","name":"Toronto Peak NW1.3","lat":52.1724497,"lon":-117.5815894,"elevationM":2810},{"id":"node:12619896100","kind":"peak","name":"Shark Ridge","lat":52.1226048,"lon":-117.4040472,"elevationM":3126},{"id":"node:12619906301","kind":"peak","name":"Mount Columbia","lat":52.147111,"lon":-117.4416327,"elevationM":3741},{"id":"node:12619906302","kind":"peak","name":"Mount Bryce NE4.1","lat":52.0744602,"lon":-117.3062434,"elevationM":2860},{"id":"node:12619906303","kind":"peak","name":"Bryce NE Station","lat":52.0690194,"lon":-117.2986354,"elevationM":2910},{"id":"node:12619926848","kind":"peak","name":"Peak 1","lat":52.2168678,"lon":-117.9991821,"elevationM":2793},{"id":"node:12619926849","kind":"peak","name":"Mount Tilman","lat":52.1982018,"lon":-117.9370588,"elevationM":3095},{"id":"node:12619926850","kind":"peak","name":"Duplicate Mountain SE2","lat":52.192964,"lon":-117.85286,"elevationM":2820},{"id":"node:12619926851","kind":"peak","name":"Mount Shackleton NW1","lat":52.1868528,"lon":-117.9132785,"elevationM":3309},{"id":"node:12619926852","kind":"peak","name":"Pic Tordu S1","lat":52.1683469,"lon":-117.9384135,"elevationM":2990},{"id":"node:12619926853","kind":"peak","name":"Mount Speke","lat":52.1637626,"lon":-117.9369551,"elevationM":2972},{"id":"node:12619926854","kind":"peak","name":"Mount Livingstone W2.4","lat":52.1510654,"lon":-117.9707115,"elevationM":2640},{"id":"node:12619926855","kind":"peak","name":"Mount Rhodes W1.6","lat":52.1504358,"lon":-117.9524471,"elevationM":2649},{"id":"node:12619926856","kind":"peak","name":"Mount Rhodes S3.2","lat":52.1190644,"lon":-117.9171779,"elevationM":2604},{"id":"node:12619926857","kind":"peak","name":"Mount Somervell W0.8","lat":52.1395828,"lon":-117.8545974,"elevationM":2971},{"id":"node:12619926858","kind":"peak","name":"Mount Somervell S0.8","lat":52.1311517,"lon":-117.8413844,"elevationM":3032},{"id":"node:12619926859","kind":"peak","name":"Tsar Mountain S1.3","lat":52.0847396,"lon":-117.8140516,"elevationM":2910},{"id":"node:12619926860","kind":"peak","name":"Tsar Mountain S3","lat":52.0731056,"lon":-117.813143,"elevationM":2910},{"id":"node:12619926861","kind":"peak","name":"Coprolite Peak","lat":52.0640237,"lon":-117.7938481,"elevationM":2970},{"id":"node:12619926862","kind":"peak","name":"Polo Peak","lat":52.0534067,"lon":-117.7723573,"elevationM":2770},{"id":"node:12619926863","kind":"peak","name":"Marco Peak","lat":52.0550644,"lon":-117.7684666,"elevationM":2790},{"id":"node:12619926864","kind":"peak","name":"Tsar Mountain SE8.3","lat":52.0351595,"lon":-117.7358796,"elevationM":2703},{"id":"node:12619926865","kind":"peak","name":"Mount Odell S1.2","lat":52.0488405,"lon":-117.8219332,"elevationM":2987},{"id":"node:12619926866","kind":"peak","name":"Tsar Mountain S5.9","lat":52.0444759,"lon":-117.8226194,"elevationM":3030},{"id":"node:12619926867","kind":"peak","name":"Tsar Mountain S6.8","lat":52.0380154,"lon":-117.8342716,"elevationM":2686},{"id":"node:12619926868","kind":"peak","name":"Tsar Mountain S6.1","lat":52.0417716,"lon":-117.8068276,"elevationM":2944},{"id":"node:12619926869","kind":"peak","name":"Mount Odell SE4.3","lat":52.0264981,"lon":-117.7939233,"elevationM":2734},{"id":"node:12619926870","kind":"peak","name":"The Courtier S0.4","lat":52.0193656,"lon":-117.7950415,"elevationM":2810},{"id":"node:12619926871","kind":"peak","name":"The Courtier","lat":52.0221229,"lon":-117.7954037,"elevationM":2830},{"id":"node:12619926872","kind":"peak","name":"Tsar Mountain S9","lat":52.0185524,"lon":-117.8072453,"elevationM":2716},{"id":"node:12619926873","kind":"peak","name":"The Tantalizer","lat":52.0076578,"lon":-117.8096767,"elevationM":2822},{"id":"node:12619926874","kind":"peak","name":"GR448613","lat":52.001287,"lon":-117.8054036,"elevationM":2731},{"id":"node:12619926876","kind":"peak","name":"GR480618","lat":52.0036091,"lon":-117.7580852,"elevationM":2664},{"id":"node:12619926877","kind":"peak","name":"GR330663","lat":52.0425387,"lon":-117.9752023,"elevationM":2690},{"id":"node:12644474862","kind":"peak","name":"Mount Fryatt NW6.9","lat":52.5958692,"lon":-117.9800374,"elevationM":2839},{"id":"node:12644474863","kind":"peak","name":"Mount Fryatt W4.6","lat":52.5565438,"lon":-117.9779981,"elevationM":2690},{"id":"node:12644474864","kind":"peak","name":"Mount Fryatt NW4.7","lat":52.571275,"lon":-117.9728626,"elevationM":2638},{"id":"node:12644474865","kind":"peak","name":"Fluted Peak S1","lat":52.5821811,"lon":-117.920415,"elevationM":2940},{"id":"node:12644474866","kind":"peak","name":"Mount Fryatt NE3.4","lat":52.5735057,"lon":-117.8786051,"elevationM":2752},{"id":"node:12644474867","kind":"peak","name":"Bob Hope Peak","lat":52.5459071,"lon":-117.865643,"elevationM":2806},{"id":"node:12644474868","kind":"peak","name":"Earl Grey Peak","lat":52.5347315,"lon":-117.9264842,"elevationM":2900},{"id":"node:12644474869","kind":"peak","name":"Three Blind Mice","lat":52.4928461,"lon":-117.862309,"elevationM":2810},{"id":"node:12644474870","kind":"peak","name":"Mount Lowell North","lat":52.5085355,"lon":-117.8335796,"elevationM":3120},{"id":"node:12644474871","kind":"peak","name":"Lynn Peak","lat":52.5196858,"lon":-117.7287408,"elevationM":2610},{"id":"node:12644474872","kind":"peak","name":"Komodo Dragon Peak NE0.7","lat":52.5014829,"lon":-117.7204516,"elevationM":2940},{"id":"node:12644474873","kind":"peak","name":"Komodo Dragon Peak","lat":52.4971559,"lon":-117.7291775,"elevationM":2980},{"id":"node:12644474874","kind":"peak","name":"Catacombs Mountain NE7","lat":52.485055,"lon":-117.7221355,"elevationM":2960},{"id":"node:12644474875","kind":"peak","name":"Catacombs Mountain N4.2","lat":52.4678144,"lon":-117.7457377,"elevationM":3040},{"id":"node:12644474876","kind":"peak","name":"Dragon Peak SE0.5","lat":52.4458822,"lon":-117.7011757,"elevationM":2880},{"id":"node:12644474877","kind":"peak","name":"Fortress Mountain NW3.4","lat":52.4098134,"lon":-117.7898578,"elevationM":2847},{"id":"node:12644474878","kind":"peak","name":"Fortress Tower","lat":52.3906629,"lon":-117.7141394,"elevationM":2960},{"id":"node:12644474879","kind":"peak","name":"Lick Peak SE7.4","lat":52.4172704,"lon":-117.8183373,"elevationM":2730},{"id":"node:12644474880","kind":"peak","name":"Lick Peak SE2.2","lat":52.4300223,"lon":-117.8970235,"elevationM":2780},{"id":"node:12644474881","kind":"peak","name":"Minke Peak","lat":52.4713263,"lon":-117.9747033,"elevationM":2804},{"id":"node:13543814944","kind":"peak","name":"Endless Chain Ridge","lat":52.4977908,"lon":-117.4850673,"elevationM":2867}]}