{"tileKey":"la_p36_lo_m116","version":"v1-1775891056926","entries":[{"id":"node:297493316","kind":"peak","name":"La Madre Mountain","lat":36.212744,"lon":-115.4597323,"elevationM":2465},{"id":"node:301945670","kind":"peak","name":"Mount Wilson","lat":36.093619,"lon":-115.4839199,"elevationM":2155},{"id":"node:301945679","kind":"peak","name":"Rainbow Mountain","lat":36.1080241,"lon":-115.4902857,"elevationM":2075},{"id":"node:357544808","kind":"peak","name":"Aysees Peak","lat":36.8921786,"lon":-115.7941929,"elevationM":1904},{"id":"node:357545591","kind":"peak","name":"Blue Diamond Hill","lat":36.1024693,"lon":-115.3952827,"elevationM":1503},{"id":"node:357545679","kind":"peak","name":"Bridge Mountain","lat":36.1355235,"lon":-115.4905643,"elevationM":1968},{"id":"node:357546004","kind":"peak","name":"Castle Rock","lat":36.3974657,"lon":-115.251119,"elevationM":1314},{"id":"node:357546873","kind":"peak","name":"French Peak","lat":36.9135651,"lon":-115.9514199,"elevationM":1574},{"id":"node:357547086","kind":"peak","name":"Hayford Peak","lat":36.657188,"lon":-115.2005656,"elevationM":2997},{"id":"node:357547782","kind":"peak","name":"Lone Mountain","lat":36.2386582,"lon":-115.3148492,"elevationM":971},{"id":"node:357547962","kind":"peak","name":"Massachusetts Mountain","lat":36.8927314,"lon":-115.9864208,"elevationM":1273},{"id":"node:357548264","kind":"peak","name":"Mount Stirling","lat":36.4531364,"lon":-115.9687368,"elevationM":2494},{"id":"node:357548416","kind":"peak","name":"North Ridge","lat":36.6791232,"lon":-115.8747491,"elevationM":1688},{"id":"node:357548840","kind":"peak","name":"Puddle Peak","lat":36.9038426,"lon":-115.9766983,"elevationM":1387},{"id":"node:357548886","kind":"peak","name":"Quartzite Mountain","lat":36.5021162,"lon":-115.0874198,"elevationM":2152},{"id":"node:357548975","kind":"peak","name":"Raysonde Buttes","lat":36.9666215,"lon":-115.8830851,"elevationM":1507},{"id":"node:357549278","kind":"peak","name":"Saddle Mountain","lat":36.8127425,"lon":-115.2575127,"elevationM":2127},{"id":"node:357549442","kind":"peak","name":"Sheep Peak","lat":36.5829347,"lon":-115.2487471,"elevationM":2936},{"id":"node:357549604","kind":"peak","name":"South Ridge","lat":36.6346783,"lon":-115.9280836,"elevationM":1506},{"id":"node:357550144","kind":"peak","name":"Turtlehead Peak","lat":36.1802362,"lon":-115.445996,"elevationM":1920},{"id":"node:357550449","kind":"peak","name":"White Rock Hills","lat":36.1685782,"lon":-115.4955653,"elevationM":1967},{"id":"node:357550714","kind":"peak","name":"Quartz Peak","lat":36.9288487,"lon":-115.5594663,"elevationM":1897},{"id":"node:357550998","kind":"peak","name":"Calico Hills","lat":36.1660994,"lon":-115.4426091,"elevationM":1505},{"id":"node:357551724","kind":"peak","name":"Whitney Mesa","lat":36.0758075,"lon":-115.0702736,"elevationM":584},{"id":"node:357552213","kind":"peak","name":"Bald Knob","lat":36.555522,"lon":-115.1202864,"elevationM":2018},{"id":"node:357555535","kind":"peak","name":"Gass Peak","lat":36.400454,"lon":-115.1804371,"elevationM":2111},{"id":"node:357555663","kind":"peak","name":"Corn Creek Dunes","lat":36.4402427,"lon":-115.3566779,"elevationM":901},{"id":"node:357555709","kind":"peak","name":"Johns Peak","lat":36.6832993,"lon":-115.1877876,"elevationM":2863},{"id":"node:357557505","kind":"peak","name":"Angel Peak","lat":36.3184589,"lon":-115.5752159,"elevationM":2704},{"id":"node:357558476","kind":"peak","name":"Mummy Mountain","lat":36.2994073,"lon":-115.6486288,"elevationM":3454},{"id":"node:357559701","kind":"peak","name":"The Sisters","lat":36.3297435,"lon":-115.6831918,"elevationM":3102},{"id":"node:357559707","kind":"peak","name":"McFarland Peak","lat":36.3413649,"lon":-115.725862,"elevationM":3266},{"id":"node:357559715","kind":"peak","name":"Bonanza Peak","lat":36.3594577,"lon":-115.7472748,"elevationM":3164},{"id":"node:357559721","kind":"peak","name":"Harris Mountain","lat":36.2413529,"lon":-115.6114047,"elevationM":3052},{"id":"node:357559728","kind":"peak","name":"Willow Peak","lat":36.3854742,"lon":-115.7736785,"elevationM":3036},{"id":"node:357560072","kind":"peak","name":"Negrohead Peak","lat":36.6519106,"lon":-115.1577869,"elevationM":2573},{"id":"node:357561325","kind":"peak","name":"Fletcher Peak","lat":36.286657,"lon":-115.6217476,"elevationM":3122},{"id":"node:357565038","kind":"peak","name":"Exploration Peak","lat":36.0173608,"lon":-115.2586776,"elevationM":845},{"id":"node:3342709611","kind":"peak","name":"Moenkopi Ridge","lat":36.1399721,"lon":-115.4353846,"elevationM":null},{"id":"node:3679700117","kind":"peak","name":"Cathedral Rock","lat":36.2545722,"lon":-115.6497719,"elevationM":2622},{"id":"node:5249737075","kind":"peak","name":"Mescalito","lat":36.1231209,"lon":-115.4946648,"elevationM":1658},{"id":"node:5921496635","kind":"peak","name":"Firehouse Hill","lat":36.1251889,"lon":-115.3970011,"elevationM":null},{"id":"node:7112921633","kind":"peak","name":"Kraft Mountain","lat":36.1641215,"lon":-115.4215676,"elevationM":1437},{"id":"node:8220352619","kind":"peak","name":"Charleston Peak","lat":36.2716284,"lon":-115.6954918,"elevationM":3632},{"id":"node:8220380665","kind":"peak","name":"Griffith Peak","lat":36.2324439,"lon":-115.6460363,"elevationM":3369},{"id":"node:8220390186","kind":"peak","name":"Devil's Thumb","lat":36.2807059,"lon":-115.6947957,"elevationM":null},{"id":"node:8677301224","kind":"peak","name":"Fossil Ridge","lat":36.443712,"lon":-115.2087374,"elevationM":1664},{"id":"node:9579004203","kind":"peak","name":"Mount Wilson - South Peak","lat":36.0870657,"lon":-115.4814957,"elevationM":2079},{"id":"node:9579046573","kind":"peak","name":"The Knoll","lat":36.0978861,"lon":-115.4719769,"elevationM":1348},{"id":"node:9579061445","kind":"peak","name":"Windy Peak","lat":36.0213085,"lon":-115.4700738,"elevationM":1903},{"id":"node:9579062935","kind":"peak","name":"Hollow Rock Peak","lat":36.0085045,"lon":-115.469217,"elevationM":1830},{"id":"node:9579131321","kind":"peak","name":"Whiskey Peak","lat":36.0341317,"lon":-115.4629454,"elevationM":1573},{"id":"node:9579132648","kind":"peak","name":"Sandstone Peak","lat":36.0578075,"lon":-115.4728991,"elevationM":1767},{"id":"node:9579135345","kind":"peak","name":"Indecision Peak","lat":36.0727374,"lon":-115.47761,"elevationM":1960},{"id":"node:9579137127","kind":"peak","name":"Monument Peak","lat":36.0453678,"lon":-115.4697486,"elevationM":1915},{"id":"node:10604917672","kind":"peak","name":"Tower Hills","lat":36.6346757,"lon":-115.9690706,"elevationM":null},{"id":"node:10712977679","kind":"peak","name":"Indian Ridge","lat":36.5060266,"lon":-115.6442395,"elevationM":1496},{"id":"node:10956402264","kind":"peak","name":"Mountain Springs Peak","lat":36.0359639,"lon":-115.482411,"elevationM":2023},{"id":"node:12912943633","kind":"peak","name":"Pioneer Rock","lat":36.3056944,"lon":-115.6686792,"elevationM":null},{"id":"node:13017198151","kind":"peak","name":"Mule Deer Ridge","lat":36.8120933,"lon":-115.1778348,"elevationM":1691},{"id":"node:13017969481","kind":"peak","name":"Hidden Forest Ridge","lat":36.6367178,"lon":-115.229778,"elevationM":2859},{"id":"node:13123633451","kind":"peak","name":"Cone Peak","lat":36.4466772,"lon":-115.9214258,"elevationM":2230},{"id":"node:13123633656","kind":"peak","name":"Independence Peak","lat":36.4344211,"lon":-115.927434,"elevationM":2550},{"id":"node:13124113232","kind":"peak","name":"Mount Lukas","lat":36.469182,"lon":-115.9055472,"elevationM":2090},{"id":"node:13124164922","kind":"peak","name":"Mount Bulworth","lat":36.452619,"lon":-115.9441817,"elevationM":2340},{"id":"node:13124223886","kind":"peak","name":"Wheeler Benchmark","lat":36.3283064,"lon":-115.6898819,"elevationM":2971},{"id":"node:13124223887","kind":"peak","name":"Mine Peak","lat":36.3943422,"lon":-115.8254028,"elevationM":2320},{"id":"node:13124223888","kind":"peak","name":"ChLasEd Peak","lat":36.4507334,"lon":-115.8823729,"elevationM":2210},{"id":"node:13631024207","kind":"peak","name":"Peak 5983","lat":36.0097801,"lon":-115.4764272,"elevationM":1810}]}