{"tileKey":"la_p38_lo_p126","version":"v1-1775891056926","entries":[{"id":"node:581002337","kind":"peak","name":"각호산","lat":38.1825481,"lon":126.1011166,"elevationM":612},{"id":"node:581004385","kind":"peak","name":"청룡산","lat":38.404606,"lon":126.7531728,"elevationM":705},{"id":"node:581004823","kind":"peak","name":"형제봉","lat":38.9067304,"lon":126.8930769,"elevationM":930},{"id":"node:581004831","kind":"peak","name":"백년산","lat":38.8974429,"lon":126.9414731,"elevationM":1341},{"id":"node:581004861","kind":"peak","name":"동백년산","lat":38.9060622,"lon":126.9888165,"elevationM":1246},{"id":"node:2471791340","kind":"peak","name":"송악산","lat":38.0041736,"lon":126.5370067,"elevationM":488},{"id":"node:2476338570","kind":"peak","name":"국사봉","lat":38.0948651,"lon":126.6112784,"elevationM":764},{"id":"node:3708386201","kind":"peak","name":"봉명산","lat":38.0410081,"lon":126.4715075,"elevationM":318},{"id":"node:3708386211","kind":"peak","name":"월양산","lat":38.1128992,"lon":126.6200924,"elevationM":578},{"id":"node:3708387833","kind":"peak","name":"삼송산","lat":38.2060177,"lon":126.7917839,"elevationM":519},{"id":"node:3708485764","kind":"peak","name":"대각산","lat":38.8320913,"lon":126.5803984,"elevationM":1278},{"id":"node:3708960769","kind":"peak","name":"감악산","lat":38.3365159,"lon":126.2307941,"elevationM":585},{"id":"node:3718603373","kind":"peak","name":"초대봉","lat":38.0942507,"lon":126.3211516,"elevationM":253},{"id":"node:3718616836","kind":"peak","name":"운두봉","lat":38.0716477,"lon":126.1265495,"elevationM":287},{"id":"node:5638053614","kind":"peak","name":"률목산","lat":38.5627305,"lon":126.7248058,"elevationM":691},{"id":"node:5638054885","kind":"peak","name":"각후봉","lat":38.60399,"lon":126.68615,"elevationM":569},{"id":"node:5638055291","kind":"peak","name":"명지덕산","lat":38.6855098,"lon":126.8058944,"elevationM":910},{"id":"node:5638055385","kind":"peak","name":"선바위산","lat":38.7577662,"lon":126.8418846,"elevationM":1106},{"id":"node:5638201219","kind":"peak","name":"금슬봉","lat":38.6006931,"lon":126.9515279,"elevationM":617},{"id":"node:5638201508","kind":"peak","name":"두무산","lat":38.5565558,"lon":126.8605041,"elevationM":546},{"id":"node:5638201719","kind":"peak","name":"석봉","lat":38.6268494,"lon":126.8490974,"elevationM":809},{"id":"node:5638202168","kind":"peak","name":"장재덕산","lat":38.6058881,"lon":126.7723775,"elevationM":751},{"id":"node:5639035677","kind":"peak","name":"고주애산","lat":38.5204535,"lon":126.6944003,"elevationM":754},{"id":"node:5639103311","kind":"peak","name":"기대봉","lat":38.3752239,"lon":126.8533158,"elevationM":554},{"id":"node:5793586298","kind":"peak","name":"제석산","lat":38.1224204,"lon":126.5290904,"elevationM":733},{"id":"node:5922325600","kind":"peak","name":"주지봉","lat":38.1867286,"lon":126.0507818,"elevationM":713},{"id":"node:8420295204","kind":"peak","name":"화장산","lat":38.051185,"lon":126.643816,"elevationM":559},{"id":"node:8420713725","kind":"peak","name":"봉화산","lat":38.2606053,"lon":126.9519931,"elevationM":421},{"id":"node:9101516297","kind":"peak","name":"만년산","lat":38.8438679,"lon":126.8135195,"elevationM":901},{"id":"node:9105150888","kind":"peak","name":"황의산","lat":38.0839368,"lon":126.2243495,"elevationM":479},{"id":"node:9111040826","kind":"peak","name":"멸악산","lat":38.295834,"lon":126.2027999,"elevationM":818},{"id":"node:9403495442","kind":"peak","name":"고운산","lat":38.0197088,"lon":126.3932526,"elevationM":178},{"id":"node:9435939290","kind":"peak","name":"수룡산","lat":38.2157418,"lon":126.7109501,"elevationM":716},{"id":"node:9436983738","kind":"peak","name":"각후봉","lat":38.5959957,"lon":126.6896744,"elevationM":569},{"id":"node:9436983739","kind":"peak","name":"거무산","lat":38.4486639,"lon":126.6671528,"elevationM":624},{"id":"node:9436983740","kind":"peak","name":"오봉산","lat":38.580717,"lon":126.3401222,"elevationM":643},{"id":"node:9437098151","kind":"peak","name":"감박산","lat":38.6536539,"lon":126.2658647,"elevationM":626},{"id":"node:9437098154","kind":"peak","name":"기대봉","lat":38.7601424,"lon":126.3146011,"elevationM":811},{"id":"node:9437545377","kind":"peak","name":"삼각산","lat":38.4219622,"lon":126.8335937,"elevationM":529},{"id":"node:9480286877","kind":"peak","name":"련수봉","lat":38.8166244,"lon":126.9738957,"elevationM":852},{"id":"node:10221922813","kind":"peak","name":"치악산","lat":38.0019969,"lon":126.2927959,"elevationM":360},{"id":"node:10253015121","kind":"peak","name":"고왕산","lat":38.10569,"lon":126.91455,"elevationM":355},{"id":"node:10253015156","kind":"peak","name":"두리산","lat":38.06499,"lon":126.97048,"elevationM":186},{"id":"node:12337361540","kind":"peak","name":"오장산","lat":38.6072346,"lon":126.8437029,"elevationM":null},{"id":"node:12573924541","kind":"peak","name":"광석산","lat":38.0759233,"lon":126.3303276,"elevationM":296},{"id":"node:12573924542","kind":"peak","name":"도비산","lat":38.1219142,"lon":126.357596,"elevationM":332},{"id":"node:12573969027","kind":"peak","name":"설우산","lat":38.1031628,"lon":126.4264661,"elevationM":236},{"id":"node:12581998467","kind":"peak","name":"해월산","lat":38.0014289,"lon":126.0969458,"elevationM":220},{"id":"node:12587396448","kind":"peak","name":"국사봉산","lat":38.3200652,"lon":126.7760375,"elevationM":350},{"id":"node:12587396455","kind":"peak","name":"은굴산","lat":38.3640144,"lon":126.6462355,"elevationM":302},{"id":"node:12590077495","kind":"peak","name":"철봉산","lat":38.2404098,"lon":126.3383072,"elevationM":503},{"id":"node:12590077496","kind":"peak","name":"마장산","lat":38.3374503,"lon":126.4594444,"elevationM":217},{"id":"node:12590087111","kind":"peak","name":"금동산","lat":38.3563839,"lon":126.3347271,"elevationM":523},{"id":"node:12600488539","kind":"peak","name":"부아산","lat":38.2307199,"lon":126.0014862,"elevationM":458},{"id":"node:12600488540","kind":"peak","name":"동막산","lat":38.2945272,"lon":126.1038393,"elevationM":430},{"id":"node:12600488541","kind":"peak","name":"정두산","lat":38.3870451,"lon":126.0245489,"elevationM":386},{"id":"node:13433721269","kind":"peak","name":"천마산","lat":38.070834,"lon":126.55671,"elevationM":762},{"id":"node:13449408945","kind":"peak","name":"봉화산","lat":38.1808095,"lon":126.5726264,"elevationM":758},{"id":"node:13593280962","kind":"peak","name":"Togop-san","lat":38.6845375,"lon":126.7484624,"elevationM":null},{"id":"node:13593281000","kind":"peak","name":"Togop-san","lat":38.6890665,"lon":126.7546079,"elevationM":null}]}