{"tileKey":"la_p33_lo_m106","version":"v1-1775891056926","entries":[{"id":"node:357571894","kind":"peak","name":"Chaves Mountain","lat":33.5084088,"lon":-105.9024911,"elevationM":2135},{"id":"node:357576234","kind":"peak","name":"Little Black Peak","lat":33.7845163,"lon":-105.9366579,"elevationM":1712},{"id":"node:357583692","kind":"peak","name":"Monument Peak","lat":33.8528511,"lon":-105.6838744,"elevationM":2361},{"id":"node:357583967","kind":"peak","name":"Cub Mountain","lat":33.5350753,"lon":-105.8891572,"elevationM":2390},{"id":"node:357584032","kind":"peak","name":"Harley Mountain","lat":33.1614773,"lon":-105.6255415,"elevationM":2637},{"id":"node:357584151","kind":"peak","name":"Willow Hill","lat":33.5709082,"lon":-105.8944351,"elevationM":2054},{"id":"node:357587049","kind":"peak","name":"Round Mountain","lat":33.1486952,"lon":-105.8836005,"elevationM":1816},{"id":"node:357587147","kind":"peak","name":"Cat Head Mesa","lat":33.9342361,"lon":-105.9894377,"elevationM":1817},{"id":"node:357587329","kind":"peak","name":"Steel Hill","lat":33.5889628,"lon":-105.9994385,"elevationM":1565},{"id":"node:357587344","kind":"peak","name":"Polly Hills","lat":33.5589633,"lon":-105.9644375,"elevationM":1641},{"id":"node:357587348","kind":"peak","name":"Jakes Hill","lat":33.5561853,"lon":-105.9944385,"elevationM":1663},{"id":"node:357587353","kind":"peak","name":"Horse Mountain","lat":33.3389681,"lon":-105.9005459,"elevationM":1919},{"id":"node:357587648","kind":"peak","name":"Snaggletooth","lat":33.46732,"lon":-105.942192,"elevationM":2078},{"id":"node:357587974","kind":"peak","name":"Godfrey Peak","lat":33.4689647,"lon":-105.958604,"elevationM":2181},{"id":"node:357588003","kind":"peak","name":"Cat Mountain","lat":33.1781387,"lon":-105.8994341,"elevationM":2213},{"id":"node:357588009","kind":"peak","name":"Coyote Peak","lat":33.1775824,"lon":-105.9602685,"elevationM":1895},{"id":"node:357591727","kind":"peak","name":"Ancho Peak","lat":33.8525739,"lon":-105.6638744,"elevationM":2336},{"id":"node:357592266","kind":"peak","name":"Black Mountain","lat":33.3050802,"lon":-105.8811009,"elevationM":2577},{"id":"node:357592317","kind":"peak","name":"Blue Hill","lat":33.8150734,"lon":-105.707763,"elevationM":2086},{"id":"node:357592420","kind":"peak","name":"Boy Scout Mountain","lat":33.6217516,"lon":-105.2405425,"elevationM":2039},{"id":"node:357592510","kind":"peak","name":"Buck Mountain","lat":33.437302,"lon":-105.6802626,"elevationM":2360},{"id":"node:357592734","kind":"peak","name":"Capitan Peak","lat":33.5911957,"lon":-105.2652643,"elevationM":3063},{"id":"node:357592793","kind":"peak","name":"Carrizo Peak","lat":33.6906304,"lon":-105.7285962,"elevationM":2932},{"id":"node:357592805","kind":"peak","name":"Castle Garden Mesa","lat":33.7889622,"lon":-105.7277629,"elevationM":2283},{"id":"node:357593272","kind":"peak","name":"Chimney Rock","lat":33.610918,"lon":-105.2497093,"elevationM":2246},{"id":"node:357593296","kind":"peak","name":"Church Mountain","lat":33.5495206,"lon":-105.7624862,"elevationM":2662},{"id":"node:357593504","kind":"peak","name":"Cow Mountain","lat":33.3717467,"lon":-105.7488753,"elevationM":2858},{"id":"node:357593513","kind":"peak","name":"Coyote Mesa","lat":33.4336914,"lon":-105.6560955,"elevationM":2254},{"id":"node:357593663","kind":"peak","name":"Deadhorse Hill","lat":33.3123097,"lon":-105.499428,"elevationM":2276},{"id":"node:357593667","kind":"peak","name":"Deadhorse Hill","lat":33.3134207,"lon":-105.5022058,"elevationM":2291},{"id":"node:357593913","kind":"peak","name":"Dude Mesa","lat":33.3131392,"lon":-105.6583189,"elevationM":2274},{"id":"node:357593964","kind":"peak","name":"East Carrizo Cone","lat":33.6503555,"lon":-105.6147057,"elevationM":2460},{"id":"node:357594067","kind":"peak","name":"El Sentinel Peak","lat":33.400365,"lon":-105.3341505,"elevationM":1721},{"id":"node:357594277","kind":"peak","name":"Fort Stanton Mesa","lat":33.4298036,"lon":-105.6024833,"elevationM":2174},{"id":"node:357594410","kind":"peak","name":"Galt Peak","lat":33.5500783,"lon":-105.6372057,"elevationM":2240},{"id":"node:357594445","kind":"peak","name":"Gaylord Peak","lat":33.5278541,"lon":-105.7783202,"elevationM":2648},{"id":"node:357594485","kind":"peak","name":"Goat Mountain","lat":33.3903612,"lon":-105.5641498,"elevationM":2226},{"id":"node:357594489","kind":"peak","name":"Goat Mountain","lat":33.669521,"lon":-105.6566508,"elevationM":2455},{"id":"node:357594586","kind":"peak","name":"Granite Knob","lat":33.4311901,"lon":-105.727208,"elevationM":2906},{"id":"node:357594630","kind":"peak","name":"Grindstone Mesa","lat":33.3198041,"lon":-105.721653,"elevationM":2404},{"id":"node:357594821","kind":"peak","name":"High Mesa","lat":33.3989702,"lon":-105.6547069,"elevationM":2275},{"id":"node:357594839","kind":"peak","name":"Hightower Mountain","lat":33.3975835,"lon":-105.5474827,"elevationM":2235},{"id":"node:357595059","kind":"peak","name":"Hughes Hill","lat":33.5928529,"lon":-105.8327662,"elevationM":1838},{"id":"node:357595264","kind":"peak","name":"Jacks Peak","lat":33.9264626,"lon":-105.6272089,"elevationM":2290},{"id":"node:357595371","kind":"peak","name":"Jicarilla Peak","lat":33.8695191,"lon":-105.6241525,"elevationM":2304},{"id":"node:357595790","kind":"peak","name":"La Tetita Peak","lat":33.3953654,"lon":-105.3227617,"elevationM":1646},{"id":"node:357595899","kind":"peak","name":"Lake Mountain","lat":33.6547992,"lon":-105.6474839,"elevationM":2455},{"id":"node:357596151","kind":"peak","name":"Loma Grande","lat":33.4842445,"lon":-105.7202631,"elevationM":2626},{"id":"node:357596968","kind":"peak","name":"Mills Peak","lat":33.4328574,"lon":-105.6922073,"elevationM":2506},{"id":"node:357597015","kind":"peak","name":"Monjeau Peak","lat":33.4309123,"lon":-105.7316525,"elevationM":2942},{"id":"node:357597078","kind":"peak","name":"Moon Mountain","lat":33.3356388,"lon":-105.6488741,"elevationM":2189},{"id":"node:357597317","kind":"peak","name":"Nogal Peak","lat":33.4974002,"lon":-105.8036885,"elevationM":2966},{"id":"node:357597586","kind":"peak","name":"Patos Mountain","lat":33.7447979,"lon":-105.6627621,"elevationM":2492},{"id":"node:357598138","kind":"peak","name":"Read Mesa","lat":33.6345227,"lon":-105.5930386,"elevationM":2347},{"id":"node:357598438","kind":"peak","name":"Rose Peak","lat":33.4295208,"lon":-105.9888823,"elevationM":2167},{"id":"node:357598668","kind":"peak","name":"Salt Peak","lat":33.4420235,"lon":-105.7083187,"elevationM":2463},{"id":"node:357599253","kind":"peak","name":"Soldier Mountain","lat":33.4603557,"lon":-105.7502639,"elevationM":2516},{"id":"node:357599559","kind":"peak","name":"Sunset Peak","lat":33.586474,"lon":-105.2363753,"elevationM":2817},{"id":"node:357599566","kind":"peak","name":"Swan Hill","lat":33.5509113,"lon":-105.6527615,"elevationM":2223},{"id":"node:357599863","kind":"peak","name":"Turkey Peak","lat":33.1012043,"lon":-105.4463731,"elevationM":2236},{"id":"node:357600056","kind":"peak","name":"Vera Cruz Mountain","lat":33.610632,"lon":-105.6999847,"elevationM":2372},{"id":"node:357600234","kind":"peak","name":"Whitetail Mountain","lat":33.2578665,"lon":-105.5263737,"elevationM":2391},{"id":"node:357600514","kind":"peak","name":"Baca Mesa","lat":33.4848072,"lon":-105.2916514,"elevationM":1878},{"id":"node:357600540","kind":"peak","name":"Diamond Peak","lat":33.5472981,"lon":-105.7972096,"elevationM":2573},{"id":"node:357601073","kind":"peak","name":"Domingo Peak","lat":33.0550869,"lon":-105.8686,"elevationM":2269},{"id":"node:357601124","kind":"peak","name":"Padilla Point","lat":33.6106375,"lon":-105.4138721,"elevationM":2930},{"id":"node:357601475","kind":"peak","name":"Ramerez","lat":33.6067525,"lon":-105.1966522,"elevationM":1867},{"id":"node:357602112","kind":"peak","name":"Mountain Lion Peak","lat":33.1367514,"lon":-105.8624889,"elevationM":2038},{"id":"node:357606277","kind":"peak","name":"Baxter Mountain","lat":33.7472497,"lon":-105.7598469,"elevationM":2207},{"id":"node:357607569","kind":"peak","name":"Pajarita Mountain","lat":33.2367578,"lon":-105.4299843,"elevationM":2412},{"id":"node:357607585","kind":"peak","name":"Sierra Blanca Peak","lat":33.3742461,"lon":-105.809432,"elevationM":3620},{"id":"node:357608850","kind":"peak","name":"Lone Mountain","lat":33.7839616,"lon":-105.7766528,"elevationM":2417},{"id":"node:357610521","kind":"peak","name":"Carrizo Mountain","lat":33.6906304,"lon":-105.7285962,"elevationM":2932},{"id":"node:357620805","kind":"peak","name":"Huff Hill","lat":33.8503607,"lon":-105.2238793,"elevationM":1674},{"id":"node:357620885","kind":"peak","name":"Gyp Hill","lat":33.9945277,"lon":-105.0133216,"elevationM":1519},{"id":"node:357621317","kind":"peak","name":"Double Diamond Peaks","lat":33.5647979,"lon":-105.7955428,"elevationM":2187},{"id":"node:357621320","kind":"peak","name":"Little Cub Mountain","lat":33.540631,"lon":-105.8730456,"elevationM":2139},{"id":"node:357621324","kind":"peak","name":"Tucson Mountain","lat":33.6439663,"lon":-105.6360949,"elevationM":2539},{"id":"node:357621385","kind":"peak","name":"South Arabela","lat":33.541476,"lon":-105.1635949,"elevationM":1758},{"id":"node:357621431","kind":"peak","name":"Argentina peak","lat":33.4717435,"lon":-105.8402668,"elevationM":2782},{"id":"node:357621436","kind":"peak","name":"White Horse Hill","lat":33.4284112,"lon":-105.8355444,"elevationM":3111},{"id":"node:357621445","kind":"peak","name":"Buck Mountain","lat":33.4045233,"lon":-105.7819317,"elevationM":3276},{"id":"node:357621449","kind":"peak","name":"Lookout Mountain","lat":33.3906346,"lon":-105.8113769,"elevationM":3518},{"id":"node:10806554647","kind":"peak","name":"Summit Peak","lat":33.6062013,"lon":-105.3621524,"elevationM":3103},{"id":"node:11369382069","kind":"peak","name":"West Mountain","lat":33.6326182,"lon":-105.4751741,"elevationM":null},{"id":"node:11369382078","kind":"peak","name":"Chupadero Mountain","lat":33.8933636,"lon":-105.6071012,"elevationM":null}]}