{"tileKey":"la_p0_lo_p128","version":"v1-1775891056926","entries":[{"id":"node:1070158846","kind":"peak","name":"Buku Tegou","lat":0.933333,"lon":128.066667,"elevationM":null},{"id":"node:1070159887","kind":"peak","name":"Buku Bial","lat":0.45,"lon":128.5,"elevationM":null},{"id":"node:1070160385","kind":"peak","name":"Buku Mein","lat":0.666667,"lon":128.066667,"elevationM":null},{"id":"node:1070164329","kind":"peak","name":"Buku Gauraja","lat":0.533333,"lon":128.016667,"elevationM":null},{"id":"node:1070165166","kind":"peak","name":"Gunung Pekaulan","lat":0.983333,"lon":128.366667,"elevationM":null},{"id":"node:1070166742","kind":"peak","name":"Buku Sungai","lat":0.583333,"lon":128.466667,"elevationM":null},{"id":"node:1070167191","kind":"peak","name":"Buku Foni","lat":0.433333,"lon":128.516667,"elevationM":null},{"id":"node:1070167317","kind":"peak","name":"Gunung Watileo","lat":0.916667,"lon":128.25,"elevationM":null},{"id":"node:1070175964","kind":"peak","name":"Buku Kewinet","lat":0.466667,"lon":128.066667,"elevationM":null},{"id":"node:1070176859","kind":"peak","name":"Buku Semlaos","lat":0.75,"lon":128.05,"elevationM":null},{"id":"node:1070180229","kind":"peak","name":"Buku Kidori","lat":0.683333,"lon":128.016667,"elevationM":null},{"id":"node:1070180697","kind":"peak","name":"Buku Legalol","lat":0.516667,"lon":128.05,"elevationM":null},{"id":"node:1070182101","kind":"peak","name":"Buku Nuspera","lat":0.6,"lon":128.216667,"elevationM":null},{"id":"node:1070186175","kind":"peak","name":"Buku Guba","lat":0.25,"lon":128.866667,"elevationM":null},{"id":"node:1070186296","kind":"peak","name":"Buku Tutungan","lat":0.683333,"lon":128.083333,"elevationM":null},{"id":"node:1070190062","kind":"peak","name":"Buku Telaga","lat":0.6,"lon":128.4,"elevationM":null},{"id":"node:1070190561","kind":"peak","name":"Buku Tajam","lat":0.383333,"lon":128.616667,"elevationM":null},{"id":"node:1070190753","kind":"peak","name":"Buku Damoli","lat":0.416667,"lon":128.566667,"elevationM":null},{"id":"node:1070191618","kind":"peak","name":"Buku Gemia","lat":0.3,"lon":128.766667,"elevationM":null}]}