{"tileKey":"la_p47_lo_m56","version":"v1-1775891056926","entries":[{"id":"node:2919204410","kind":"peak","name":"Fortune Hill","lat":47.0353261,"lon":-55.8176595,"elevationM":null},{"id":"node:2919204411","kind":"peak","name":"Fortune Tolt","lat":47.0317942,"lon":-55.8222435,"elevationM":null},{"id":"node:2919204412","kind":"peak","name":"Mount Pleasant","lat":47.0668164,"lon":-55.8490515,"elevationM":null},{"id":"node:4401911684","kind":"peak","name":"Bennett Hill","lat":47.0872167,"lon":-55.7735787,"elevationM":null},{"id":"node:4401911795","kind":"peak","name":"Lee Beach Hill","lat":47.0001271,"lon":-55.9467696,"elevationM":null},{"id":"node:4401911796","kind":"peak","name":"Lee Beach Hill","lat":47.0030481,"lon":-55.9449724,"elevationM":null},{"id":"node:4401911800","kind":"peak","name":"Middle Ridge","lat":47.0027299,"lon":-55.8889576,"elevationM":null},{"id":"node:4401911802","kind":"peak","name":"Tumbling Hill","lat":47.1046908,"lon":-55.7775155,"elevationM":null},{"id":"node:4503604845","kind":"peak","name":"Maloneys Hill","lat":47.0847079,"lon":-55.7361969,"elevationM":null},{"id":"node:4503605348","kind":"peak","name":"Lewis Hill","lat":47.0954854,"lon":-55.7207937,"elevationM":null},{"id":"node:4503607147","kind":"peak","name":"Baggers Hill","lat":47.0782589,"lon":-55.7261714,"elevationM":null},{"id":"node:5272912118","kind":"peak","name":"Paul's Hill","lat":47.0434932,"lon":-55.1703052,"elevationM":null}]}