{"tileKey":"la_p32_lo_m96","version":"v1-1775891056926","entries":[{"id":"node:356700200","kind":"peak","name":"Big Rock Top","lat":32.365977,"lon":-95.9327451,"elevationM":187},{"id":"node:356702614","kind":"peak","name":"Cooper Mountain","lat":32.1557109,"lon":-95.6155153,"elevationM":192},{"id":"node:356709371","kind":"peak","name":"Kickapoo Mountain","lat":32.0329404,"lon":-95.4807893,"elevationM":173},{"id":"node:356718744","kind":"peak","name":"Peter Hayes Hill","lat":32.6551379,"lon":-95.0999429,"elevationM":137},{"id":"node:356718851","kind":"peak","name":"Pine Grove Hill","lat":32.1223778,"lon":-95.7860742,"elevationM":151},{"id":"node:356718909","kind":"peak","name":"Pinnacle Mountain","lat":32.6223617,"lon":-95.078276,"elevationM":170},{"id":"node:356719497","kind":"peak","name":"Red Hill","lat":32.5534689,"lon":-95.849966,"elevationM":171},{"id":"node:356719805","kind":"peak","name":"Rock Hill","lat":32.0648818,"lon":-95.6307928,"elevationM":214},{"id":"node:356719988","kind":"peak","name":"Rocky Point","lat":32.0071099,"lon":-95.2338367,"elevationM":147},{"id":"node:356723517","kind":"peak","name":"Sand Hill","lat":32.3759766,"lon":-95.9305229,"elevationM":207},{"id":"node:356724090","kind":"peak","name":"Mount Sinai","lat":32.5070856,"lon":-95.4774578,"elevationM":166},{"id":"node:356724242","kind":"peak","name":"Snow Mountain","lat":32.1198818,"lon":-95.2713384,"elevationM":201},{"id":"node:356724746","kind":"peak","name":"Starrville Mountain","lat":32.4540353,"lon":-95.1305011,"elevationM":196},{"id":"node:356724908","kind":"peak","name":"Stivers Hill","lat":32.9129031,"lon":-95.2293876,"elevationM":194},{"id":"node:356725415","kind":"peak","name":"Tater Hill Mountain","lat":32.1515442,"lon":-95.6407936,"elevationM":234},{"id":"node:356725841","kind":"peak","name":"Todd Mountain","lat":32.5006991,"lon":-95.294118,"elevationM":185},{"id":"node:356737414","kind":"peak","name":"Jennings Mountain","lat":32.2770939,"lon":-95.6205161,"elevationM":212},{"id":"node:356788296","kind":"peak","name":"Melton Rock","lat":32.3354228,"lon":-95.9305228,"elevationM":196},{"id":"node:5109735294","kind":"peak","name":"Greer Hill","lat":32.6258625,"lon":-95.4420555,"elevationM":null}]}