{"tileKey":"la_p37_lo_p28","version":"v1-1775891056926","entries":[{"id":"node:1842397011","kind":"peak","name":"Dela Dağı","lat":37.9856807,"lon":28.7914973,"elevationM":840},{"id":"node:1902221051","kind":"peak","name":"Güney Dağı","lat":37.4795257,"lon":28.9473669,"elevationM":1221},{"id":"node:1902221054","kind":"peak","name":"Kocaarmut Tepesi","lat":37.558956,"lon":28.985134,"elevationM":901},{"id":"node:1902221056","kind":"peak","name":"Lalelik Tepesi","lat":37.587566,"lon":28.892077,"elevationM":961},{"id":"node:1902524481","kind":"peak","name":"Kartal Tepesi","lat":37.770973,"lon":28.824583,"elevationM":1833},{"id":"node:1902524483","kind":"peak","name":"Danışman Tepesi","lat":37.806753,"lon":28.7237408,"elevationM":1282},{"id":"node:1902524486","kind":"peak","name":"Gümüş Tepe","lat":37.6793048,"lon":28.800684,"elevationM":803},{"id":"node:1902524522","kind":"peak","name":"Kuzalan Tepesi","lat":37.535883,"lon":28.7588744,"elevationM":985},{"id":"node:1902524523","kind":"peak","name":"Köklük Tepesi","lat":37.574234,"lon":28.802353,"elevationM":960},{"id":"node:1902658460","kind":"peak","name":"Kartalkaya Tepesi","lat":37.394306,"lon":28.971251,"elevationM":1689},{"id":"node:1902658463","kind":"peak","name":"Kurt Tepesi","lat":37.2751654,"lon":28.7768332,"elevationM":1094},{"id":"node:1902658486","kind":"peak","name":"Uyluk Dağı","lat":37.3599197,"lon":28.8871228,"elevationM":1574},{"id":"node:1902662905","kind":"peak","name":"Çobanlar Dağı","lat":37.4231103,"lon":28.9767328,"elevationM":1431},{"id":"node:1979477789","kind":"peak","name":"Bayrak Tepesi","lat":37.9872811,"lon":28.5791965,"elevationM":1285},{"id":"node:2301142763","kind":"peak","name":"Karıncalı Dağı","lat":37.697571,"lon":28.548456,"elevationM":1683},{"id":"node:2301142769","kind":"peak","name":"Koca Tepe","lat":37.7811913,"lon":28.6124748,"elevationM":424},{"id":"node:2301142773","kind":"peak","name":"Kocakıran Tepesi","lat":37.8546993,"lon":28.7036941,"elevationM":798},{"id":"node:2301142777","kind":"peak","name":"Kızmezarı Tepesi","lat":37.7885767,"lon":28.4885027,"elevationM":1481},{"id":"node:2407026200","kind":"peak","name":"Bozdağ Tepesi","lat":37.9862019,"lon":28.907242,"elevationM":486},{"id":"node:2407871873","kind":"peak","name":"Gümüşmaden Tepesi","lat":37.664696,"lon":28.5698831,"elevationM":1336},{"id":"node:2407871879","kind":"peak","name":"Hançam Tepesi","lat":37.6470504,"lon":28.668792,"elevationM":778},{"id":"node:2407871891","kind":"peak","name":"Koçak Tepesi","lat":37.5392637,"lon":28.5606572,"elevationM":446},{"id":"node:2407871900","kind":"peak","name":"Teke Dağı","lat":37.6498851,"lon":28.4597874,"elevationM":458},{"id":"node:2407871905","kind":"peak","name":"Yatak Dağı","lat":37.6568753,"lon":28.6125178,"elevationM":1302},{"id":"node:2584643310","kind":"peak","name":"Babadağ","lat":37.732361,"lon":28.877916,"elevationM":2302},{"id":"node:2584643313","kind":"peak","name":"Erenler Tepesi","lat":37.8622671,"lon":28.7583694,"elevationM":1148},{"id":"node:2584644431","kind":"peak","name":"Çubuk Dağı","lat":37.882911,"lon":28.7319246,"elevationM":1046},{"id":"node:2586292227","kind":"peak","name":"Gök Tepe","lat":37.771252,"lon":28.948473,"elevationM":1660},{"id":"node:2607996602","kind":"peak","name":"Madranbaba Dağı","lat":37.6461598,"lon":28.2426541,"elevationM":1792},{"id":"node:2608483792","kind":"peak","name":"Kalıca Tepesi","lat":37.708723,"lon":28.2545,"elevationM":1230},{"id":"node:2626100949","kind":"peak","name":"Yelken Dağı","lat":37.303673,"lon":28.9268,"elevationM":1623},{"id":"node:2626104568","kind":"peak","name":"Çırkıncak Tepesi","lat":37.1755289,"lon":28.9088299,"elevationM":1471},{"id":"node:2633679336","kind":"peak","name":"Dikmen Tepesi","lat":37.2977579,"lon":28.6012498,"elevationM":990},{"id":"node:2633679390","kind":"peak","name":"Kızılkaya Tepesi","lat":37.3332527,"lon":28.6638697,"elevationM":1038},{"id":"node:2633683578","kind":"peak","name":"Çongara Tepesi","lat":37.4451267,"lon":28.574218,"elevationM":794},{"id":"node:2687969433","kind":"peak","name":"Kocaçöğür Tepe","lat":37.7732727,"lon":28.0037619,"elevationM":712},{"id":"node:2719627176","kind":"peak","name":"Sandras Dağı","lat":37.081249,"lon":28.837917,"elevationM":2296},{"id":"node:2719632706","kind":"peak","name":"Yılanlı Dağı","lat":37.2318334,"lon":28.6545909,"elevationM":1299},{"id":"node:2905136004","kind":"peak","name":"Çeş Tepesi","lat":37.707085,"lon":28.987917,"elevationM":2121},{"id":"node:3710461189","kind":"peak","name":"Karadağ","lat":37.9746918,"lon":28.4890362,"elevationM":1333},{"id":"node:3876941389","kind":"peak","name":"Tokluyatak Tepesi","lat":37.717918,"lon":28.982361,"elevationM":2116},{"id":"node:7012269814","kind":"peak","name":"Karababa Dağı","lat":37.719028,"lon":28.937084,"elevationM":2300},{"id":"node:7012306655","kind":"peak","name":"Boz Tepe","lat":37.732082,"lon":28.950417,"elevationM":1941},{"id":"node:7012319345","kind":"peak","name":"Yellice Tepesi","lat":37.734795,"lon":28.922243,"elevationM":1986},{"id":"node:7012330978","kind":"peak","name":"Öküzçayır Tepesi","lat":37.766251,"lon":28.868473,"elevationM":1773},{"id":"node:7012376273","kind":"peak","name":"Büyükkızıl Tepesi","lat":37.112083,"lon":28.906528,"elevationM":2066},{"id":"node:7013673238","kind":"peak","name":"Sarıbaba Tepesi","lat":37.717083,"lon":28.942361,"elevationM":2260},{"id":"node:7013675026","kind":"peak","name":"Emirtepe","lat":37.713196,"lon":28.996529,"elevationM":2050},{"id":"node:7020241788","kind":"peak","name":"Eyer Tepesi","lat":37.714363,"lon":28.963129,"elevationM":2127},{"id":"node:8668561693","kind":"peak","name":"Uyluk Dağı","lat":37.3705665,"lon":28.8956737,"elevationM":1642},{"id":"node:8678712305","kind":"peak","name":"Gökbel Dağı","lat":37.4737767,"lon":28.001039,"elevationM":1422},{"id":"node:8977833573","kind":"peak","name":"Bencikdağı","lat":37.2358295,"lon":28.0482298,"elevationM":1389},{"id":"node:8988310181","kind":"peak","name":"Erentepe","lat":37.3648024,"lon":28.131051,"elevationM":710},{"id":"node:9724431212","kind":"peak","name":"Evran Tepesi","lat":37.698471,"lon":28.985138,"elevationM":2130},{"id":"node:10742220996","kind":"peak","name":"Ulugöl Tepesi","lat":37.080139,"lon":28.841806,"elevationM":2270},{"id":"node:10742232142","kind":"peak","name":"Beşparmak Tepesi","lat":37.71625,"lon":28.944583,"elevationM":2246},{"id":"node:11125387405","kind":"peak","name":"Kavakdağı","lat":37.1645403,"lon":28.0355429,"elevationM":1360},{"id":"node:11126917648","kind":"peak","name":"Göktepe","lat":37.342202,"lon":28.3727181,"elevationM":null},{"id":"node:11132298066","kind":"peak","name":"Oyukbaba Dağı","lat":37.5793977,"lon":28.3194789,"elevationM":1340},{"id":"node:11135759753","kind":"peak","name":"Dokuzçam Tepesi","lat":37.7947579,"lon":28.4682438,"elevationM":1550}]}