{"tileKey":"la_p26_lo_p111","version":"v1-1775891056926","entries":[{"id":"node:9414728476","kind":"peak","name":"舜皇山","lat":26.3683777,"lon":111.0097998,"elevationM":1882},{"id":"node:9414735542","kind":"peak","name":"大界岭","lat":26.3614657,"lon":111.0328287,"elevationM":null},{"id":"node:9414833997","kind":"peak","name":"金字岭","lat":26.4441642,"lon":111.0400484,"elevationM":1761},{"id":"node:12180464291","kind":"peak","name":"人古山","lat":26.4919946,"lon":111.5522847,"elevationM":null},{"id":"node:12180625500","kind":"peak","name":"铁山岭","lat":26.4866193,"lon":111.5374429,"elevationM":null},{"id":"node:12180625501","kind":"peak","name":"保庆岭","lat":26.4732343,"lon":111.5279474,"elevationM":null},{"id":"node:12180625502","kind":"peak","name":"王茅岭","lat":26.4724671,"lon":111.5500735,"elevationM":null},{"id":"node:12180625503","kind":"peak","name":"马头岭","lat":26.4776558,"lon":111.5551482,"elevationM":null},{"id":"node:12180732289","kind":"peak","name":"早山岭","lat":26.4754976,"lon":111.6197931,"elevationM":null},{"id":"node:12198127321","kind":"peak","name":"禾冲岭","lat":26.4594745,"lon":111.5280664,"elevationM":null},{"id":"node:12198140610","kind":"peak","name":"魁头岭","lat":26.4386504,"lon":111.5392568,"elevationM":null},{"id":"node:12198379314","kind":"peak","name":"大岭上","lat":26.4190873,"lon":111.5723378,"elevationM":null},{"id":"node:13045886168","kind":"peak","name":"大坳界","lat":26.4326337,"lon":111.0242368,"elevationM":null},{"id":"node:13045896508","kind":"peak","name":"高挂山","lat":26.6082766,"lon":111.1315815,"elevationM":null},{"id":"node:13045896875","kind":"peak","name":"牛龙歧","lat":26.459028,"lon":111.045652,"elevationM":null},{"id":"node:13048103311","kind":"peak","name":"雷公殿","lat":26.47323,"lon":111.052879,"elevationM":null},{"id":"node:13048533649","kind":"peak","name":"1439峰","lat":26.54634,"lon":111.060844,"elevationM":null},{"id":"node:13048533809","kind":"peak","name":"1391峰","lat":26.497489,"lon":111.05776,"elevationM":null},{"id":"node:13048534055","kind":"peak","name":"1442峰","lat":26.545752,"lon":111.061099,"elevationM":null},{"id":"node:13048534965","kind":"peak","name":"1445峰","lat":26.49294,"lon":111.053085,"elevationM":null},{"id":"node:13048536158","kind":"peak","name":"1441峰","lat":26.52472,"lon":111.061005,"elevationM":null},{"id":"node:13048536195","kind":"peak","name":"1436峰","lat":26.543457,"lon":111.061785,"elevationM":null},{"id":"node:13048536377","kind":"peak","name":"麻杉岭","lat":26.526689,"lon":111.05887,"elevationM":null},{"id":"node:13050101392","kind":"peak","name":"舜皇山西峰","lat":26.361695,"lon":111.002706,"elevationM":1861},{"id":"node:13050180236","kind":"peak","name":"杉木顶","lat":26.5931527,"lon":111.0824451,"elevationM":null},{"id":"node:13050180239","kind":"peak","name":"老井山","lat":26.5631601,"lon":111.0593445,"elevationM":1400},{"id":"node:13050180242","kind":"peak","name":"1308峰","lat":26.5141649,"lon":111.061616,"elevationM":null},{"id":"node:13050180244","kind":"peak","name":"1418峰","lat":26.5583129,"lon":111.058875,"elevationM":null},{"id":"node:13050180245","kind":"peak","name":"1438山顶","lat":26.4924429,"lon":111.0522089,"elevationM":null},{"id":"node:13050180246","kind":"peak","name":"1473峰","lat":26.5822,"lon":111.061236,"elevationM":null},{"id":"node:13050180249","kind":"peak","name":"1456峰","lat":26.579654,"lon":111.061775,"elevationM":null},{"id":"node:13050180251","kind":"peak","name":"1458峰","lat":26.587927,"lon":111.064645,"elevationM":null},{"id":"node:13052357341","kind":"peak","name":"月形山","lat":26.45767,"lon":111.0269781,"elevationM":null}]}