{"tileKey":"la_p49_lo_p18","version":"v1-1775891056926","entries":[{"id":"node:26863579","kind":"peak","name":"Lysá hora","lat":49.5459784,"lon":18.4472696,"elevationM":1324},{"id":"node:26864720","kind":"peak","name":"Smrk","lat":49.5081691,"lon":18.3704576,"elevationM":1278},{"id":"node:131807743","kind":"peak","name":"Równica","lat":49.7246955,"lon":18.8565564,"elevationM":884},{"id":"node:284599363","kind":"peak","name":"Kiczory / Kyčera","lat":49.595319,"lon":18.8390809,"elevationM":990},{"id":"node:291202783","kind":"peak","name":"Malý Javorník","lat":49.3059236,"lon":18.3031373,"elevationM":1019},{"id":"node:291202802","kind":"peak","name":"Veľký Javorník","lat":49.3190358,"lon":18.3678248,"elevationM":1072},{"id":"node:291203360","kind":"peak","name":"Stratenec","lat":49.315179,"lon":18.3352502,"elevationM":1055},{"id":"node:291203855","kind":"peak","name":"Vysoká","lat":49.4039649,"lon":18.3609332,"elevationM":1024},{"id":"node:291204245","kind":"peak","name":"Tanečnice","lat":49.3868644,"lon":18.1905765,"elevationM":911},{"id":"node:336213269","kind":"peak","name":"Błatnia","lat":49.7483479,"lon":18.9453302,"elevationM":917},{"id":"node:338411564","kind":"peak","name":"Kotouč","lat":49.5839721,"lon":18.1124045,"elevationM":519},{"id":"node:338412619","kind":"peak","name":"Štramberčík","lat":49.5461773,"lon":18.1061649,"elevationM":498},{"id":"node:390447314","kind":"peak","name":"Suchý","lat":49.1714542,"lon":18.9563873,"elevationM":1468},{"id":"node:404505138","kind":"peak","name":"Velký Sošov / Soszów Wielki","lat":49.6343429,"lon":18.8129536,"elevationM":886},{"id":"node:443704198","kind":"peak","name":"Złoty Groń","lat":49.5668264,"lon":18.9114002,"elevationM":710},{"id":"node:518318883","kind":"peak","name":"Holíš","lat":49.1476618,"lon":18.3682017,"elevationM":533},{"id":"node:571666200","kind":"peak","name":"Kykula","lat":49.4146913,"lon":18.6912857,"elevationM":null},{"id":"node:608987101","kind":"peak","name":"Dlhá lúka","lat":49.1213096,"lon":18.2651293,"elevationM":581},{"id":"node:609002291","kind":"peak","name":"Žiačik","lat":49.1345078,"lon":18.2781302,"elevationM":475},{"id":"node:614234124","kind":"peak","name":"Hončova hůrka","lat":49.6599605,"lon":18.1539614,"elevationM":336},{"id":"node:614237148","kind":"peak","name":"Siwoniowski Wierch","lat":49.5199443,"lon":18.9320207,"elevationM":798},{"id":"node:614237149","kind":"peak","name":"Stefanka","lat":49.5182499,"lon":18.9133959,"elevationM":722},{"id":"node:615819816","kind":"peak","name":"Makyta","lat":49.2609219,"lon":18.1630863,"elevationM":923},{"id":"node:615822629","kind":"peak","name":"Kykula","lat":49.2639771,"lon":18.422095,"elevationM":920},{"id":"node:615827962","kind":"peak","name":"Velký Polom / Veľký Polom","lat":49.5060923,"lon":18.6708856,"elevationM":1067},{"id":"node:615829330","kind":"peak","name":"Skaľanka / Skalanka","lat":49.4885677,"lon":18.9646057,"elevationM":867},{"id":"node:616083173","kind":"peak","name":"Javorový","lat":49.6206627,"lon":18.6072728,"elevationM":1032},{"id":"node:616083174","kind":"peak","name":"Malý Javorový","lat":49.6277048,"lon":18.6271896,"elevationM":948},{"id":"node:616084016","kind":"peak","name":"Ostrý","lat":49.6011025,"lon":18.6569412,"elevationM":1045},{"id":"node:624185475","kind":"peak","name":"Červený kámen","lat":49.5751011,"lon":18.1546993,"elevationM":696},{"id":"node:624240624","kind":"peak","name":"Pískovna","lat":49.5840833,"lon":18.1658144,"elevationM":584},{"id":"node:625968401","kind":"peak","name":"halda Ema","lat":49.8397948,"lon":18.314872,"elevationM":324},{"id":"node:654189661","kind":"peak","name":"Skalica","lat":49.7048676,"lon":18.8286047,"elevationM":487},{"id":"node:658709563","kind":"peak","name":"Bukovina","lat":49.4660716,"lon":18.3067482,"elevationM":999},{"id":"node:658709958","kind":"peak","name":"Čertův mlýn","lat":49.4893733,"lon":18.3017717,"elevationM":1206},{"id":"node:658710542","kind":"peak","name":"Malý Smrk","lat":49.5103366,"lon":18.3867136,"elevationM":1174},{"id":"node:658734058","kind":"peak","name":"Czantoria Wielka / Velká Čantoryje","lat":49.6788561,"lon":18.8046022,"elevationM":995},{"id":"node:659071622","kind":"peak","name":"Tanečnice","lat":49.4941167,"lon":18.2758498,"elevationM":1084},{"id":"node:659931434","kind":"peak","name":"Bukovina","lat":49.2131246,"lon":18.3966839,"elevationM":638},{"id":"node:659931435","kind":"peak","name":"Orgoňova Kýčera","lat":49.2516483,"lon":18.3471516,"elevationM":960},{"id":"node:659931436","kind":"peak","name":"Kržeľ","lat":49.2955509,"lon":18.3344618,"elevationM":null},{"id":"node:659931437","kind":"peak","name":"Žilín","lat":49.2877341,"lon":18.3641519,"elevationM":790},{"id":"node:659931438","kind":"peak","name":"Chrcholinec","lat":49.2237125,"lon":18.3848083,"elevationM":640},{"id":"node:659931439","kind":"peak","name":"Tisová","lat":49.2344784,"lon":18.376653,"elevationM":733},{"id":"node:659931452","kind":"peak","name":"Dúbrava","lat":49.2353718,"lon":18.3931689,"elevationM":null},{"id":"node:659931682","kind":"peak","name":"Žiar","lat":49.2591989,"lon":18.3905692,"elevationM":828},{"id":"node:659931683","kind":"peak","name":"Grúň","lat":49.2510367,"lon":18.3950679,"elevationM":null},{"id":"node:659931684","kind":"peak","name":"Zelenovec","lat":49.2469942,"lon":18.4099657,"elevationM":650},{"id":"node:659931685","kind":"peak","name":"Uholné","lat":49.2267096,"lon":18.4403624,"elevationM":null},{"id":"node:659931686","kind":"peak","name":"Javorinka","lat":49.252918,"lon":18.4136432,"elevationM":null},{"id":"node:659952687","kind":"peak","name":"Holý vŕšok","lat":49.2401875,"lon":18.408773,"elevationM":null},{"id":"node:660677699","kind":"peak","name":"Chotuč","lat":49.0708551,"lon":18.1763523,"elevationM":795},{"id":"node:669520102","kind":"peak","name":"Biely vrch","lat":49.0717415,"lon":18.1324321,"elevationM":819},{"id":"node:669520103","kind":"peak","name":"Chmeľová","lat":49.0738685,"lon":18.1543113,"elevationM":925},{"id":"node:672287837","kind":"peak","name":"Kalište","lat":49.0182019,"lon":18.3045711,"elevationM":680},{"id":"node:672288052","kind":"peak","name":"Butkov","lat":49.0221465,"lon":18.3315876,"elevationM":765},{"id":"node:683445563","kind":"peak","name":"Široké","lat":49.2020894,"lon":18.2959104,"elevationM":771},{"id":"node:683447829","kind":"peak","name":"Zigov","lat":49.2309509,"lon":18.275639,"elevationM":893},{"id":"node:686864229","kind":"peak","name":"Przykra","lat":49.7562177,"lon":18.9455606,"elevationM":824},{"id":"node:687436855","kind":"peak","name":"Beskid","lat":49.6060345,"lon":18.8769686,"elevationM":824},{"id":"node:687734358","kind":"peak","name":"Drieňová","lat":49.0404578,"lon":18.152567,"elevationM":627},{"id":"node:687734359","kind":"peak","name":"Zelená","lat":49.0505024,"lon":18.1124845,"elevationM":777},{"id":"node:733909114","kind":"peak","name":"Gańczorka","lat":49.5781265,"lon":18.9853997,"elevationM":909},{"id":"node:733909129","kind":"peak","name":"Tyniok","lat":49.5633349,"lon":18.9739013,"elevationM":891},{"id":"node:746935687","kind":"peak","name":"Wawrzaczów Groń","lat":49.5275508,"lon":18.8536843,"elevationM":688},{"id":"node:771384347","kind":"peak","name":"Malý Sošov / Soszów Mały","lat":49.6512883,"lon":18.8063459,"elevationM":762},{"id":"node:771384372","kind":"peak","name":"Česlar / Cieślar","lat":49.6230402,"lon":18.8206016,"elevationM":918},{"id":"node:771384420","kind":"peak","name":"Krkavice / Kyrkawica","lat":49.5969455,"lon":18.826695,"elevationM":978},{"id":"node:771384613","kind":"peak","name":"Malý Stožek / Stożek Mały","lat":49.6144507,"lon":18.8242521,"elevationM":843},{"id":"node:775278666","kind":"peak","name":"Dúbrava","lat":49.2467038,"lon":18.6826103,"elevationM":485},{"id":"node:793351017","kind":"peak","name":"Ondřejník","lat":49.5846448,"lon":18.3129392,"elevationM":890},{"id":"node:798573478","kind":"peak","name":"Kubalonka","lat":49.6071239,"lon":18.9105889,"elevationM":830},{"id":"node:839249791","kind":"peak","name":"Hora","lat":49.251011,"lon":18.7182138,"elevationM":626},{"id":"node:839249800","kind":"peak","name":"Dubník","lat":49.2348637,"lon":18.6801401,"elevationM":605},{"id":"node:839249809","kind":"peak","name":"Snoh","lat":49.2291279,"lon":18.6849644,"elevationM":641},{"id":"node:839249815","kind":"peak","name":"Malý Kriváň","lat":49.1811222,"lon":18.9930174,"elevationM":1671},{"id":"node:839249846","kind":"peak","name":"Dubeň","lat":49.2339448,"lon":18.7817246,"elevationM":613},{"id":"node:839249849","kind":"peak","name":"Veľký vrch","lat":49.2587525,"lon":18.6924714,"elevationM":531},{"id":"node:839249856","kind":"peak","name":"Rochovica","lat":49.2664242,"lon":18.74143,"elevationM":640},{"id":"node:839249861","kind":"peak","name":"Brodnianka","lat":49.2652225,"lon":18.7672009,"elevationM":720},{"id":"node:839249865","kind":"peak","name":"Hradisko","lat":49.264038,"lon":18.6869699,"elevationM":508},{"id":"node:891523715","kind":"peak","name":"Tlstá hora","lat":49.027154,"lon":18.140391,"elevationM":536},{"id":"node:891523716","kind":"peak","name":"Osúšie","lat":49.0350244,"lon":18.1251991,"elevationM":605},{"id":"node:894526038","kind":"peak","name":"Bílá hora","lat":49.5941869,"lon":18.126463,"elevationM":557},{"id":"node:914270552","kind":"peak","name":"Bucze","lat":49.7816221,"lon":18.8465848,"elevationM":417},{"id":"node:914277605","kind":"peak","name":"Górka","lat":49.787026,"lon":18.8775283,"elevationM":474},{"id":"node:914277606","kind":"peak","name":"Zebrzydka","lat":49.7705507,"lon":18.8825289,"elevationM":577},{"id":"node:926465691","kind":"peak","name":"Veľká Rača","lat":49.4133416,"lon":18.9688043,"elevationM":1236},{"id":"node:926465822","kind":"peak","name":"Malá Rača / Mała Racza","lat":49.4019756,"lon":18.9708986,"elevationM":1153},{"id":"node:929060721","kind":"peak","name":"Skálie","lat":49.2746179,"lon":18.3699471,"elevationM":732},{"id":"node:929060724","kind":"peak","name":"Ustrígeľ","lat":49.2998442,"lon":18.3815843,"elevationM":1009},{"id":"node:929060727","kind":"peak","name":"Hladná","lat":49.2669183,"lon":18.3358049,"elevationM":932},{"id":"node:929060737","kind":"peak","name":"Adamkov","lat":49.2915401,"lon":18.3099584,"elevationM":937},{"id":"node:962544947","kind":"peak","name":"Radhošť","lat":49.4915938,"lon":18.2230915,"elevationM":1129},{"id":"node:973668366","kind":"peak","name":"Vápenka","lat":49.4481061,"lon":18.1105384,"elevationM":523},{"id":"node:1043801842","kind":"peak","name":"Dúbrava","lat":49.0186003,"lon":18.2847307,"elevationM":377},{"id":"node:1043801899","kind":"peak","name":"Závlačná","lat":49.0887524,"lon":18.1972848,"elevationM":636},{"id":"node:1043801925","kind":"peak","name":"Krivá Tuchyňa","lat":49.143845,"lon":18.1279936,"elevationM":711},{"id":"node:1043801947","kind":"peak","name":"Javorník","lat":49.0732954,"lon":18.1608318,"elevationM":898},{"id":"node:1043801961","kind":"peak","name":"Kosák","lat":49.0889598,"lon":18.1146666,"elevationM":766},{"id":"node:1043801989","kind":"peak","name":"Okršlisko","lat":49.0833715,"lon":18.1154433,"elevationM":769},{"id":"node:1043802003","kind":"peak","name":"Babiná","lat":49.0383166,"lon":18.1797226,"elevationM":444},{"id":"node:1175014505","kind":"peak","name":"Szyndzielnia","lat":49.7524566,"lon":18.9996172,"elevationM":1028},{"id":"node:1210862014","kind":"peak","name":"Gigula","lat":49.3285243,"lon":18.3174008,"elevationM":951},{"id":"node:1223752004","kind":"peak","name":"Skalka","lat":49.5528186,"lon":18.3008675,"elevationM":964},{"id":"node:1235740534","kind":"peak","name":"Goruszka","lat":49.7939809,"lon":18.9427384,"elevationM":411},{"id":"node:1250840191","kind":"peak","name":"Straník","lat":49.2373635,"lon":18.82728,"elevationM":769},{"id":"node:1261048390","kind":"peak","name":"Na Výšině","lat":49.7688782,"lon":18.0025276,"elevationM":393},{"id":"node:1261509324","kind":"peak","name":"Veľký Manín","lat":49.1257132,"lon":18.4961068,"elevationM":891},{"id":"node:1297713703","kind":"peak","name":"Dúbravka","lat":49.2433209,"lon":18.4378657,"elevationM":593},{"id":"node:1305003286","kind":"peak","name":"Kaniakova skala","lat":49.2860311,"lon":18.3263784,"elevationM":1019},{"id":"node:1308032732","kind":"peak","name":"Bobčok","lat":49.7624326,"lon":18.3862505,"elevationM":303},{"id":"node:1309342205","kind":"peak","name":"Buky","lat":49.506073,"lon":18.7903277,"elevationM":615},{"id":"node:1309436525","kind":"peak","name":"Súľov","lat":49.4926536,"lon":18.5418253,"elevationM":903},{"id":"node:1309437528","kind":"peak","name":"Uhorská","lat":49.4907585,"lon":18.5983907,"elevationM":1029},{"id":"node:1309439832","kind":"peak","name":"Burkov vrch","lat":49.4960956,"lon":18.6391755,"elevationM":1031},{"id":"node:1309443569","kind":"peak","name":"Hlinené","lat":49.4600162,"lon":18.616787,"elevationM":875},{"id":"node:1309448995","kind":"peak","name":"Lukavice","lat":49.4099993,"lon":18.4921387,"elevationM":830},{"id":"node:1312306964","kind":"peak","name":"Zlámaná hora","lat":49.4051609,"lon":18.5030968,"elevationM":851},{"id":"node:1314579072","kind":"peak","name":"Malý Manín","lat":49.1484652,"lon":18.5067909,"elevationM":813},{"id":"node:1326679236","kind":"peak","name":"Velký kopec","lat":49.539949,"lon":18.1900159,"elevationM":565},{"id":"node:1326679238","kind":"peak","name":"Janíčkův vrch","lat":49.5664449,"lon":18.1959639,"elevationM":463},{"id":"node:1326679241","kind":"peak","name":"Malý Javorník","lat":49.5166255,"lon":18.1729651,"elevationM":839},{"id":"node:1326679245","kind":"peak","name":"Noříčí hora","lat":49.5077397,"lon":18.2708699,"elevationM":1047},{"id":"node:1326679248","kind":"peak","name":"Helštýn","lat":49.5327596,"lon":18.2228242,"elevationM":482},{"id":"node:1326679250","kind":"peak","name":"Velký Javorník","lat":49.5272038,"lon":18.1608471,"elevationM":918},{"id":"node:1329557831","kind":"peak","name":"Strážna","lat":49.1552932,"lon":18.6559396,"elevationM":686},{"id":"node:1329906965","kind":"peak","name":"Biele skaly","lat":49.1767848,"lon":18.96502,"elevationM":1448},{"id":"node:1329906967","kind":"peak","name":"Stratenec","lat":49.1803378,"lon":18.9676992,"elevationM":1513},{"id":"node:1334529994","kind":"peak","name":"Holý vrch","lat":49.5854552,"lon":18.1814648,"elevationM":487},{"id":"node:1334643941","kind":"peak","name":"Vrchhůra","lat":49.439808,"lon":18.0245454,"elevationM":692},{"id":"node:1335369382","kind":"peak","name":"Oprchlice","lat":49.51169,"lon":18.03228,"elevationM":638},{"id":"node:1335369383","kind":"peak","name":"Trojačka","lat":49.51369,"lon":18.05065,"elevationM":710},{"id":"node:1335369385","kind":"peak","name":"Huštýn","lat":49.51605,"lon":18.07169,"elevationM":749},{"id":"node:1335369390","kind":"peak","name":"Krátká","lat":49.5182781,"lon":18.1048976,"elevationM":768},{"id":"node:1335369392","kind":"peak","name":"Dlouhá","lat":49.520218,"lon":18.1243377,"elevationM":860},{"id":"node:1335369394","kind":"peak","name":"Kamenárka","lat":49.50949,"lon":18.13527,"elevationM":862},{"id":"node:1352176493","kind":"peak","name":"Beskydek","lat":49.392895,"lon":18.4054739,"elevationM":953},{"id":"node:1352176494","kind":"peak","name":"Dupačka","lat":49.3764092,"lon":18.4104476,"elevationM":928},{"id":"node:1352176495","kind":"peak","name":"Oselná","lat":49.3717201,"lon":18.414165,"elevationM":924},{"id":"node:1353553063","kind":"peak","name":"Velký Stožek / Stożek Wielki","lat":49.6055305,"lon":18.8230574,"elevationM":978},{"id":"node:1362735879","kind":"peak","name":"Kyčera","lat":49.5055907,"lon":18.1753082,"elevationM":875},{"id":"node:1362735961","kind":"peak","name":"Kladnatá","lat":49.503741,"lon":18.2234095,"elevationM":715},{"id":"node:1362736024","kind":"peak","name":"Mjaší","lat":49.4983191,"lon":18.2392872,"elevationM":904},{"id":"node:1362736089","kind":"peak","name":"Černá hora","lat":49.4782887,"lon":18.1970577,"elevationM":885},{"id":"node:1362736097","kind":"peak","name":"Malý Smrček","lat":49.5150333,"lon":18.3483571,"elevationM":712},{"id":"node:1362736123","kind":"peak","name":"Velká Stolová","lat":49.5109969,"lon":18.3011393,"elevationM":1057},{"id":"node:1362736154","kind":"peak","name":"Kaní","lat":49.4952549,"lon":18.1896464,"elevationM":678},{"id":"node:1362736158","kind":"peak","name":"Okrouhlý","lat":49.4975039,"lon":18.2600592,"elevationM":991},{"id":"node:1362736162","kind":"peak","name":"Blato","lat":49.4627074,"lon":18.3180289,"elevationM":939},{"id":"node:1362736189","kind":"peak","name":"Kněhyně","lat":49.4958454,"lon":18.312649,"elevationM":1258},{"id":"node:1362736224","kind":"peak","name":"Zmrzlý vrch","lat":49.5019165,"lon":18.2746755,"elevationM":1043},{"id":"node:1362736228","kind":"peak","name":"Skalka","lat":49.5278151,"lon":18.3870298,"elevationM":613},{"id":"node:1362736255","kind":"peak","name":"Magurka","lat":49.4806485,"lon":18.317134,"elevationM":1068},{"id":"node:1362736293","kind":"peak","name":"Smrček","lat":49.5217167,"lon":18.3645133,"elevationM":858},{"id":"node:1362736321","kind":"peak","name":"Malá Stolová","lat":49.5091661,"lon":18.3156806,"elevationM":1009},{"id":"node:1366518570","kind":"peak","name":"Klenov","lat":49.41237,"lon":18.03095,"elevationM":678},{"id":"node:1366518571","kind":"peak","name":"Štípa","lat":49.40658,"lon":18.03341,"elevationM":706},{"id":"node:1366518572","kind":"peak","name":"Vršky","lat":49.40201,"lon":18.03081,"elevationM":693},{"id":"node:1366518573","kind":"peak","name":"Brdo","lat":49.3886111,"lon":18.0377812,"elevationM":718},{"id":"node:1389905794","kind":"peak","name":"Kalužný","lat":49.5729104,"lon":18.6257581,"elevationM":994},{"id":"node:1397656759","kind":"peak","name":"Grabowa","lat":49.6777952,"lon":18.954555,"elevationM":907},{"id":"node:1428016239","kind":"peak","name":"Pavlova horečka","lat":49.55125,"lon":18.1946281,"elevationM":443},{"id":"node:1436356292","kind":"peak","name":"Kladnatá","lat":49.4363554,"lon":18.3585371,"elevationM":918},{"id":"node:1455976903","kind":"peak","name":"Tichavská hůrka","lat":49.5818328,"lon":18.2036382,"elevationM":543},{"id":"node:1455979109","kind":"peak","name":"Tábor","lat":49.5854775,"lon":18.2465517,"elevationM":473},{"id":"node:1483458807","kind":"peak","name":"Palenica","lat":49.7801539,"lon":18.9665869,"elevationM":688},{"id":"node:1483458810","kind":"peak","name":"Wysokie","lat":49.7695697,"lon":18.9562953,"elevationM":756},{"id":"node:1483468986","kind":"peak","name":"Cyberniok","lat":49.7747067,"lon":18.9978783,"elevationM":731},{"id":"node:1483638142","kind":"peak","name":"Cvačkův kopec","lat":49.5357733,"lon":18.1042328,"elevationM":427},{"id":"node:1484099030","kind":"peak","name":"Pod Hornou Lúkou","lat":49.0638052,"lon":18.7810279,"elevationM":1235},{"id":"node:1489715023","kind":"peak","name":"Na Peklech","lat":49.5526039,"lon":18.1406721,"elevationM":605},{"id":"node:1501342727","kind":"peak","name":"Stanovec","lat":49.5607389,"lon":18.3093589,"elevationM":899},{"id":"node:1519414406","kind":"peak","name":"Brzestowy Groń","lat":49.561221,"lon":18.938803,"elevationM":683},{"id":"node:1531055655","kind":"peak","name":"Králova hora","lat":49.6125216,"lon":18.2771306,"elevationM":556},{"id":"node:1531055658","kind":"peak","name":"Strážnice","lat":49.5971597,"lon":18.2406867,"elevationM":482},{"id":"node:1533721444","kind":"peak","name":"Pahorok","lat":49.5117119,"lon":18.8944132,"elevationM":721},{"id":"node:1539221824","kind":"peak","name":"Babí hora","lat":49.6352808,"lon":18.2505839,"elevationM":null},{"id":"node:1539221826","kind":"peak","name":"Babí hůra","lat":49.6299225,"lon":18.2350698,"elevationM":null},{"id":"node:1539221827","kind":"peak","name":"Kazničov","lat":49.6072038,"lon":18.2200991,"elevationM":601},{"id":"node:1539221829","kind":"peak","name":"Kožná","lat":49.6241885,"lon":18.2463085,"elevationM":null},{"id":"node:1552660719","kind":"peak","name":"Chełm","lat":49.7525013,"lon":18.7384203,"elevationM":464},{"id":"node:1553785140","kind":"peak","name":"Žilinský kopec","lat":49.579065,"lon":18.0307393,"elevationM":null},{"id":"node:1560584874","kind":"peak","name":"Vrchovina","lat":49.5612197,"lon":18.2264576,"elevationM":456},{"id":"node:1575745127","kind":"peak","name":"Dívčí hůra","lat":49.5184993,"lon":18.1903629,"elevationM":604},{"id":"node:1575745132","kind":"peak","name":"Kozinec","lat":49.5100942,"lon":18.188288,"elevationM":null},{"id":"node:1576524340","kind":"peak","name":"Marek","lat":49.5373828,"lon":18.2227131,"elevationM":null},{"id":"node:1579555519","kind":"peak","name":"Hýlovec","lat":49.5747029,"lon":18.0308792,"elevationM":null},{"id":"node:1579555541","kind":"peak","name":"Puntík","lat":49.5901178,"lon":18.055783,"elevationM":501},{"id":"node:1588496466","kind":"peak","name":"Nad Bučníkem","lat":49.7580625,"lon":18.5486614,"elevationM":347},{"id":"node:1588496575","kind":"peak","name":"Hory","lat":49.746728,"lon":18.5611988,"elevationM":423},{"id":"node:1597692788","kind":"peak","name":"Jedle","lat":49.5664382,"lon":18.0616289,"elevationM":544},{"id":"node:1597692875","kind":"peak","name":"Mořkovský vrch","lat":49.5459985,"lon":18.0537095,"elevationM":428},{"id":"node:1597696609","kind":"peak","name":"Hlásnice","lat":49.5645188,"lon":18.0844158,"elevationM":557},{"id":"node:1597697672","kind":"peak","name":"Holivák","lat":49.5831611,"lon":18.0720602,"elevationM":485},{"id":"node:1601534218","kind":"peak","name":"Vreteň","lat":49.2737545,"lon":18.7937924,"elevationM":821},{"id":"node:1617053685","kind":"peak","name":"Hradište","lat":49.0257255,"lon":18.3554021,"elevationM":520},{"id":"node:1617053687","kind":"peak","name":"Jelenia skala","lat":49.0332736,"lon":18.3624163,"elevationM":466},{"id":"node:1617053691","kind":"peak","name":"Kontúrovec","lat":49.0448461,"lon":18.3530708,"elevationM":452},{"id":"node:1617053705","kind":"peak","name":"Pasienok","lat":49.0203921,"lon":18.3651196,"elevationM":503},{"id":"node:1617053715","kind":"peak","name":"Vŕšok","lat":49.0474295,"lon":18.360069,"elevationM":462},{"id":"node:1617682944","kind":"peak","name":"Rašov","lat":49.0811871,"lon":18.3478382,"elevationM":378},{"id":"node:1624330598","kind":"peak","name":"Homole","lat":49.5678211,"lon":18.0184615,"elevationM":null},{"id":"node:1624332658","kind":"peak","name":"Homole","lat":49.5608941,"lon":18.0127349,"elevationM":null},{"id":"node:1627257237","kind":"peak","name":"Závrší","lat":49.5588026,"lon":18.1710406,"elevationM":456},{"id":"node:1627916129","kind":"peak","name":"Bôrová hôrka","lat":49.0454256,"lon":18.3842299,"elevationM":472},{"id":"node:1627916130","kind":"peak","name":"Holák","lat":49.0407394,"lon":18.3412732,"elevationM":416},{"id":"node:1627916131","kind":"peak","name":"Malenica","lat":49.019113,"lon":18.4005631,"elevationM":878},{"id":"node:1627916132","kind":"peak","name":"Mliečnica","lat":49.0923421,"lon":18.3499405,"elevationM":371},{"id":"node:1627916133","kind":"peak","name":"Prašnica","lat":49.035157,"lon":18.3915751,"elevationM":551},{"id":"node:1628035050","kind":"peak","name":"Hrobice","lat":49.0979806,"lon":18.3620479,"elevationM":403},{"id":"node:1628035061","kind":"peak","name":"Lieštie","lat":49.0853982,"lon":18.3519789,"elevationM":385},{"id":"node:1628047454","kind":"peak","name":"Brekovec","lat":49.0978885,"lon":18.3847504,"elevationM":488},{"id":"node:1628047459","kind":"peak","name":"Pod Brekovcom","lat":49.0908135,"lon":18.3728946,"elevationM":379},{"id":"node:1628056906","kind":"peak","name":"Kamenica","lat":49.0524404,"lon":18.3670707,"elevationM":437},{"id":"node:1628360680","kind":"peak","name":"Jurovo","lat":49.0372688,"lon":18.3552435,"elevationM":446},{"id":"node:1628360683","kind":"peak","name":"Mladý háj","lat":49.033766,"lon":18.3319765,"elevationM":426},{"id":"node:1628360688","kind":"peak","name":"Nad Martovou","lat":49.0351599,"lon":18.3362597,"elevationM":356},{"id":"node:1628360694","kind":"peak","name":"Pánský háj","lat":49.0305161,"lon":18.3738343,"elevationM":526},{"id":"node:1628390021","kind":"peak","name":"Dielec","lat":49.0037917,"lon":18.367491,"elevationM":498},{"id":"node:1628390022","kind":"peak","name":"Ostrý hrádok","lat":49.0117126,"lon":18.4026773,"elevationM":831},{"id":"node:1628390025","kind":"peak","name":"Rohatín","lat":49.0081166,"lon":18.3931644,"elevationM":862},{"id":"node:1628390026","kind":"peak","name":"Tlstá hora","lat":49.022491,"lon":18.3380616,"elevationM":736},{"id":"node:1629366719","kind":"peak","name":"Babie","lat":49.0397186,"lon":18.4129942,"elevationM":481},{"id":"node:1629366721","kind":"peak","name":"Bukovina","lat":49.0758994,"lon":18.3825501,"elevationM":387},{"id":"node:1629366722","kind":"peak","name":"Jankov háj","lat":49.0636362,"lon":18.3965701,"elevationM":400},{"id":"node:1629366723","kind":"peak","name":"Rakytník","lat":49.0036338,"lon":18.3948366,"elevationM":807},{"id":"node:1629366724","kind":"peak","name":"Skalica","lat":49.0466415,"lon":18.3916659,"elevationM":470},{"id":"node:1629397544","kind":"peak","name":"Borová","lat":49.00202,"lon":18.4158792,"elevationM":688},{"id":"node:1629397547","kind":"peak","name":"Kobyla","lat":49.0699683,"lon":18.4196844,"elevationM":467},{"id":"node:1629397579","kind":"peak","name":"Svrčinovec","lat":49.0022055,"lon":18.438035,"elevationM":760},{"id":"node:1629397588","kind":"peak","name":"Tupá Malenica","lat":49.0260997,"lon":18.4263731,"elevationM":665},{"id":"node:1629674808","kind":"peak","name":"Čarodějka","lat":49.6325977,"lon":18.0024559,"elevationM":308},{"id":"node:1644820139","kind":"peak","name":"Čupeľ","lat":49.4200549,"lon":18.5445626,"elevationM":721},{"id":"node:1644822356","kind":"peak","name":"Lovásov","lat":49.408891,"lon":18.6351513,"elevationM":583},{"id":"node:1644828648","kind":"peak","name":"Beskyd","lat":49.3935379,"lon":18.4290914,"elevationM":900},{"id":"node:1644837343","kind":"peak","name":"Skalka","lat":49.3876405,"lon":18.5071324,"elevationM":767},{"id":"node:1644839282","kind":"peak","name":"Galkovo","lat":49.3668553,"lon":18.5580957,"elevationM":851},{"id":"node:1644840211","kind":"peak","name":"Klinkovský vrch","lat":49.3873093,"lon":18.5252253,"elevationM":706},{"id":"node:1644844390","kind":"peak","name":"Trojačka","lat":49.3967772,"lon":18.4033656,"elevationM":939},{"id":"node:1644848172","kind":"peak","name":"Okrúhla","lat":49.3960635,"lon":18.5438712,"elevationM":802},{"id":"node:1644854198","kind":"peak","name":"Bukovina","lat":49.3945665,"lon":18.6501871,"elevationM":678},{"id":"node:1644854898","kind":"peak","name":"Veľká lúka","lat":49.3786446,"lon":18.6268621,"elevationM":775},{"id":"node:1644859865","kind":"peak","name":"Rusinov vrch","lat":49.3895693,"lon":18.5932723,"elevationM":687},{"id":"node:1645632685","kind":"peak","name":"Včelín","lat":49.5370065,"lon":18.0142828,"elevationM":432},{"id":"node:1645632686","kind":"peak","name":"Přední kopec","lat":49.5426458,"lon":18.0088442,"elevationM":null},{"id":"node:1645632687","kind":"peak","name":"Zadní kopec","lat":49.5386542,"lon":18.0059598,"elevationM":null},{"id":"node:1657317796","kind":"peak","name":"Větřkovická hůrka","lat":49.6170048,"lon":18.20147,"elevationM":448},{"id":"node:1669056349","kind":"peak","name":"Babí Hora","lat":49.7471963,"lon":18.5313267,"elevationM":423},{"id":"node:1750799838","kind":"peak","name":"Tábor","lat":49.3227302,"lon":18.7708955,"elevationM":697},{"id":"node:1784928157","kind":"peak","name":"Maralův kopec","lat":49.52727,"lon":18.2849454,"elevationM":578},{"id":"node:1793106940","kind":"peak","name":"Kýčerka","lat":49.3426922,"lon":18.7536993,"elevationM":724},{"id":"node:1797484665","kind":"peak","name":"Kępa","lat":49.9372212,"lon":18.4503102,"elevationM":247},{"id":"node:1798156563","kind":"peak","name":"Vrchrieka","lat":49.3662857,"lon":18.7319705,"elevationM":861},{"id":"node:1798156581","kind":"peak","name":"Črchľa","lat":49.3851481,"lon":18.7785204,"elevationM":null},{"id":"node:1821761484","kind":"peak","name":"Bačův kopec","lat":49.6306166,"lon":18.2816661,"elevationM":null},{"id":"node:1826726810","kind":"peak","name":"Koczy Zamek","lat":49.5483351,"lon":18.9759987,"elevationM":847},{"id":"node:1862821424","kind":"peak","name":"Bukovina","lat":49.0089862,"lon":18.3373664,"elevationM":562},{"id":"node:1882932898","kind":"peak","name":"Kalvária","lat":49.1135948,"lon":18.4601118,"elevationM":417},{"id":"node:1882940064","kind":"peak","name":"Manínec","lat":49.118603,"lon":18.4918094,"elevationM":603},{"id":"node:1883990644","kind":"peak","name":"Orłowa","lat":49.6969792,"lon":18.8784718,"elevationM":813},{"id":"node:1888072566","kind":"peak","name":"Klimczok","lat":49.7398208,"lon":18.9952681,"elevationM":1117},{"id":"node:1894342804","kind":"peak","name":"Libhošťská hůrka","lat":49.6103438,"lon":18.0758793,"elevationM":494},{"id":"node:1895612764","kind":"peak","name":"Brdy","lat":49.5901878,"lon":18.1589165,"elevationM":467},{"id":"node:1897942369","kind":"peak","name":"Bačův kopec","lat":49.6129522,"lon":18.257296,"elevationM":530},{"id":"node:1897942370","kind":"peak","name":"Myší hora","lat":49.4917405,"lon":18.1583872,"elevationM":724},{"id":"node:1897942371","kind":"peak","name":"Na vrchu","lat":49.5800385,"lon":18.230573,"elevationM":466},{"id":"node:1897942372","kind":"peak","name":"Kozlovická hora","lat":49.6114997,"lon":18.2872303,"elevationM":612},{"id":"node:1897972492","kind":"peak","name":"Suché úbočí","lat":49.5719294,"lon":18.2966985,"elevationM":864},{"id":"node:1901992052","kind":"peak","name":"Žeravica","lat":49.1991056,"lon":18.439835,"elevationM":null},{"id":"node:1957663910","kind":"peak","name":"Jurošovský vrch","lat":49.4503327,"lon":18.766086,"elevationM":627},{"id":"node:1963755929","kind":"peak","name":"Briava","lat":49.4105515,"lon":18.7651634,"elevationM":821},{"id":"node:1963755938","kind":"peak","name":"Grúň","lat":49.4527825,"lon":18.7562684,"elevationM":630},{"id":"node:1963757850","kind":"peak","name":"Črchľa","lat":49.423222,"lon":18.7399196,"elevationM":564},{"id":"node:1975806793","kind":"peak","name":"Kýčerka","lat":49.4078348,"lon":18.8012465,"elevationM":760},{"id":"node:1975806797","kind":"peak","name":"Pálenica","lat":49.4033236,"lon":18.7691117,"elevationM":758},{"id":"node:1975806803","kind":"peak","name":"Vojtov vrch","lat":49.388077,"lon":18.7947044,"elevationM":840},{"id":"node:1975806816","kind":"peak","name":"Vrchkoniec","lat":49.4150538,"lon":18.7962473,"elevationM":744},{"id":"node:1986280955","kind":"peak","name":"Bahaňa","lat":49.4745843,"lon":18.6750356,"elevationM":827},{"id":"node:1986280966","kind":"peak","name":"Grúň","lat":49.4496357,"lon":18.7202237,"elevationM":562},{"id":"node:1986280975","kind":"peak","name":"Kuchriská","lat":49.4602757,"lon":18.6952945,"elevationM":606},{"id":"node:1986280979","kind":"peak","name":"Kykula","lat":49.4653937,"lon":18.7429102,"elevationM":615},{"id":"node:1986280982","kind":"peak","name":"Marguška","lat":49.4538048,"lon":18.6795842,"elevationM":617},{"id":"node:1986280989","kind":"peak","name":"Pod Polomom","lat":49.4983525,"lon":18.7001394,"elevationM":783},{"id":"node:1986280994","kind":"peak","name":"Prieľačský vrch","lat":49.4739097,"lon":18.7238595,"elevationM":649},{"id":"node:1986280998","kind":"peak","name":"Sagatka","lat":49.4808069,"lon":18.7123804,"elevationM":671},{"id":"node:1986281003","kind":"peak","name":"Tokáreň","lat":49.4524463,"lon":18.7412498,"elevationM":540},{"id":"node:1986281005","kind":"peak","name":"Vrchmosty","lat":49.4335515,"lon":18.6840225,"elevationM":604},{"id":"node:1991709220","kind":"peak","name":"Megonka","lat":49.4915925,"lon":18.7246103,"elevationM":579},{"id":"node:1991709223","kind":"peak","name":"Nad Furmancom","lat":49.4790026,"lon":18.7691394,"elevationM":608},{"id":"node:1991709229","kind":"peak","name":"Pod Valmi","lat":49.4847488,"lon":18.7637459,"elevationM":634},{"id":"node:1991710077","kind":"peak","name":"Čupeľ","lat":49.459764,"lon":18.7775293,"elevationM":459},{"id":"node:1999024672","kind":"peak","name":"Stráž","lat":49.0247769,"lon":18.4492115,"elevationM":685},{"id":"node:2001642031","kind":"peak","name":"Hradisko","lat":49.1173748,"lon":18.3665826,"elevationM":567},{"id":"node:2001642032","kind":"peak","name":"Hôrka","lat":49.0988568,"lon":18.3502386,"elevationM":408},{"id":"node:2001642033","kind":"peak","name":"Kozinec","lat":49.1094201,"lon":18.3566253,"elevationM":524},{"id":"node:2002018331","kind":"peak","name":"Do Mackoviek","lat":49.4661551,"lon":18.7994899,"elevationM":574},{"id":"node:2002018332","kind":"peak","name":"Drahošanka","lat":49.4580414,"lon":18.8204531,"elevationM":641},{"id":"node:2002018333","kind":"peak","name":"Horelická Kykula","lat":49.4434514,"lon":18.8257967,"elevationM":754},{"id":"node:2002018334","kind":"peak","name":"Horelické","lat":49.4496528,"lon":18.8509321,"elevationM":844},{"id":"node:2002018335","kind":"peak","name":"Javorské","lat":49.4524508,"lon":18.8635312,"elevationM":860},{"id":"node:2002018336","kind":"peak","name":"Pri kríži","lat":49.4753577,"lon":18.8002432,"elevationM":585},{"id":"node:2002018337","kind":"peak","name":"Stankovo","lat":49.4803533,"lon":18.8498591,"elevationM":792},{"id":"node:2002018338","kind":"peak","name":"Tri kopce","lat":49.484835,"lon":18.873048,"elevationM":824},{"id":"node:2004994428","kind":"peak","name":"Fírkova Kýčera","lat":49.4850619,"lon":18.9283509,"elevationM":804},{"id":"node:2004994433","kind":"peak","name":"Grúň","lat":49.5062712,"lon":18.9293933,"elevationM":775},{"id":"node:2004994445","kind":"peak","name":"Oselné","lat":49.4789738,"lon":18.9450173,"elevationM":853},{"id":"node:2004994453","kind":"peak","name":"Serafinov grúň / Gomułka","lat":49.4965234,"lon":18.9733039,"elevationM":784},{"id":"node:2005730773","kind":"peak","name":"Kýčera","lat":49.4827911,"lon":18.9409394,"elevationM":815},{"id":"node:2005730779","kind":"peak","name":"Liesková","lat":49.4781448,"lon":18.8892542,"elevationM":850},{"id":"node:2005730813","kind":"peak","name":"Starý košiar","lat":49.4631357,"lon":18.9365402,"elevationM":863},{"id":"node:2005731887","kind":"peak","name":"Švancarov grúň","lat":49.4715568,"lon":18.9150202,"elevationM":686},{"id":"node:2012831216","kind":"peak","name":"Jaseňové","lat":49.2965057,"lon":18.391233,"elevationM":992},{"id":"node:2012831220","kind":"peak","name":"Kýčerka","lat":49.2502692,"lon":18.4293123,"elevationM":730},{"id":"node:2012831224","kind":"peak","name":"Čierne","lat":49.2823775,"lon":18.4027527,"elevationM":1013},{"id":"node:2015023757","kind":"peak","name":"Lipí","lat":49.6198164,"lon":18.5382303,"elevationM":901},{"id":"node:2015923885","kind":"peak","name":"Kýčera","lat":49.3285649,"lon":18.9876149,"elevationM":923},{"id":"node:2015923890","kind":"peak","name":"Na Čiernej Lutiši","lat":49.3143003,"lon":18.9867597,"elevationM":952},{"id":"node:2015924521","kind":"peak","name":"Čierna Lutiša","lat":49.3167804,"lon":18.99127,"elevationM":951},{"id":"node:2020032677","kind":"peak","name":"Kozinec","lat":49.5125894,"lon":18.3323566,"elevationM":648},{"id":"node:2022383979","kind":"peak","name":"Mojov grúň","lat":49.4961014,"lon":18.8656341,"elevationM":694},{"id":"node:2022383980","kind":"peak","name":"Nad Potokom","lat":49.4942511,"lon":18.8897676,"elevationM":599},{"id":"node:2029218413","kind":"peak","name":"Poľana","lat":49.5018395,"lon":18.8592959,"elevationM":623},{"id":"node:2029543317","kind":"peak","name":"Trudovač","lat":49.0371899,"lon":18.4545504,"elevationM":532},{"id":"node:2037630490","kind":"peak","name":"Holý vrch","lat":49.5106339,"lon":18.8083347,"elevationM":616},{"id":"node:2037630491","kind":"peak","name":"Kozove vŕšky","lat":49.5132742,"lon":18.8295825,"elevationM":627},{"id":"node:2037630492","kind":"peak","name":"Valy","lat":49.515503,"lon":18.8535266,"elevationM":606},{"id":"node:2040678591","kind":"peak","name":"Košariská","lat":49.4958299,"lon":18.7926655,"elevationM":618},{"id":"node:2040678595","kind":"peak","name":"Kykuľa / Kikula","lat":49.5133236,"lon":18.9480715,"elevationM":845},{"id":"node:2040678599","kind":"peak","name":"Pavlackov grúň","lat":49.4875968,"lon":18.8200809,"elevationM":552},{"id":"node:2040678602","kind":"peak","name":"Podvršky","lat":49.5021309,"lon":18.8127711,"elevationM":579},{"id":"node:2040678612","kind":"peak","name":"Praženková","lat":49.5005506,"lon":18.7723799,"elevationM":584},{"id":"node:2040678616","kind":"peak","name":"Slivkuľa","lat":49.5180382,"lon":18.9130647,"elevationM":718},{"id":"node:2050561714","kind":"peak","name":"Čupeľ","lat":49.4344822,"lon":18.8067534,"elevationM":542},{"id":"node:2052659312","kind":"peak","name":"Skalka","lat":49.4659171,"lon":18.1426656,"elevationM":402},{"id":"node:2052990409","kind":"peak","name":"Berkov grúň","lat":49.4857797,"lon":18.7795004,"elevationM":576},{"id":"node:2052990410","kind":"peak","name":"Kýčerka","lat":49.4730831,"lon":18.8182906,"elevationM":647},{"id":"node:2056884354","kind":"peak","name":"Podzávoz","lat":49.4520944,"lon":18.7633533,"elevationM":628},{"id":"node:2057534999","kind":"peak","name":"Kouty","lat":49.731156,"lon":18.3677543,"elevationM":333},{"id":"node:2057538052","kind":"peak","name":"Rohov","lat":49.7218071,"lon":18.3409047,"elevationM":330},{"id":"node:2057547842","kind":"peak","name":"Hůrky","lat":49.7222978,"lon":18.381602,"elevationM":338},{"id":"node:2057547843","kind":"peak","name":"Černá zem","lat":49.7127641,"lon":18.3633463,"elevationM":374},{"id":"node:2064691597","kind":"peak","name":"Hradisko","lat":49.4532345,"lon":18.1210732,"elevationM":522},{"id":"node:2064691600","kind":"peak","name":"Kozák","lat":49.455748,"lon":18.1353759,"elevationM":429},{"id":"node:2070626047","kind":"peak","name":"Karlův kopec","lat":49.4622945,"lon":18.159229,"elevationM":480},{"id":"node:2091137312","kind":"peak","name":"Dubovec","lat":49.1478688,"lon":18.4293933,"elevationM":558},{"id":"node:2091137313","kind":"peak","name":"Hôrka","lat":49.1332708,"lon":18.4399509,"elevationM":475},{"id":"node:2091137318","kind":"peak","name":"Stavná","lat":49.1408302,"lon":18.4025637,"elevationM":601},{"id":"node:2091137322","kind":"peak","name":"Žiar","lat":49.1223802,"lon":18.4006968,"elevationM":517},{"id":"node:2093861287","kind":"peak","name":"Klapy","lat":49.1618508,"lon":18.4250316,"elevationM":654},{"id":"node:2109470933","kind":"peak","name":"Kabátice","lat":49.647035,"lon":18.2661793,"elevationM":601},{"id":"node:2109470934","kind":"peak","name":"Kubánkov","lat":49.6327924,"lon":18.2645202,"elevationM":661},{"id":"node:2109470935","kind":"peak","name":"Ostružná","lat":49.6422597,"lon":18.2835667,"elevationM":616},{"id":"node:2126017329","kind":"peak","name":"Kalinový vrch","lat":49.4159752,"lon":18.8961279,"elevationM":816},{"id":"node:2173342783","kind":"peak","name":"Malinovská","lat":49.2789332,"lon":18.3929892,"elevationM":null},{"id":"node:2200464651","kind":"peak","name":"Bôn","lat":49.2264656,"lon":18.3516313,"elevationM":748},{"id":"node:2210310511","kind":"peak","name":"Zákopa","lat":49.1323672,"lon":18.4042763,"elevationM":551},{"id":"node:2306164799","kind":"peak","name":"Láz","lat":49.478688,"lon":18.1324839,"elevationM":549},{"id":"node:2312840115","kind":"peak","name":"Kykulka","lat":49.5736373,"lon":18.4361853,"elevationM":996},{"id":"node:2314144034","kind":"peak","name":"Čupek","lat":49.6197517,"lon":18.3433049,"elevationM":524},{"id":"node:2314896633","kind":"peak","name":"Na kopci","lat":49.6159466,"lon":18.3219288,"elevationM":412},{"id":"node:2317958369","kind":"peak","name":"Lišky","lat":49.6240109,"lon":18.3322901,"elevationM":457},{"id":"node:2317964672","kind":"peak","name":"Na horách","lat":49.6253217,"lon":18.3259802,"elevationM":453},{"id":"node:2317964675","kind":"peak","name":"Na kopcu","lat":49.6141588,"lon":18.3105146,"elevationM":461},{"id":"node:2317964685","kind":"peak","name":"Na Magoni","lat":49.6197336,"lon":18.3063089,"elevationM":497},{"id":"node:2321716254","kind":"peak","name":"Frňovské","lat":49.3025498,"lon":18.2716825,"elevationM":960},{"id":"node:2332778428","kind":"peak","name":"Wierch Równiański","lat":49.6059605,"lon":18.9982241,"elevationM":1160},{"id":"node:2348356893","kind":"peak","name":"Jahodná","lat":49.677754,"lon":18.6926782,"elevationM":407},{"id":"node:2354921458","kind":"peak","name":"Malinów","lat":49.6602005,"lon":18.9775731,"elevationM":1115},{"id":"node:2354923332","kind":"peak","name":"Smrekowiec","lat":49.6522018,"lon":18.9240601,"elevationM":853},{"id":"node:2354923333","kind":"peak","name":"Jaworzyna","lat":49.6576973,"lon":18.9422275,"elevationM":802},{"id":"node:2372615957","kind":"peak","name":"Górka Wilamowicka","lat":49.8039389,"lon":18.7715847,"elevationM":388},{"id":"node:2375055375","kind":"peak","name":"Obłaziec","lat":49.6792164,"lon":18.8582303,"elevationM":638},{"id":"node:2375055379","kind":"peak","name":"Bukowa","lat":49.6729907,"lon":18.8611652,"elevationM":713},{"id":"node:2375055380","kind":"peak","name":"Gronik","lat":49.6908237,"lon":18.7938961,"elevationM":720},{"id":"node:2375055382","kind":"peak","name":"Kamionka","lat":49.7385874,"lon":18.8625701,"elevationM":634},{"id":"node:2375055386","kind":"peak","name":"Żar","lat":49.7408197,"lon":18.8467564,"elevationM":688},{"id":"node:2375055392","kind":"peak","name":"Beskidek","lat":49.7027889,"lon":18.8688693,"elevationM":700},{"id":"node:2375055396","kind":"peak","name":"Czantoria Mała","lat":49.6942534,"lon":18.7770924,"elevationM":866},{"id":"node:2375055400","kind":"peak","name":"Lipowski Groń","lat":49.7356134,"lon":18.8424241,"elevationM":745},{"id":"node:2375055403","kind":"peak","name":"Krzywy","lat":49.6712275,"lon":18.8343533,"elevationM":641},{"id":"node:2375062064","kind":"peak","name":"Tuł","lat":49.698457,"lon":18.7423473,"elevationM":621},{"id":"node:2375062067","kind":"peak","name":"Malcowa Góra","lat":49.7098584,"lon":18.7605196,"elevationM":528},{"id":"node:2375062069","kind":"peak","name":"Grodzisko","lat":49.7062374,"lon":18.7595969,"elevationM":550},{"id":"node:2375332058","kind":"peak","name":"Stolařka","lat":49.5907982,"lon":18.3062641,"elevationM":585},{"id":"node:2375332059","kind":"peak","name":"Vlčina","lat":49.5418619,"lon":18.1920672,"elevationM":532},{"id":"node:2375871247","kind":"peak","name":"Kępa","lat":49.8510177,"lon":18.8606076,"elevationM":352},{"id":"node:2375881640","kind":"peak","name":"Horzelica","lat":49.7008576,"lon":18.9157559,"elevationM":797},{"id":"node:2375881641","kind":"peak","name":"Stary Groń","lat":49.6935295,"lon":18.9234865,"elevationM":792},{"id":"node:2399312778","kind":"peak","name":"Smrčina","lat":49.58686,"lon":18.611466,"elevationM":1015},{"id":"node:2399780163","kind":"peak","name":"Kozí hřbety","lat":49.5194616,"lon":18.6065191,"elevationM":986},{"id":"node:2399839706","kind":"peak","name":"Zimný","lat":49.538988,"lon":18.4709853,"elevationM":1081},{"id":"node:2405247657","kind":"peak","name":"Šance","lat":49.5172303,"lon":18.8292452,"elevationM":608},{"id":"node:2407216431","kind":"peak","name":"Girova","lat":49.5316853,"lon":18.800067,"elevationM":840},{"id":"node:2425745917","kind":"peak","name":"Beskidek","lat":49.5946252,"lon":18.9325509,"elevationM":796},{"id":"node:2425951181","kind":"peak","name":"Nad Kršlí","lat":49.5140154,"lon":18.5863133,"elevationM":1002},{"id":"node:2430527945","kind":"peak","name":"Bucznik","lat":49.7719397,"lon":18.922152,"elevationM":683},{"id":"node:2431398351","kind":"peak","name":"Kýčera","lat":49.1481421,"lon":18.9327365,"elevationM":1121},{"id":"node:2438961131","kind":"peak","name":"Usypaná skala","lat":49.0555669,"lon":18.7333619,"elevationM":1158},{"id":"node:2439136310","kind":"peak","name":"Kľačianska Magura","lat":49.1560543,"lon":18.9493651,"elevationM":1372},{"id":"node:2439136312","kind":"peak","name":"Vinicko","lat":49.1443812,"lon":18.9636169,"elevationM":1054},{"id":"node:2439136314","kind":"peak","name":"Čierťaž","lat":49.1550076,"lon":18.9681338,"elevationM":1086},{"id":"node:2461743627","kind":"peak","name":"Diel","lat":49.1393665,"lon":18.3699603,"elevationM":528},{"id":"node:2461743628","kind":"peak","name":"Dúbravy","lat":49.0991847,"lon":18.3705512,"elevationM":449},{"id":"node:2461743629","kind":"peak","name":"Húštie","lat":49.1033278,"lon":18.394799,"elevationM":435},{"id":"node:2461743631","kind":"peak","name":"Upohlavský diel","lat":49.1656665,"lon":18.3626834,"elevationM":591},{"id":"node:2461743640","kind":"peak","name":"Veľký Žiar","lat":49.1559376,"lon":18.3740541,"elevationM":474},{"id":"node:2462146177","kind":"peak","name":"Brada","lat":49.185804,"lon":18.596816,"elevationM":814},{"id":"node:2462146191","kind":"peak","name":"Brezová hora","lat":49.1930798,"lon":18.6281497,"elevationM":680},{"id":"node:2462146204","kind":"peak","name":"Briežky","lat":49.1866591,"lon":18.6558816,"elevationM":492},{"id":"node:2462146208","kind":"peak","name":"Budišov","lat":49.1725308,"lon":18.3707427,"elevationM":542},{"id":"node:2462146223","kind":"peak","name":"Dielec","lat":49.1795657,"lon":18.3675765,"elevationM":528},{"id":"node:2462146237","kind":"peak","name":"Dúbrava","lat":49.1842389,"lon":18.4684605,"elevationM":497},{"id":"node:2462146250","kind":"peak","name":"Holý vrch","lat":49.1924019,"lon":18.5966959,"elevationM":658},{"id":"node:2462146262","kind":"peak","name":"Hradište","lat":49.1636792,"lon":18.4392464,"elevationM":636},{"id":"node:2462146275","kind":"peak","name":"Hradište","lat":49.1764232,"lon":18.53249,"elevationM":600},{"id":"node:2462146287","kind":"peak","name":"Kečka","lat":49.1626624,"lon":18.6125202,"elevationM":823},{"id":"node:2462146299","kind":"peak","name":"Lopatina","lat":49.1514157,"lon":18.4433573,"elevationM":570},{"id":"node:2462146311","kind":"peak","name":"Lopušné","lat":49.1830407,"lon":18.4207901,"elevationM":582},{"id":"node:2462146325","kind":"peak","name":"Lípie","lat":49.1670294,"lon":18.5161553,"elevationM":528},{"id":"node:2462146338","kind":"peak","name":"Nadavec","lat":49.1818199,"lon":18.4011096,"elevationM":496},{"id":"node:2462146354","kind":"peak","name":"Pleš","lat":49.182676,"lon":18.5418335,"elevationM":569},{"id":"node:2462146375","kind":"peak","name":"Požiar","lat":49.1869991,"lon":18.6251045,"elevationM":686},{"id":"node:2462146387","kind":"peak","name":"Roháč","lat":49.1856949,"lon":18.6118188,"elevationM":803},{"id":"node:2462146401","kind":"peak","name":"Súdna","lat":49.1942861,"lon":18.4658882,"elevationM":576},{"id":"node:2462146412","kind":"peak","name":"Vrch","lat":49.1880454,"lon":18.6384915,"elevationM":560},{"id":"node:2462146424","kind":"peak","name":"Vrchdubie","lat":49.1785497,"lon":18.6448546,"elevationM":532},{"id":"node:2462146437","kind":"peak","name":"Zolovec","lat":49.1748337,"lon":18.6540518,"elevationM":474},{"id":"node:2462146439","kind":"peak","name":"Žeravica","lat":49.193195,"lon":18.4075646,"elevationM":608},{"id":"node:2463024253","kind":"peak","name":"Bukovina","lat":49.0759423,"lon":18.4974916,"elevationM":598},{"id":"node:2463024254","kind":"peak","name":"Bukovina","lat":49.1035502,"lon":18.5284559,"elevationM":565},{"id":"node:2463024255","kind":"peak","name":"Diel","lat":49.0361143,"lon":18.5455167,"elevationM":490},{"id":"node:2463024256","kind":"peak","name":"Dielec","lat":49.0701627,"lon":18.4760958,"elevationM":573},{"id":"node:2463024257","kind":"peak","name":"Drieňovka","lat":49.1272638,"lon":18.5171538,"elevationM":639},{"id":"node:2463024258","kind":"peak","name":"Dubovec","lat":49.1449201,"lon":18.5816197,"elevationM":619},{"id":"node:2463024259","kind":"peak","name":"Dubová","lat":49.1027369,"lon":18.6152418,"elevationM":728},{"id":"node:2463024261","kind":"peak","name":"Dúbravka","lat":49.1582554,"lon":18.4926901,"elevationM":459},{"id":"node:2463024264","kind":"peak","name":"Havrania skala","lat":49.1417285,"lon":18.5503318,"elevationM":836},{"id":"node:2463024265","kind":"peak","name":"Horekončie","lat":49.0819845,"lon":18.4640741,"elevationM":473},{"id":"node:2463024266","kind":"peak","name":"Horná Kamenná","lat":49.1026603,"lon":18.4228957,"elevationM":390},{"id":"node:2463024267","kind":"peak","name":"Hoľazne","lat":49.1168599,"lon":18.5322939,"elevationM":794},{"id":"node:2463024268","kind":"peak","name":"Háj","lat":49.1389029,"lon":18.5367827,"elevationM":604},{"id":"node:2463024269","kind":"peak","name":"Hôrky","lat":49.0891784,"lon":18.4789471,"elevationM":435},{"id":"node:2463024270","kind":"peak","name":"Jankovie vrch","lat":49.1108732,"lon":18.5594221,"elevationM":504},{"id":"node:2463024271","kind":"peak","name":"Kamenný diel","lat":49.1331089,"lon":18.6340633,"elevationM":653},{"id":"node:2463024272","kind":"peak","name":"Kavčia","lat":49.1333027,"lon":18.5251794,"elevationM":601},{"id":"node:2463024273","kind":"peak","name":"Klokočová","lat":49.032324,"lon":18.4770587,"elevationM":516},{"id":"node:2463024274","kind":"peak","name":"Kohilovec","lat":49.0391744,"lon":18.4914404,"elevationM":640},{"id":"node:2463024275","kind":"peak","name":"Krátke","lat":49.0932665,"lon":18.5273445,"elevationM":557},{"id":"node:2463024276","kind":"peak","name":"Kukla","lat":49.0259838,"lon":18.65567,"elevationM":980},{"id":"node:2463024277","kind":"peak","name":"Kňazová","lat":49.0444385,"lon":18.4923264,"elevationM":729},{"id":"node:2463024278","kind":"peak","name":"Mazáková","lat":49.1211518,"lon":18.5517567,"elevationM":595},{"id":"node:2463024284","kind":"peak","name":"Michalová","lat":49.0299739,"lon":18.468587,"elevationM":522},{"id":"node:2463024285","kind":"peak","name":"Močiarna","lat":49.048799,"lon":18.5250109,"elevationM":750},{"id":"node:2463024286","kind":"peak","name":"Nadskálie","lat":49.095444,"lon":18.5116124,"elevationM":584},{"id":"node:2463024287","kind":"peak","name":"Okrúhle","lat":49.1248534,"lon":18.5676942,"elevationM":692},{"id":"node:2463024288","kind":"peak","name":"Ondrejová","lat":49.1185105,"lon":18.478706,"elevationM":509},{"id":"node:2463024307","kind":"peak","name":"Ostrenec","lat":49.1257745,"lon":18.5437942,"elevationM":724},{"id":"node:2463024308","kind":"peak","name":"Ostrý vrch","lat":49.1101191,"lon":18.5406182,"elevationM":618},{"id":"node:2463024309","kind":"peak","name":"Petrová","lat":49.0964072,"lon":18.6063815,"elevationM":637},{"id":"node:2463024310","kind":"peak","name":"Podlúčie","lat":49.0427459,"lon":18.4841395,"elevationM":634},{"id":"node:2463024311","kind":"peak","name":"Prašnice","lat":49.0958164,"lon":18.4454557,"elevationM":369},{"id":"node:2463024312","kind":"peak","name":"Predný vrch","lat":49.0383028,"lon":18.6340636,"elevationM":578},{"id":"node:2463024313","kind":"peak","name":"Prielohy","lat":49.0544572,"lon":18.4411648,"elevationM":522},{"id":"node:2463024314","kind":"peak","name":"Roháč","lat":49.0548483,"lon":18.4774406,"elevationM":720},{"id":"node:2463024315","kind":"peak","name":"Roháč","lat":49.0788917,"lon":18.5364867,"elevationM":571},{"id":"node:2463024316","kind":"peak","name":"Skala","lat":49.1258039,"lon":18.5358301,"elevationM":659},{"id":"node:2463024317","kind":"peak","name":"Skalica","lat":49.0776471,"lon":18.4335797,"elevationM":463},{"id":"node:2463024318","kind":"peak","name":"Stráne","lat":49.0440401,"lon":18.5106745,"elevationM":837},{"id":"node:2463024319","kind":"peak","name":"Stráň","lat":49.0804805,"lon":18.4516267,"elevationM":472},{"id":"node:2463024320","kind":"peak","name":"Tarabová","lat":49.0627422,"lon":18.5155818,"elevationM":616},{"id":"node:2463024321","kind":"peak","name":"Tisová","lat":49.0827089,"lon":18.557684,"elevationM":733},{"id":"node:2463024323","kind":"peak","name":"Trávna","lat":49.0991554,"lon":18.5163113,"elevationM":635},{"id":"node:2463024324","kind":"peak","name":"Tŕnie","lat":49.0509342,"lon":18.4880047,"elevationM":716},{"id":"node:2463024325","kind":"peak","name":"Vajanok","lat":49.1423998,"lon":18.5242126,"elevationM":563},{"id":"node:2463024326","kind":"peak","name":"Vodičná","lat":49.1349516,"lon":18.549666,"elevationM":740},{"id":"node:2463024327","kind":"peak","name":"Vysoký vrch","lat":49.1037257,"lon":18.5763124,"elevationM":766},{"id":"node:2463024328","kind":"peak","name":"Zadný diel","lat":49.0839446,"lon":18.4373235,"elevationM":391},{"id":"node:2463024329","kind":"peak","name":"Záborie","lat":49.0564023,"lon":18.5601089,"elevationM":484},{"id":"node:2463024330","kind":"peak","name":"Žadovec","lat":49.0882954,"lon":18.4596864,"elevationM":458},{"id":"node:2463024331","kind":"peak","name":"Žibrid","lat":49.1275645,"lon":18.6094667,"elevationM":868},{"id":"node:2463818137","kind":"peak","name":"Górka Tarnawa","lat":49.7952094,"lon":18.7534157,"elevationM":373},{"id":"node:2470213997","kind":"peak","name":"Benkovec","lat":49.0846959,"lon":18.3004323,"elevationM":422},{"id":"node:2470214027","kind":"peak","name":"Diel","lat":49.1880363,"lon":18.30974,"elevationM":693},{"id":"node:2470214046","kind":"peak","name":"Dubičie","lat":49.168189,"lon":18.2934841,"elevationM":466},{"id":"node:2470214060","kind":"peak","name":"Dubový vrch","lat":49.0868871,"lon":18.2698047,"elevationM":495},{"id":"node:2470214076","kind":"peak","name":"Gýmeš","lat":49.1559638,"lon":18.3019202,"elevationM":491},{"id":"node:2470214090","kind":"peak","name":"Gýmeš","lat":49.1703066,"lon":18.3196628,"elevationM":582},{"id":"node:2470214091","kind":"peak","name":"Harvanová","lat":49.0749734,"lon":18.2490796,"elevationM":473},{"id":"node:2470214094","kind":"peak","name":"Hladký vrch","lat":49.1547156,"lon":18.2391411,"elevationM":624},{"id":"node:2470214095","kind":"peak","name":"Hladový vŕšok","lat":49.1091067,"lon":18.2840105,"elevationM":419},{"id":"node:2470214096","kind":"peak","name":"Hrabovník","lat":49.0979449,"lon":18.2462127,"elevationM":448},{"id":"node:2470214113","kind":"peak","name":"Jazero","lat":49.1607195,"lon":18.2248485,"elevationM":608},{"id":"node:2470214150","kind":"peak","name":"Kalinka","lat":49.0475755,"lon":18.1322824,"elevationM":605},{"id":"node:2470214165","kind":"peak","name":"Kalvária","lat":49.0512458,"lon":18.1972757,"elevationM":470},{"id":"node:2470214188","kind":"peak","name":"Kamenná hora","lat":49.1187277,"lon":18.214189,"elevationM":633},{"id":"node:2470214224","kind":"peak","name":"Kašnák","lat":49.0256448,"lon":18.170792,"elevationM":363},{"id":"node:2470214252","kind":"peak","name":"Keblie","lat":49.1108713,"lon":18.2757644,"elevationM":545},{"id":"node:2470214355","kind":"peak","name":"Kobylinec","lat":49.1193324,"lon":18.1655358,"elevationM":911},{"id":"node:2470214372","kind":"peak","name":"Kraví vrch","lat":49.0366735,"lon":18.1544165,"elevationM":572},{"id":"node:2470214380","kind":"peak","name":"Kýčera","lat":49.1697808,"lon":18.1939036,"elevationM":828},{"id":"node:2470214381","kind":"peak","name":"Kýčerka","lat":49.1327693,"lon":18.1979719,"elevationM":782},{"id":"node:2470214382","kind":"peak","name":"Lieštie","lat":49.095922,"lon":18.2685252,"elevationM":512},{"id":"node:2470214383","kind":"peak","name":"Medzivršie","lat":49.125593,"lon":18.2905189,"elevationM":445},{"id":"node:2470214384","kind":"peak","name":"Ostrá hora","lat":49.0654647,"lon":18.2485286,"elevationM":492},{"id":"node:2470214385","kind":"peak","name":"Rudná","lat":49.1048874,"lon":18.2906655,"elevationM":366},{"id":"node:2470214386","kind":"peak","name":"Ružový vrch","lat":49.1219588,"lon":18.2961916,"elevationM":410},{"id":"node:2470214387","kind":"peak","name":"Sedlačka","lat":49.0776556,"lon":18.2767151,"elevationM":392},{"id":"node:2470214388","kind":"peak","name":"Skala","lat":49.0958275,"lon":18.2987203,"elevationM":470},{"id":"node:2470214389","kind":"peak","name":"Strachoňovec","lat":49.1069503,"lon":18.184494,"elevationM":786},{"id":"node:2470214390","kind":"peak","name":"Stráž","lat":49.176163,"lon":18.2735129,"elevationM":522},{"id":"node:2470214391","kind":"peak","name":"Trstená","lat":49.1656806,"lon":18.3129435,"elevationM":554},{"id":"node:2470214392","kind":"peak","name":"Trtálka","lat":49.0279244,"lon":18.1011215,"elevationM":655},{"id":"node:2470214393","kind":"peak","name":"Malé Hradište","lat":49.059421,"lon":18.1921693,"elevationM":531},{"id":"node:2470214398","kind":"peak","name":"Vrchbok","lat":49.1125237,"lon":18.3022347,"elevationM":337},{"id":"node:2470214399","kind":"peak","name":"Vrchháj","lat":49.1268873,"lon":18.2953971,"elevationM":408},{"id":"node:2470214400","kind":"peak","name":"Vrchstráň","lat":49.1544599,"lon":18.3280817,"elevationM":565},{"id":"node:2470214401","kind":"peak","name":"Vysoká","lat":49.1108209,"lon":18.2912106,"elevationM":417},{"id":"node:2470214402","kind":"peak","name":"Vysoký háj","lat":49.0842238,"lon":18.2793876,"elevationM":415},{"id":"node:2470214403","kind":"peak","name":"Zbojnička","lat":49.0526369,"lon":18.0960457,"elevationM":544},{"id":"node:2470214404","kind":"peak","name":"Zrnová","lat":49.1274389,"lon":18.2064356,"elevationM":854},{"id":"node:2470214405","kind":"peak","name":"Zvonová hora","lat":49.0837878,"lon":18.1549135,"elevationM":722},{"id":"node:2470214406","kind":"peak","name":"Závlačná","lat":49.0731874,"lon":18.215269,"elevationM":438},{"id":"node:2470214407","kind":"peak","name":"Černákovec","lat":49.1597156,"lon":18.2097316,"elevationM":628},{"id":"node:2470214408","kind":"peak","name":"Češkovec","lat":49.1511893,"lon":18.1469936,"elevationM":699},{"id":"node:2470305744","kind":"peak","name":"Bukovina","lat":49.0058539,"lon":18.5131907,"elevationM":648},{"id":"node:2470305766","kind":"peak","name":"Bukovina","lat":49.0092437,"lon":18.6177349,"elevationM":765},{"id":"node:2470305781","kind":"peak","name":"Grúň","lat":49.0094135,"lon":18.6638793,"elevationM":1057},{"id":"node:2470305788","kind":"peak","name":"Kýčera","lat":49.0130677,"lon":18.6399898,"elevationM":920},{"id":"node:2470305800","kind":"peak","name":"Ostrý vrch","lat":49.0189233,"lon":18.4973595,"elevationM":509},{"id":"node:2470305804","kind":"peak","name":"Stankov","lat":49.0205026,"lon":18.5134187,"elevationM":539},{"id":"node:2470305807","kind":"peak","name":"Tupý hrádok","lat":49.013786,"lon":18.4156789,"elevationM":674},{"id":"node:2470305808","kind":"peak","name":"Veľká hlava","lat":49.0216962,"lon":18.5804552,"elevationM":776},{"id":"node:2470305813","kind":"peak","name":"Šalovina","lat":49.0084993,"lon":18.5521146,"elevationM":619},{"id":"node:2470305814","kind":"peak","name":"Šibeničná","lat":49.01586,"lon":18.5871902,"elevationM":822},{"id":"node:2470553102","kind":"peak","name":"Bučník","lat":49.433406,"lon":18.1459174,"elevationM":598},{"id":"node:2470553107","kind":"peak","name":"Rysová hora","lat":49.441644,"lon":18.1506645,"elevationM":553},{"id":"node:2477750788","kind":"peak","name":"Borowina","lat":49.7730304,"lon":18.9504963,"elevationM":718},{"id":"node:2477750789","kind":"peak","name":"Czupel","lat":49.7560718,"lon":18.9011838,"elevationM":736},{"id":"node:2477750790","kind":"peak","name":"Mały Cisowy","lat":49.7496618,"lon":18.9148016,"elevationM":829},{"id":"node:2477750791","kind":"peak","name":"Młyńska Kępa","lat":49.7978397,"lon":18.9502819,"elevationM":403},{"id":"node:2477750792","kind":"peak","name":"Ostry","lat":49.7722027,"lon":18.936041,"elevationM":659},{"id":"node:2477750793","kind":"peak","name":"Trzy Kopce","lat":49.7366181,"lon":18.9863103,"elevationM":1082},{"id":"node:2477750794","kind":"peak","name":"Wielka Polana","lat":49.7629061,"lon":18.9337407,"elevationM":787},{"id":"node:2477750796","kind":"peak","name":"Wielka Cisowa","lat":49.7451079,"lon":18.9316972,"elevationM":878},{"id":"node:2477750798","kind":"peak","name":"Łazek","lat":49.7628958,"lon":18.8968912,"elevationM":713},{"id":"node:2570061265","kind":"peak","name":"Snožek","lat":49.0676096,"lon":18.4822339,"elevationM":679},{"id":"node:2580811335","kind":"peak","name":"Kozinec","lat":49.4716853,"lon":18.1546223,"elevationM":475},{"id":"node:2580811339","kind":"peak","name":"Chlacholov","lat":49.4826033,"lon":18.1609397,"elevationM":559},{"id":"node:2580811344","kind":"peak","name":"Chlacholůvek","lat":49.4829461,"lon":18.1468397,"elevationM":521},{"id":"node:2580811346","kind":"peak","name":"Olšovský vrch","lat":49.4753223,"lon":18.121796,"elevationM":507},{"id":"node:2598761764","kind":"peak","name":"Poloma","lat":49.1154297,"lon":18.7498538,"elevationM":921},{"id":"node:2598761767","kind":"peak","name":"Žiar","lat":49.1056117,"lon":18.7425535,"elevationM":1029},{"id":"node:2599363193","kind":"peak","name":"Hrčovec","lat":49.2684755,"lon":18.2520234,"elevationM":842},{"id":"node:2599363194","kind":"peak","name":"Krivá","lat":49.282069,"lon":18.2188443,"elevationM":605},{"id":"node:2599368824","kind":"peak","name":"Galkov","lat":49.2842529,"lon":18.295376,"elevationM":943},{"id":"node:2599368825","kind":"peak","name":"Hrebienok","lat":49.1982482,"lon":18.2723792,"elevationM":759},{"id":"node:2599368826","kind":"peak","name":"Kršlisko","lat":49.3352749,"lon":18.6545642,"elevationM":798},{"id":"node:2599368827","kind":"peak","name":"Podskla","lat":49.2198123,"lon":18.3240704,"elevationM":613},{"id":"node:2599368828","kind":"peak","name":"Suchovrch","lat":49.2434428,"lon":18.3283258,"elevationM":775},{"id":"node:2599368829","kind":"peak","name":"Čovia","lat":49.2830697,"lon":18.268518,"elevationM":793},{"id":"node:2599380683","kind":"peak","name":"Hlboč","lat":49.3095352,"lon":18.6000314,"elevationM":706},{"id":"node:2599380684","kind":"peak","name":"Hluché","lat":49.3150662,"lon":18.4368302,"elevationM":961},{"id":"node:2599380686","kind":"peak","name":"Skaličné","lat":49.311519,"lon":18.4589254,"elevationM":868},{"id":"node:2599380687","kind":"peak","name":"Čemerka","lat":49.3300219,"lon":18.4309642,"elevationM":1052},{"id":"node:2599380688","kind":"peak","name":"Šindelné","lat":49.321101,"lon":18.600699,"elevationM":816},{"id":"node:2599383734","kind":"peak","name":"Vinohrad","lat":49.2645749,"lon":18.464804,"elevationM":720},{"id":"node:2599383735","kind":"peak","name":"Široké","lat":49.2961491,"lon":18.4104719,"elevationM":823},{"id":"node:2599399638","kind":"peak","name":"Bukovina","lat":49.1985055,"lon":18.4217272,"elevationM":638},{"id":"node:2599399644","kind":"peak","name":"Bučník","lat":49.2161949,"lon":18.450371,"elevationM":604},{"id":"node:2599399646","kind":"peak","name":"Hluchá","lat":49.1982812,"lon":18.6610277,"elevationM":480},{"id":"node:2599399647","kind":"peak","name":"Záhradniská","lat":49.2474333,"lon":18.6172281,"elevationM":455},{"id":"node:2599405665","kind":"peak","name":"Ostrý vrch","lat":49.2135594,"lon":18.6056406,"elevationM":548},{"id":"node:2599405666","kind":"peak","name":"Veľký Ostrý vrch","lat":49.2142332,"lon":18.6022101,"elevationM":540},{"id":"node:2599420388","kind":"peak","name":"Kamenná","lat":49.4024311,"lon":18.9168394,"elevationM":913},{"id":"node:2599420400","kind":"peak","name":"Upratiská","lat":49.4029402,"lon":18.9244213,"elevationM":949},{"id":"node:2599639275","kind":"peak","name":"Haviarka","lat":49.3137466,"lon":18.9579118,"elevationM":750},{"id":"node:2599639276","kind":"peak","name":"Hrádok","lat":49.2426975,"lon":18.8484064,"elevationM":576},{"id":"node:2599639277","kind":"peak","name":"Kút","lat":49.2024645,"lon":18.7017837,"elevationM":385},{"id":"node:2599639278","kind":"peak","name":"Požeha","lat":49.2494246,"lon":18.8903818,"elevationM":800},{"id":"node:2599639279","kind":"peak","name":"Rúbane","lat":49.2594538,"lon":18.846952,"elevationM":641},{"id":"node:2599639280","kind":"peak","name":"Skáčkova hora","lat":49.3225773,"lon":18.8452634,"elevationM":732},{"id":"node:2599639281","kind":"peak","name":"Suchý vrch","lat":49.3351182,"lon":18.960738,"elevationM":720},{"id":"node:2599639282","kind":"peak","name":"Ľadonhora","lat":49.2812983,"lon":18.8790475,"elevationM":999},{"id":"node:2599650707","kind":"peak","name":"Breziny","lat":49.0546227,"lon":18.9901093,"elevationM":578},{"id":"node:2599650714","kind":"peak","name":"Diel","lat":49.1743049,"lon":18.6721704,"elevationM":485},{"id":"node:2599650720","kind":"peak","name":"Končiar","lat":49.0412573,"lon":18.8231676,"elevationM":1164},{"id":"node:2599650726","kind":"peak","name":"Lipovská Magura","lat":49.16235,"lon":18.9383112,"elevationM":1086},{"id":"node:2611355025","kind":"peak","name":"Chladný vrch","lat":49.0226644,"lon":18.0119608,"elevationM":742},{"id":"node:2611355061","kind":"peak","name":"Hrachové","lat":49.0157281,"lon":18.0294892,"elevationM":681},{"id":"node:2611355127","kind":"peak","name":"Kornačka","lat":49.0014909,"lon":18.0660677,"elevationM":615},{"id":"node:2611355535","kind":"peak","name":"Za skálím","lat":49.0150325,"lon":18.063116,"elevationM":522},{"id":"node:2613490910","kind":"peak","name":"Bartkov kopec","lat":49.3423769,"lon":18.8792061,"elevationM":775},{"id":"node:2613490912","kind":"peak","name":"Belajov vrch","lat":49.3620457,"lon":18.7823182,"elevationM":703},{"id":"node:2613490913","kind":"peak","name":"Borie","lat":49.2395724,"lon":18.902021,"elevationM":606},{"id":"node:2613490916","kind":"peak","name":"Brodenec","lat":49.2570617,"lon":18.7809801,"elevationM":621},{"id":"node:2613490917","kind":"peak","name":"Buganka","lat":49.3264433,"lon":18.9178245,"elevationM":791},{"id":"node:2613490919","kind":"peak","name":"Buková","lat":49.3615802,"lon":18.4640482,"elevationM":803},{"id":"node:2613490920","kind":"peak","name":"Bôrik","lat":49.2532425,"lon":18.812475,"elevationM":682},{"id":"node:2613490922","kind":"peak","name":"Chrasťové","lat":49.3256521,"lon":18.458473,"elevationM":796},{"id":"node:2613490924","kind":"peak","name":"Dedkov","lat":49.2081352,"lon":18.3412382,"elevationM":591},{"id":"node:2613490925","kind":"peak","name":"Dlhé","lat":49.2937988,"lon":18.4642501,"elevationM":925},{"id":"node:2613490926","kind":"peak","name":"Dreviská","lat":49.2726867,"lon":18.481187,"elevationM":805},{"id":"node:2613490928","kind":"peak","name":"Gašov vrch","lat":49.2684838,"lon":18.8280071,"elevationM":660},{"id":"node:2613490929","kind":"peak","name":"Grapa","lat":49.3600675,"lon":18.6657057,"elevationM":826},{"id":"node:2613490936","kind":"peak","name":"Hájik","lat":49.3252938,"lon":18.7523538,"elevationM":653},{"id":"node:2613490937","kind":"peak","name":"Jakubovský vrch","lat":49.3613245,"lon":18.6875248,"elevationM":875},{"id":"node:2613490938","kind":"peak","name":"Jalovec","lat":49.2537787,"lon":18.9045249,"elevationM":736},{"id":"node:2613490941","kind":"peak","name":"Kamenný vŕšok","lat":49.2849884,"lon":18.6059905,"elevationM":699},{"id":"node:2613490942","kind":"peak","name":"Kavickov vrch","lat":49.3888681,"lon":18.7220216,"elevationM":784},{"id":"node:2613490943","kind":"peak","name":"Kazícka Kýčera","lat":49.3370227,"lon":18.6753731,"elevationM":910},{"id":"node:2613490946","kind":"peak","name":"Kopanica","lat":49.2024707,"lon":18.1753332,"elevationM":600},{"id":"node:2613490949","kind":"peak","name":"Kočí zámok","lat":49.2851715,"lon":18.5583574,"elevationM":610},{"id":"node:2613490951","kind":"peak","name":"Krivé","lat":49.1622245,"lon":18.891455,"elevationM":654},{"id":"node:2613490952","kind":"peak","name":"Kráľovec","lat":49.2304686,"lon":18.8807064,"elevationM":626},{"id":"node:2613490953","kind":"peak","name":"Kráľovec","lat":49.2591658,"lon":18.8794125,"elevationM":626},{"id":"node:2613490954","kind":"peak","name":"Kučerovka","lat":49.2588422,"lon":18.8287241,"elevationM":744},{"id":"node:2613490965","kind":"peak","name":"Marmanovec","lat":49.2505563,"lon":18.2089388,"elevationM":650},{"id":"node:2613490971","kind":"peak","name":"Marusov vrch","lat":49.3467558,"lon":18.841507,"elevationM":690},{"id":"node:2613490975","kind":"peak","name":"Medvedie","lat":49.2630319,"lon":18.5065972,"elevationM":587},{"id":"node:2613490976","kind":"peak","name":"Meškalka","lat":49.1759122,"lon":18.9862379,"elevationM":1536},{"id":"node:2613490981","kind":"peak","name":"Mraznica","lat":49.3339216,"lon":18.5198657,"elevationM":903},{"id":"node:2613490987","kind":"peak","name":"Paliesok","lat":49.2733496,"lon":18.5657025,"elevationM":665},{"id":"node:2613490988","kind":"peak","name":"Papajova Kykula","lat":49.3450841,"lon":18.4389059,"elevationM":966},{"id":"node:2613490990","kind":"peak","name":"Petrovská Kýčera","lat":49.2986534,"lon":18.4627616,"elevationM":975},{"id":"node:2613490992","kind":"peak","name":"Plešel","lat":49.1730704,"lon":18.9142203,"elevationM":981},{"id":"node:2613490993","kind":"peak","name":"Podlazie","lat":49.2546686,"lon":18.2298772,"elevationM":680},{"id":"node:2613490995","kind":"peak","name":"Polom","lat":49.2484911,"lon":18.9508218,"elevationM":707},{"id":"node:2613490996","kind":"peak","name":"Potôčik","lat":49.235529,"lon":18.3484301,"elevationM":693},{"id":"node:2613490998","kind":"peak","name":"Priehyb","lat":49.3202646,"lon":18.8815663,"elevationM":813},{"id":"node:2613491002","kind":"peak","name":"Rakytie","lat":49.303273,"lon":18.5510191,"elevationM":776},{"id":"node:2613491003","kind":"peak","name":"Račkovec","lat":49.2714384,"lon":18.2289149,"elevationM":721},{"id":"node:2613491005","kind":"peak","name":"Rázsošná","lat":49.1393359,"lon":18.8466155,"elevationM":1204},{"id":"node:2613491006","kind":"peak","name":"Ráztoka","lat":49.2723759,"lon":18.2389433,"elevationM":859},{"id":"node:2613491007","kind":"peak","name":"Ráztoka","lat":49.3269664,"lon":18.6887871,"elevationM":866},{"id":"node:2613491008","kind":"peak","name":"Senkov","lat":49.2971625,"lon":18.8599353,"elevationM":686},{"id":"node:2613491012","kind":"peak","name":"Slatina","lat":49.3259072,"lon":18.4900125,"elevationM":946},{"id":"node:2613491015","kind":"peak","name":"Stará lúka","lat":49.3063644,"lon":18.6972403,"elevationM":716},{"id":"node:2613491016","kind":"peak","name":"Stračinec","lat":49.2370818,"lon":18.4476766,"elevationM":544},{"id":"node:2613491017","kind":"peak","name":"Stránsky vrch","lat":49.3129353,"lon":18.7622334,"elevationM":560},{"id":"node:2613491019","kind":"peak","name":"Svedernícky vrch","lat":49.2754899,"lon":18.6566203,"elevationM":552},{"id":"node:2613491022","kind":"peak","name":"Trojka","lat":49.2855552,"lon":18.6482183,"elevationM":652},{"id":"node:2613491026","kind":"peak","name":"Viešky","lat":49.222185,"lon":18.6515909,"elevationM":539},{"id":"node:2613491029","kind":"peak","name":"Vrchrybník","lat":49.3005988,"lon":18.9780612,"elevationM":823},{"id":"node:2613491033","kind":"peak","name":"Zvonica","lat":49.3756608,"lon":18.4555194,"elevationM":845},{"id":"node:2613491035","kind":"peak","name":"Úplaz","lat":49.133084,"lon":18.8432657,"elevationM":1301},{"id":"node:2613491037","kind":"peak","name":"Úzkovský vrch","lat":49.2850764,"lon":18.6874985,"elevationM":559},{"id":"node:2613491039","kind":"peak","name":"Čerenka","lat":49.3374154,"lon":18.4776273,"elevationM":948},{"id":"node:2613491040","kind":"peak","name":"Černatín","lat":49.3175767,"lon":18.910859,"elevationM":923},{"id":"node:2613491043","kind":"peak","name":"Človiečik","lat":49.2871992,"lon":18.5196608,"elevationM":677},{"id":"node:2613491044","kind":"peak","name":"Čupec","lat":49.3447015,"lon":18.6222053,"elevationM":857},{"id":"node:2613491045","kind":"peak","name":"Šerkov","lat":49.3389862,"lon":18.7817176,"elevationM":636},{"id":"node:2613491047","kind":"peak","name":"Štefákovec","lat":49.272391,"lon":18.2035455,"elevationM":734},{"id":"node:2613491048","kind":"peak","name":"Želehosť","lat":49.2305794,"lon":18.8986386,"elevationM":736},{"id":"node:2613491049","kind":"peak","name":"Žliabok","lat":49.2599645,"lon":18.4484749,"elevationM":704},{"id":"node:2613643938","kind":"peak","name":"Barnov vrch","lat":49.1769258,"lon":18.1750291,"elevationM":719},{"id":"node:2613796389","kind":"peak","name":"Baby","lat":49.0631389,"lon":18.6028071,"elevationM":640},{"id":"node:2613796393","kind":"peak","name":"Bludná hora","lat":49.0334935,"lon":18.7511217,"elevationM":1096},{"id":"node:2613796394","kind":"peak","name":"Borgy","lat":49.1633161,"lon":18.7297317,"elevationM":518},{"id":"node:2613796399","kind":"peak","name":"Dolná roveň","lat":49.1392731,"lon":18.7916161,"elevationM":950},{"id":"node:2613796403","kind":"peak","name":"Grúniky","lat":49.326814,"lon":18.9629286,"elevationM":876},{"id":"node:2613796405","kind":"peak","name":"Hnilická Kýčera","lat":49.0266625,"lon":18.7400687,"elevationM":1218},{"id":"node:2613796406","kind":"peak","name":"Hoblík","lat":49.1508121,"lon":18.8132451,"elevationM":934},{"id":"node:2613796410","kind":"peak","name":"Jastrabná","lat":49.1248065,"lon":18.7944454,"elevationM":903},{"id":"node:2613796412","kind":"peak","name":"Javorové","lat":49.2444819,"lon":18.1891192,"elevationM":732},{"id":"node:2613796413","kind":"peak","name":"Jedľovina","lat":49.1884924,"lon":18.9172217,"elevationM":1035},{"id":"node:2613796414","kind":"peak","name":"Jurgová","lat":49.0920388,"lon":18.7576356,"elevationM":1015},{"id":"node:2613796417","kind":"peak","name":"Kobylie","lat":49.1118557,"lon":18.7764513,"elevationM":1066},{"id":"node:2613796418","kind":"peak","name":"Kojšová","lat":49.1684716,"lon":18.8476866,"elevationM":743},{"id":"node:2613796431","kind":"peak","name":"Mylný grúň","lat":49.1008539,"lon":18.7683829,"elevationM":1010},{"id":"node:2613796432","kind":"peak","name":"Nocľahy","lat":49.3403507,"lon":18.9580799,"elevationM":754},{"id":"node:2613796439","kind":"peak","name":"Polomec","lat":49.1230553,"lon":18.7550861,"elevationM":758},{"id":"node:2613796441","kind":"peak","name":"Priehyb","lat":49.1827858,"lon":18.9756674,"elevationM":1462},{"id":"node:2613796442","kind":"peak","name":"Prostá","lat":49.1990219,"lon":18.9517065,"elevationM":1144},{"id":"node:2613796447","kind":"peak","name":"Rácovo","lat":49.064303,"lon":18.7366933,"elevationM":972},{"id":"node:2613796456","kind":"peak","name":"Valientov diel","lat":49.1481516,"lon":18.7975725,"elevationM":828},{"id":"node:2613796463","kind":"peak","name":"Úplaz","lat":49.0187712,"lon":18.7202043,"elevationM":1085},{"id":"node:2613796468","kind":"peak","name":"Čipčie","lat":49.1336514,"lon":18.7662564,"elevationM":920},{"id":"node:2613796472","kind":"peak","name":"Štica","lat":49.2665354,"lon":18.1996194,"elevationM":862},{"id":"node:2613835498","kind":"peak","name":"Benková","lat":49.2567035,"lon":18.5549702,"elevationM":483},{"id":"node:2613835499","kind":"peak","name":"Bobek/Bobok","lat":49.4331769,"lon":18.4898511,"elevationM":871},{"id":"node:2613835501","kind":"peak","name":"Dubový diel","lat":49.0415777,"lon":18.8480744,"elevationM":751},{"id":"node:2613835502","kind":"peak","name":"Dučkov vrch","lat":49.3647178,"lon":18.525748,"elevationM":795},{"id":"node:2613835504","kind":"peak","name":"Hladiny","lat":49.0091192,"lon":18.8094593,"elevationM":596},{"id":"node:2613835508","kind":"peak","name":"Jablonská","lat":49.0448675,"lon":18.6936275,"elevationM":1117},{"id":"node:2613835510","kind":"peak","name":"Javorová","lat":49.4535639,"lon":18.589099,"elevationM":788},{"id":"node:2613835518","kind":"peak","name":"Kalužná","lat":49.0953929,"lon":18.845802,"elevationM":1161},{"id":"node:2613835523","kind":"peak","name":"Kohútky","lat":49.2029332,"lon":18.2829767,"elevationM":794},{"id":"node:2613835529","kind":"peak","name":"Končiny","lat":49.0528091,"lon":18.5109701,"elevationM":708},{"id":"node:2613835534","kind":"peak","name":"Korytové","lat":49.3975,"lon":18.449444,"elevationM":882},{"id":"node:2613835577","kind":"peak","name":"Malinné","lat":49.2785597,"lon":18.4725512,"elevationM":912},{"id":"node:2613835582","kind":"peak","name":"Maňovo","lat":49.2290672,"lon":18.3669481,"elevationM":623},{"id":"node:2613835599","kind":"peak","name":"Nad Poľanou","lat":49.2931486,"lon":18.219284,"elevationM":875},{"id":"node:2613835600","kind":"peak","name":"Nad Skalkou","lat":49.2004726,"lon":18.5582943,"elevationM":468},{"id":"node:2613835603","kind":"peak","name":"Noviny","lat":49.248571,"lon":18.4840726,"elevationM":565},{"id":"node:2613835606","kind":"peak","name":"Pavlov vrch","lat":49.3621985,"lon":18.5985474,"elevationM":765},{"id":"node:2613835612","kind":"peak","name":"Valčianska Javorina","lat":49.0108355,"lon":18.7888482,"elevationM":831},{"id":"node:2613835613","kind":"peak","name":"Polianky","lat":49.4068541,"lon":18.4701056,"elevationM":881},{"id":"node:2613835619","kind":"peak","name":"Rybná","lat":49.0295184,"lon":18.627876,"elevationM":609},{"id":"node:2613835620","kind":"peak","name":"Ráztoky","lat":49.1097374,"lon":18.8549713,"elevationM":994},{"id":"node:2613835621","kind":"peak","name":"Senkov vrch","lat":49.2276121,"lon":18.6504932,"elevationM":570},{"id":"node:2613835629","kind":"peak","name":"Vrchpredmier","lat":49.4739997,"lon":18.5764423,"elevationM":828},{"id":"node:2613835631","kind":"peak","name":"Zvadlivá","lat":49.0452302,"lon":18.787768,"elevationM":1061},{"id":"node:2613835634","kind":"peak","name":"Černíková","lat":49.3132803,"lon":18.7297262,"elevationM":626},{"id":"node:2613835640","kind":"peak","name":"Žľaby","lat":49.0224596,"lon":18.8030041,"elevationM":714},{"id":"node:2620167599","kind":"peak","name":"Cibuľník","lat":49.1590074,"lon":18.6819616,"elevationM":632},{"id":"node:2620167600","kind":"peak","name":"Minčol","lat":49.1240675,"lon":18.8272319,"elevationM":1364},{"id":"node:2620167601","kind":"peak","name":"Na chotári","lat":49.1638713,"lon":18.6499564,"elevationM":514},{"id":"node:2620167602","kind":"peak","name":"Skalky","lat":49.1424627,"lon":18.6845428,"elevationM":780},{"id":"node:2620167603","kind":"peak","name":"Tlstá hora","lat":49.1358585,"lon":18.6700363,"elevationM":747},{"id":"node:2622521985","kind":"peak","name":"Dedová","lat":49.371549,"lon":18.9427228,"elevationM":959},{"id":"node:2622522195","kind":"peak","name":"Hrušovie","lat":49.0030216,"lon":18.9365151,"elevationM":502},{"id":"node:2622522263","kind":"peak","name":"Jaseň","lat":49.383,"lon":18.912778,"elevationM":810},{"id":"node:2622522474","kind":"peak","name":"Malý Príslop","lat":49.4362921,"lon":18.9799711,"elevationM":985},{"id":"node:2622522631","kind":"peak","name":"Orło / Orol","lat":49.3952709,"lon":18.9798538,"elevationM":1119},{"id":"node:2622522849","kind":"peak","name":"Ryboňov","lat":49.4186178,"lon":18.8781868,"elevationM":681},{"id":"node:2622522984","kind":"peak","name":"Veľký Príslop / Wielki Przysłop","lat":49.4302913,"lon":18.9889233,"elevationM":1044},{"id":"node:2622523095","kind":"peak","name":"Zonka","lat":49.4493043,"lon":18.9466426,"elevationM":922},{"id":"node:2623551947","kind":"peak","name":"Gorilova Kykula","lat":49.3968054,"lon":18.8962129,"elevationM":781},{"id":"node:2623551955","kind":"peak","name":"Horelická Kýčera","lat":49.413468,"lon":18.816609,"elevationM":698},{"id":"node:2623551962","kind":"peak","name":"Jarolím","lat":49.13291,"lon":18.9765326,"elevationM":788},{"id":"node:2623551971","kind":"peak","name":"Komarov vrch","lat":49.4244693,"lon":18.6172532,"elevationM":729},{"id":"node:2623551974","kind":"peak","name":"Kraviarska","lat":49.3456315,"lon":18.5868364,"elevationM":804},{"id":"node:2623552069","kind":"peak","name":"Na Látanej","lat":49.3514173,"lon":18.7468094,"elevationM":851},{"id":"node:2623552156","kind":"peak","name":"Pánovská Kýčera","lat":49.35376,"lon":18.5706402,"elevationM":761},{"id":"node:2623552354","kind":"peak","name":"Zahrajišná","lat":49.2478139,"lon":18.7842488,"elevationM":635},{"id":"node:2623552472","kind":"peak","name":"Šľapkov","lat":49.3772811,"lon":18.8634509,"elevationM":659},{"id":"node:2623983180","kind":"peak","name":"Blažejovec","lat":49.4110027,"lon":18.9113854,"elevationM":831},{"id":"node:2623983194","kind":"peak","name":"Dedová","lat":49.427574,"lon":18.9223582,"elevationM":917},{"id":"node:2623983220","kind":"peak","name":"Grúnik","lat":49.369343,"lon":18.9827002,"elevationM":843},{"id":"node:2623983221","kind":"peak","name":"Grúň","lat":49.379841,"lon":18.940473,"elevationM":840},{"id":"node:2623983507","kind":"peak","name":"Veľké Ostré","lat":49.2780348,"lon":18.8146723,"elevationM":653},{"id":"node:2623983518","kind":"peak","name":"Vysoký vŕšok","lat":49.3657309,"lon":18.9466409,"elevationM":870},{"id":"node:2630293392","kind":"peak","name":"Pohariská","lat":49.2262547,"lon":18.249176,"elevationM":813},{"id":"node:2630293434","kind":"peak","name":"Rovná poľana","lat":49.4617392,"lon":18.9552454,"elevationM":946},{"id":"node:2635075625","kind":"peak","name":"Klúzov","lat":49.4621145,"lon":18.1699995,"elevationM":490},{"id":"node:2635075630","kind":"peak","name":"Ostrý","lat":49.4617039,"lon":18.1790589,"elevationM":501},{"id":"node:2661228512","kind":"peak","name":"Holý vrch","lat":49.2864714,"lon":18.8584693,"elevationM":912},{"id":"node:2661305153","kind":"peak","name":"Bizov vrch","lat":49.2738132,"lon":18.882519,"elevationM":623},{"id":"node:2661305361","kind":"peak","name":"Kopšovec","lat":49.2747506,"lon":18.2480651,"elevationM":885},{"id":"node:2661305593","kind":"peak","name":"Raganka","lat":49.2439582,"lon":18.2660467,"elevationM":null},{"id":"node:2661362463","kind":"peak","name":"Lipie","lat":49.0499801,"lon":18.9965559,"elevationM":609},{"id":"node:2661362682","kind":"peak","name":"Ostrá","lat":49.0515925,"lon":18.9930579,"elevationM":613},{"id":"node:2661754331","kind":"peak","name":"Hantalová Kýčera","lat":49.2332828,"lon":18.2950668,"elevationM":null},{"id":"node:2739170098","kind":"peak","name":"Muřinkový Vrch","lat":49.5031387,"lon":18.6548652,"elevationM":978},{"id":"node:2739170751","kind":"peak","name":"Čuboňov","lat":49.4980956,"lon":18.6011555,"elevationM":1014},{"id":"node:2747196929","kind":"peak","name":"Pálkovna","lat":49.4560259,"lon":18.1297881,"elevationM":420},{"id":"node:2778099399","kind":"peak","name":"Úvěs","lat":49.4954066,"lon":18.1318132,"elevationM":713},{"id":"node:2797333608","kind":"peak","name":"Písková","lat":49.6323716,"lon":18.1290459,"elevationM":317},{"id":"node:2797333610","kind":"peak","name":"Peklisko","lat":49.6449675,"lon":18.1018841,"elevationM":306},{"id":"node:2797333616","kind":"peak","name":"Na Skalkách","lat":49.6487201,"lon":18.1689627,"elevationM":348},{"id":"node:2829903658","kind":"peak","name":"Kaňúr","lat":49.1028193,"lon":18.1112548,"elevationM":791},{"id":"node:2859440481","kind":"peak","name":"Ochmelov","lat":49.3332872,"lon":18.0962049,"elevationM":734},{"id":"node:2905194346","kind":"peak","name":"Muroňka","lat":49.5776104,"lon":18.4420405,"elevationM":962},{"id":"node:2931631496","kind":"peak","name":"Kopany","lat":49.777261,"lon":18.9630045,"elevationM":690},{"id":"node:2934251294","kind":"peak","name":"Czupel","lat":49.6470796,"lon":18.9165421,"elevationM":882},{"id":"node:2960340322","kind":"peak","name":"Hůrky","lat":49.6638889,"lon":18.38,"elevationM":343},{"id":"node:2960340330","kind":"peak","name":"Strážnice","lat":49.6472222,"lon":18.4166667,"elevationM":438},{"id":"node:2960340331","kind":"peak","name":"Vrchy","lat":49.6575,"lon":18.4138889,"elevationM":433},{"id":"node:2961536770","kind":"peak","name":"Veľká lúka","lat":49.0907811,"lon":18.8137735,"elevationM":1475},{"id":"node:3010639547","kind":"peak","name":"Chotárny kopec","lat":49.3807981,"lon":18.7746413,"elevationM":906},{"id":"node:3064424391","kind":"peak","name":"Malá Prašivá","lat":49.6364354,"lon":18.4832074,"elevationM":707},{"id":"node:3064424392","kind":"peak","name":"Prašivá","lat":49.6345843,"lon":18.5012273,"elevationM":842},{"id":"node:3064424394","kind":"peak","name":"Čupel","lat":49.6288208,"lon":18.505467,"elevationM":872},{"id":"node:3124626502","kind":"peak","name":"Godula","lat":49.6493864,"lon":18.5509348,"elevationM":738},{"id":"node:3124626506","kind":"peak","name":"Křivý","lat":49.63502,"lon":18.55553,"elevationM":743},{"id":"node:3135969909","kind":"peak","name":"Babí vrch","lat":49.5617399,"lon":18.6215226,"elevationM":953},{"id":"node:3135969924","kind":"peak","name":"Kozubová","lat":49.5669296,"lon":18.6724664,"elevationM":982},{"id":"node:3135969928","kind":"peak","name":"Velká Kyčera","lat":49.5777291,"lon":18.6438581,"elevationM":907},{"id":"node:3135970131","kind":"peak","name":"Mizerov","lat":49.5574066,"lon":18.6108896,"elevationM":965},{"id":"node:3135970132","kind":"peak","name":"Motyková","lat":49.5467772,"lon":18.6199577,"elevationM":885},{"id":"node:3135970150","kind":"peak","name":"Skalka","lat":49.6058905,"lon":18.6853278,"elevationM":650},{"id":"node:3135970162","kind":"peak","name":"Šindelná","lat":49.6139014,"lon":18.6042277,"elevationM":1003},{"id":"node:3139071592","kind":"peak","name":"Kyčera","lat":49.5883333,"lon":18.4394444,"elevationM":906},{"id":"node:3139071597","kind":"peak","name":"Ostrá hora","lat":49.5569444,"lon":18.3997222,"elevationM":783},{"id":"node:3139071622","kind":"peak","name":"Čupel","lat":49.5236111,"lon":18.4252778,"elevationM":944},{"id":"node:3139111649","kind":"peak","name":"Malý Travný","lat":49.5644786,"lon":18.5253901,"elevationM":1105},{"id":"node:3139111650","kind":"peak","name":"Obora","lat":49.5872222,"lon":18.49,"elevationM":709},{"id":"node:3148792935","kind":"peak","name":"Žáry","lat":49.532451,"lon":18.2631938,"elevationM":null},{"id":"node:3149235144","kind":"peak","name":"Hodorf","lat":49.5185729,"lon":18.0914733,"elevationM":768},{"id":"node:3158232162","kind":"peak","name":"Hrachovec","lat":49.2810835,"lon":18.1241989,"elevationM":777},{"id":"node:3192034086","kind":"peak","name":"Mituří","lat":49.5498348,"lon":18.5669636,"elevationM":870},{"id":"node:3334210147","kind":"peak","name":"Babia Górka","lat":49.5489856,"lon":18.8943981,"elevationM":633},{"id":"node:3427418172","kind":"peak","name":"Pálenica","lat":49.0010403,"lon":18.5921457,"elevationM":null},{"id":"node:3443142944","kind":"peak","name":"Velký Lipový","lat":49.5998226,"lon":18.5746479,"elevationM":999},{"id":"node:3443177876","kind":"peak","name":"Příslop","lat":49.6078731,"lon":18.5725226,"elevationM":946},{"id":"node:3443201686","kind":"peak","name":"Kyčera u Morávky","lat":49.5956078,"lon":18.5505469,"elevationM":834},{"id":"node:3443213066","kind":"peak","name":"Slavíč","lat":49.5682696,"lon":18.5884346,"elevationM":1056},{"id":"node:3443231839","kind":"peak","name":"Malý Polom","lat":49.509508,"lon":18.5981045,"elevationM":1061},{"id":"node:3443393909","kind":"peak","name":"Vysoký Rykali","lat":49.5326013,"lon":18.5286926,"elevationM":912},{"id":"node:3443404530","kind":"peak","name":"Okrouhlice","lat":49.5078174,"lon":18.4683792,"elevationM":832},{"id":"node:3443420115","kind":"peak","name":"Těšiňočka","lat":49.4968706,"lon":18.4529391,"elevationM":919},{"id":"node:3451753843","kind":"peak","name":"Beskyd","lat":49.3785374,"lon":18.1622391,"elevationM":892},{"id":"node:3451753844","kind":"peak","name":"Cáb","lat":49.3722448,"lon":18.0903635,"elevationM":842},{"id":"node:3451753845","kind":"peak","name":"Gigula","lat":49.3913621,"lon":18.263324,"elevationM":851},{"id":"node:3451753847","kind":"peak","name":"Lušovka","lat":49.3694653,"lon":18.1253258,"elevationM":875},{"id":"node:3451753848","kind":"peak","name":"Ostrý vrch","lat":49.4281799,"lon":18.0476218,"elevationM":672},{"id":"node:3451753849","kind":"peak","name":"Soláň","lat":49.3933683,"lon":18.2502177,"elevationM":861},{"id":"node:3458055913","kind":"peak","name":"Loučka","lat":49.6251821,"lon":18.7820177,"elevationM":835},{"id":"node:3458060262","kind":"peak","name":"Filipka","lat":49.6137481,"lon":18.7902705,"elevationM":771},{"id":"node:3458061135","kind":"peak","name":"Čupel","lat":49.608262,"lon":18.7996406,"elevationM":758},{"id":"node:3458066396","kind":"peak","name":"Konihlava","lat":49.6090154,"lon":18.8065097,"elevationM":776},{"id":"node:3458070593","kind":"peak","name":"Javorový","lat":49.6340014,"lon":18.7608183,"elevationM":627},{"id":"node:3459782704","kind":"peak","name":"Kympa","lat":49.5520994,"lon":18.8391364,"elevationM":572},{"id":"node:3459785498","kind":"peak","name":"Šance","lat":49.5480922,"lon":18.8422025,"elevationM":559},{"id":"node:3459923678","kind":"peak","name":"Studeničný","lat":49.5278681,"lon":18.7812261,"elevationM":718},{"id":"node:3459931310","kind":"peak","name":"Fojtský grúň","lat":49.5241028,"lon":18.7670587,"elevationM":676},{"id":"node:3459941014","kind":"peak","name":"Skalka","lat":49.5196789,"lon":18.7211476,"elevationM":932},{"id":"node:3459944459","kind":"peak","name":"Severka","lat":49.51477,"lon":18.7105846,"elevationM":957},{"id":"node:3459951454","kind":"peak","name":"Úplaz","lat":49.5208056,"lon":18.6741441,"elevationM":950},{"id":"node:3461409737","kind":"peak","name":"Malá Kyčera","lat":49.5585595,"lon":18.7080266,"elevationM":745},{"id":"node:3461612420","kind":"peak","name":"Malá Kykula","lat":49.5599143,"lon":18.6941415,"elevationM":789},{"id":"node:3653696382","kind":"peak","name":"Čížové","lat":49.055383,"lon":18.2226451,"elevationM":459},{"id":"node:3672836549","kind":"peak","name":"Filka","lat":49.264487,"lon":18.0551121,"elevationM":759},{"id":"node:3672836550","kind":"peak","name":"Tanečnice","lat":49.268006,"lon":18.064144,"elevationM":735},{"id":"node:3672836551","kind":"peak","name":"Radošov","lat":49.246184,"lon":18.0701325,"elevationM":757},{"id":"node:3672836588","kind":"peak","name":"Žáry","lat":49.263782,"lon":18.0471339,"elevationM":752},{"id":"node:3672890258","kind":"peak","name":"Šerklava","lat":49.2462707,"lon":18.1015775,"elevationM":798},{"id":"node:3672890260","kind":"peak","name":"Valašská Kyčera","lat":49.2588026,"lon":18.142068,"elevationM":864},{"id":"node:3672890318","kind":"peak","name":"Žár","lat":49.272757,"lon":18.093775,"elevationM":689},{"id":"node:3711108578","kind":"peak","name":"Domašín","lat":49.1682457,"lon":18.8813047,"elevationM":575},{"id":"node:3732157426","kind":"peak","name":"Kotly","lat":49.5466667,"lon":18.6011706,"elevationM":857},{"id":"node:3736922828","kind":"peak","name":"Biela skala","lat":49.1428486,"lon":18.6960139,"elevationM":771},{"id":"node:3782407073","kind":"peak","name":"Jahodný","lat":49.2853326,"lon":18.0339209,"elevationM":609},{"id":"node:3782407095","kind":"peak","name":"Snoz","lat":49.277119,"lon":18.0339538,"elevationM":618},{"id":"node:3873394871","kind":"peak","name":"Kozol","lat":49.1143339,"lon":18.7627259,"elevationM":1119},{"id":"node:3873471175","kind":"peak","name":"Ostrá","lat":49.1237593,"lon":18.7737761,"elevationM":942},{"id":"node:3880484542","kind":"peak","name":"Malý pahorek","lat":49.6190601,"lon":18.392188,"elevationM":452},{"id":"node:3880484544","kind":"peak","name":"Velký pahorek","lat":49.6150357,"lon":18.3892437,"elevationM":468},{"id":"node:3901260057","kind":"peak","name":"Javořina","lat":49.4497682,"lon":18.435927,"elevationM":832},{"id":"node:3901598353","kind":"peak","name":"Trojačka","lat":49.4481741,"lon":18.3734192,"elevationM":988},{"id":"node:3901641234","kind":"peak","name":"U Zbojníka","lat":49.4363779,"lon":18.4648827,"elevationM":774},{"id":"node:3901648409","kind":"peak","name":"Kyčera","lat":49.4199303,"lon":18.4241451,"elevationM":834},{"id":"node:3915479143","kind":"peak","name":"Vidíkov","lat":49.7042405,"lon":18.4766561,"elevationM":356},{"id":"node:3923213737","kind":"peak","name":"Baba","lat":49.0449074,"lon":18.6730773,"elevationM":1061},{"id":"node:3923213738","kind":"peak","name":"Kýčera","lat":49.0330147,"lon":18.6999187,"elevationM":1166},{"id":"node:3923413536","kind":"peak","name":"Malá Skalka","lat":49.5346891,"lon":18.7225995,"elevationM":797},{"id":"node:3923430825","kind":"peak","name":"Smolkov","lat":49.5356987,"lon":18.6785684,"elevationM":751},{"id":"node:3923434835","kind":"peak","name":"Menší vrch","lat":49.5340555,"lon":18.6561129,"elevationM":894},{"id":"node:3924243276","kind":"peak","name":"Fojtovy vrchy","lat":49.6292914,"lon":18.2009059,"elevationM":418},{"id":"node:3924243297","kind":"peak","name":"Vrchy","lat":49.6318861,"lon":18.2017743,"elevationM":424},{"id":"node:3925558529","kind":"peak","name":"Nepřejov","lat":49.2651268,"lon":18.0855411,"elevationM":557},{"id":"node:3982578176","kind":"peak","name":"Dlouhá","lat":49.4557641,"lon":18.1797548,"elevationM":528},{"id":"node:4015270260","kind":"peak","name":"Bitar","lat":49.2070313,"lon":18.6780686,"elevationM":440},{"id":"node:4015270266","kind":"peak","name":"Bodov","lat":49.2082312,"lon":18.6555593,"elevationM":506},{"id":"node:4015270269","kind":"peak","name":"Borošovec","lat":49.0568737,"lon":18.5884557,"elevationM":577},{"id":"node:4015270271","kind":"peak","name":"Brehy","lat":49.0249308,"lon":18.3813187,"elevationM":475},{"id":"node:4015270274","kind":"peak","name":"Brezník","lat":49.1751918,"lon":18.7858522,"elevationM":466},{"id":"node:4015270284","kind":"peak","name":"Bôry","lat":49.0446227,"lon":18.9542009,"elevationM":477},{"id":"node:4015270288","kind":"peak","name":"Chlmecký vrch","lat":49.2352594,"lon":18.7264628,"elevationM":404},{"id":"node:4015270995","kind":"peak","name":"Chrastie","lat":49.2124981,"lon":18.6840472,"elevationM":435},{"id":"node:4015271011","kind":"peak","name":"Diely","lat":49.1195152,"lon":18.6829042,"elevationM":455},{"id":"node:4015271012","kind":"peak","name":"Diely","lat":49.1220447,"lon":18.9485047,"elevationM":484},{"id":"node:4015271018","kind":"peak","name":"Doktorovec","lat":49.2607909,"lon":18.4403312,"elevationM":784},{"id":"node:4015271031","kind":"peak","name":"Dúbie","lat":49.0718353,"lon":18.6592526,"elevationM":549},{"id":"node:4015271037","kind":"peak","name":"Fačkovská","lat":49.2927468,"lon":18.4446696,"elevationM":875},{"id":"node:4015271056","kind":"peak","name":"Hackov vrch","lat":49.4151736,"lon":18.8619128,"elevationM":608},{"id":"node:4015271072","kind":"peak","name":"Hliník","lat":49.0111686,"lon":18.8655734,"elevationM":471},{"id":"node:4015271077","kind":"peak","name":"Holý diel","lat":49.4096691,"lon":18.8174546,"elevationM":679},{"id":"node:4015271087","kind":"peak","name":"Hrebeň","lat":49.2110774,"lon":18.1991384,"elevationM":641},{"id":"node:4015271088","kind":"peak","name":"Hrebeň","lat":49.2992272,"lon":18.7518854,"elevationM":488},{"id":"node:4015271191","kind":"peak","name":"Hričov","lat":49.2117684,"lon":18.619924,"elevationM":564},{"id":"node:4015271192","kind":"peak","name":"Hričovec","lat":49.336718,"lon":18.4114077,"elevationM":1060},{"id":"node:4015271194","kind":"peak","name":"Hromádková","lat":49.1345836,"lon":18.1519351,"elevationM":754},{"id":"node:4015271206","kind":"peak","name":"Jamy","lat":49.1756963,"lon":18.6664125,"elevationM":480},{"id":"node:4015271236","kind":"peak","name":"Kohútkové","lat":49.102743,"lon":18.3613505,"elevationM":456},{"id":"node:4015271257","kind":"peak","name":"Koziarsky vrch","lat":49.0002343,"lon":18.6740016,"elevationM":1019},{"id":"node:4015271266","kind":"peak","name":"Krahulčie","lat":49.257064,"lon":18.1899002,"elevationM":639},{"id":"node:4015271496","kind":"peak","name":"Lazisko","lat":49.3894544,"lon":18.8515621,"elevationM":597},{"id":"node:4015271507","kind":"peak","name":"Luby","lat":49.351302,"lon":18.5297785,"elevationM":909},{"id":"node:4015271528","kind":"peak","name":"Malé Ostré","lat":49.2777663,"lon":18.8232936,"elevationM":584},{"id":"node:4015271529","kind":"peak","name":"Malé hradisko","lat":49.2268605,"lon":18.6850778,"elevationM":638},{"id":"node:4015271531","kind":"peak","name":"Malý Straník","lat":49.2352415,"lon":18.8132366,"elevationM":624},{"id":"node:4015271537","kind":"peak","name":"Marťácky vrch","lat":49.3760151,"lon":18.7322447,"elevationM":854},{"id":"node:4015271548","kind":"peak","name":"Michalka","lat":49.4394876,"lon":18.6788768,"elevationM":597},{"id":"node:4015271567","kind":"peak","name":"Na Širokom","lat":49.2517998,"lon":18.2484154,"elevationM":716},{"id":"node:4015271794","kind":"peak","name":"Osičná","lat":49.1740734,"lon":18.6870871,"elevationM":505},{"id":"node:4015271798","kind":"peak","name":"Panošiná","lat":49.147014,"lon":18.9140608,"elevationM":1022},{"id":"node:4015271803","kind":"peak","name":"Pastvečkov vrch","lat":49.3367605,"lon":18.9859517,"elevationM":748},{"id":"node:4015271817","kind":"peak","name":"Pisárová","lat":49.2026321,"lon":18.4657073,"elevationM":582},{"id":"node:4015271820","kind":"peak","name":"Pod Dielcom","lat":49.2449331,"lon":18.8227613,"elevationM":585},{"id":"node:4015271823","kind":"peak","name":"Podhrbie","lat":49.2396795,"lon":18.9144331,"elevationM":570},{"id":"node:4015271832","kind":"peak","name":"Prevozné","lat":49.2893017,"lon":18.196801,"elevationM":859},{"id":"node:4015271837","kind":"peak","name":"Priečne","lat":49.0191582,"lon":18.6742599,"elevationM":889},{"id":"node:4015271841","kind":"peak","name":"Radúchovo","lat":49.0769183,"lon":18.9845622,"elevationM":500},{"id":"node:4015271855","kind":"peak","name":"Rovný vrch","lat":49.42576,"lon":18.9517182,"elevationM":870},{"id":"node:4015271872","kind":"peak","name":"Skotňa","lat":49.0845848,"lon":18.6502798,"elevationM":506},{"id":"node:4015271878","kind":"peak","name":"Slopovec","lat":49.2504284,"lon":18.8510636,"elevationM":612},{"id":"node:4015271882","kind":"peak","name":"Somarica","lat":49.0933104,"lon":18.3998508,"elevationM":403},{"id":"node:4015272000","kind":"peak","name":"Strčihlava","lat":49.1983733,"lon":18.150134,"elevationM":668},{"id":"node:4015272003","kind":"peak","name":"Stupovec","lat":49.1487848,"lon":18.5526791,"elevationM":806},{"id":"node:4015272029","kind":"peak","name":"Varechovka","lat":49.399544,"lon":18.5800245,"elevationM":788},{"id":"node:4015272042","kind":"peak","name":"Veľký vŕšok","lat":49.1403995,"lon":18.6440798,"elevationM":639},{"id":"node:4015272057","kind":"peak","name":"Vrchová","lat":49.2239256,"lon":18.5041053,"elevationM":474},{"id":"node:4015272058","kind":"peak","name":"Vrchy","lat":49.1688025,"lon":18.7868437,"elevationM":489},{"id":"node:4015272069","kind":"peak","name":"Vŕšky","lat":49.3010657,"lon":18.9614852,"elevationM":762},{"id":"node:4015272070","kind":"peak","name":"Vŕšky","lat":49.3744052,"lon":18.9105082,"elevationM":705},{"id":"node:4015272071","kind":"peak","name":"Za Dielom","lat":49.2063661,"lon":18.700194,"elevationM":416},{"id":"node:4015272085","kind":"peak","name":"Zlieň","lat":49.2775659,"lon":18.9316586,"elevationM":765},{"id":"node:4015272495","kind":"peak","name":"Závršie","lat":49.2695697,"lon":18.7237735,"elevationM":609},{"id":"node:4015272496","kind":"peak","name":"Zázrivá","lat":49.1048462,"lon":18.8188724,"elevationM":1406},{"id":"node:4015272519","kind":"peak","name":"Šajdov vrch","lat":49.3161608,"lon":18.7642422,"elevationM":588},{"id":"node:4015272536","kind":"peak","name":"Šárková","lat":49.0015217,"lon":18.9088206,"elevationM":463},{"id":"node:4015272548","kind":"peak","name":"Živčákov vrch","lat":49.4001794,"lon":18.6010677,"elevationM":675},{"id":"node:4061123288","kind":"peak","name":"Lysý vrch","lat":49.9798862,"lon":18.1183863,"elevationM":296},{"id":"node:4061123391","kind":"peak","name":"Těškovice","lat":49.8848209,"lon":18.1105891,"elevationM":363},{"id":"node:4063859042","kind":"peak","name":"Ostrá hůrka","lat":49.8915302,"lon":18.09199,"elevationM":315},{"id":"node:4063859043","kind":"peak","name":"Padařov","lat":49.8960331,"lon":18.0779996,"elevationM":339},{"id":"node:4063859044","kind":"peak","name":"Podhůry","lat":49.8865767,"lon":18.0519077,"elevationM":389},{"id":"node:4063859088","kind":"peak","name":"Šibenice","lat":49.8717486,"lon":18.0876052,"elevationM":371},{"id":"node:4071274574","kind":"peak","name":"Končina","lat":49.8731332,"lon":18.145144,"elevationM":340},{"id":"node:4071274575","kind":"peak","name":"Na Píšťškém","lat":49.9619586,"lon":18.1709736,"elevationM":268},{"id":"node:4071274576","kind":"peak","name":"Vinná hora","lat":49.8815147,"lon":18.1806135,"elevationM":287},{"id":"node:4071274577","kind":"peak","name":"Úhorky","lat":49.8537124,"lon":18.0625843,"elevationM":404},{"id":"node:4093224524","kind":"peak","name":"Rakytie","lat":49.1630253,"lon":18.8682947,"elevationM":741},{"id":"node:4226544470","kind":"peak","name":"Velová","lat":49.6094217,"lon":18.195099,"elevationM":390},{"id":"node:4236538006","kind":"peak","name":"Malý Kozinec","lat":49.6155673,"lon":18.6739764,"elevationM":655},{"id":"node:4236538008","kind":"peak","name":"Kykula","lat":49.5943772,"lon":18.6755086,"elevationM":811},{"id":"node:4236538009","kind":"peak","name":"Velký Kozinec","lat":49.6176498,"lon":18.6614675,"elevationM":753},{"id":"node:4236538082","kind":"peak","name":"Žďár","lat":49.6087603,"lon":18.6743955,"elevationM":748},{"id":"node:4236583438","kind":"peak","name":"Řehucí","lat":49.5223601,"lon":18.4659516,"elevationM":872},{"id":"node:4242004289","kind":"peak","name":"Vysoká","lat":49.4516913,"lon":18.1820633,"elevationM":546},{"id":"node:4253243129","kind":"peak","name":"Šípov","lat":49.4450722,"lon":18.1246132,"elevationM":485},{"id":"node:4266848540","kind":"peak","name":"Hradištěk","lat":49.5070132,"lon":18.1100118,"elevationM":621},