{"tileKey":"la_p44_lo_m77","version":"v1-1775891056926","entries":[{"id":"node:357551675","kind":"peak","name":"Burnt Rock","lat":44.1378284,"lon":-76.1877133,"elevationM":107},{"id":"node:357556790","kind":"peak","name":"Doanes Hill","lat":44.0189457,"lon":-76.0721497,"elevationM":127},{"id":"node:357560426","kind":"peak","name":"Fox Hill","lat":44.206993,"lon":-76.014941,"elevationM":123},{"id":"node:357566133","kind":"peak","name":"Indian Hill","lat":44.0794976,"lon":-76.2571553,"elevationM":103},{"id":"node:357569909","kind":"peak","name":"Luther Hill","lat":44.0236675,"lon":-76.1082614,"elevationM":119},{"id":"node:357588230","kind":"peak","name":"Schnauber Hill","lat":44.2028266,"lon":-76.0049408,"elevationM":121},{"id":"node:357589763","kind":"peak","name":"Slaughter Hill","lat":44.0439449,"lon":-76.0010399,"elevationM":112},{"id":"node:357607379","kind":"peak","name":"McCarn Hill","lat":44.2208809,"lon":-76.0691081,"elevationM":114},{"id":"node:529269087","kind":"peak","name":"The Ridge","lat":44.1345916,"lon":-76.4221468,"elevationM":null},{"id":"node:529269088","kind":"peak","name":"Lamberts Hill","lat":44.1872294,"lon":-76.4629982,"elevationM":null},{"id":"node:529684438","kind":"peak","name":"Abbey Dawn Hill","lat":44.2660452,"lon":-76.3837725,"elevationM":104},{"id":"node:529684510","kind":"peak","name":"Morelands Hill","lat":44.3749257,"lon":-76.4398898,"elevationM":null},{"id":"node:529684519","kind":"peak","name":"Curtis Mountain","lat":44.3199311,"lon":-76.3087977,"elevationM":null},{"id":"node:529684534","kind":"peak","name":"Sand Hill","lat":44.3790674,"lon":-76.3158169,"elevationM":null},{"id":"node:529684544","kind":"peak","name":"Sand Hill","lat":44.4127785,"lon":-76.403594,"elevationM":null},{"id":"node:529684547","kind":"peak","name":"Lime Hill","lat":44.4272759,"lon":-76.3878372,"elevationM":null},{"id":"node:529684587","kind":"peak","name":"Fishers Hill","lat":44.3900204,"lon":-76.3606743,"elevationM":null},{"id":"node:529684686","kind":"peak","name":"Little Blue Mountain","lat":44.355125,"lon":-76.1641288,"elevationM":null},{"id":"node:529684714","kind":"peak","name":"Big Hill","lat":44.4574293,"lon":-76.2345579,"elevationM":null},{"id":"node:529684834","kind":"peak","name":"Mount Fitzsimmons","lat":44.371829,"lon":-76.0374316,"elevationM":161},{"id":"node:529685112","kind":"peak","name":"Long Mountain","lat":44.4867474,"lon":-76.0076494,"elevationM":null},{"id":"node:687335829","kind":"peak","name":"Roblin Hill","lat":44.246442,"lon":-76.9381156,"elevationM":null},{"id":"node:687658520","kind":"peak","name":"Silvers Hill","lat":44.3039051,"lon":-76.5428573,"elevationM":null},{"id":"node:687658695","kind":"peak","name":"Mitchells Hill","lat":44.4185607,"lon":-76.6620339,"elevationM":null},{"id":"node:687658735","kind":"peak","name":"Basswood Hill","lat":44.4199378,"lon":-76.9200751,"elevationM":null},{"id":"node:687658803","kind":"peak","name":"Roblin Hill","lat":44.2507075,"lon":-76.9265481,"elevationM":null},{"id":"node:687658920","kind":"peak","name":"Jamieson Hill","lat":44.4346614,"lon":-76.6376731,"elevationM":null},{"id":"node:687658948","kind":"peak","name":"Gibsons Hill","lat":44.2949025,"lon":-76.5865081,"elevationM":null},{"id":"node:4763139202","kind":"peak","name":"Morton Park Hill","lat":44.5513957,"lon":-76.1952661,"elevationM":null},{"id":"node:13156894345","kind":"peak","name":"Mount Carlsen","lat":44.6340108,"lon":-76.4149609,"elevationM":null}]}