{"tileKey":"la_p40_lo_p25","version":"v1-1775891056926","entries":[{"id":"node:26864081","kind":"peak","name":"Φεγγάρι","lat":40.4616628,"lon":25.5874978,"elevationM":1611},{"id":"node:2309224499","kind":"peak","name":"Aktaş Tepesi","lat":40.1021673,"lon":25.7401995,"elevationM":150},{"id":"node:2309224504","kind":"peak","name":"Karadoğan Tepesi","lat":40.1891703,"lon":25.8572117,"elevationM":350},{"id":"node:2309224505","kind":"peak","name":"Oğlak Tepesi","lat":40.1686319,"lon":25.741773,"elevationM":500},{"id":"node:3744207673","kind":"peak","name":"Dereköy Tepesi","lat":40.1472533,"lon":25.7669574,"elevationM":450},{"id":"node:3744208476","kind":"peak","name":"Tepeköy Tepesi","lat":40.1966263,"lon":25.8242498,"elevationM":600},{"id":"node:4143269089","kind":"peak","name":"Gözetme Tepesi","lat":40.2337746,"lon":25.9298243,"elevationM":135},{"id":"node:4143273814","kind":"peak","name":"Konacık Tepe","lat":40.1512899,"lon":25.8755008,"elevationM":350},{"id":"node:4143273854","kind":"peak","name":"Araşa Dağı","lat":40.1732826,"lon":25.8805717,"elevationM":350},{"id":"node:4143279873","kind":"peak","name":"Doruk Tepe","lat":40.1750901,"lon":25.8115843,"elevationM":673},{"id":"node:4143282957","kind":"peak","name":"Keltepe","lat":40.1985918,"lon":25.7786759,"elevationM":150},{"id":"node:4143286299","kind":"peak","name":"Baştepe","lat":40.1443009,"lon":25.6915373,"elevationM":450},{"id":"node:4143297713","kind":"peak","name":"Yarkaya Tepesi","lat":40.1285615,"lon":25.7674544,"elevationM":146},{"id":"node:4143297714","kind":"peak","name":"Demirkaya Tepesi","lat":40.1303742,"lon":25.810481,"elevationM":250},{"id":"node:5188544318","kind":"peak","name":"Κρεμαστή","lat":40.9803583,"lon":25.4495473,"elevationM":335},{"id":"node:5188545366","kind":"peak","name":"Φωτεινόν","lat":40.9858606,"lon":25.5149128,"elevationM":528},{"id":"node:5188554379","kind":"peak","name":"Ίσμαρος","lat":40.8954072,"lon":25.5451521,"elevationM":681},{"id":"node:5188556360","kind":"peak","name":"Αγ.Γεώργιος","lat":40.9008438,"lon":25.6045013,"elevationM":268},{"id":"node:5188568561","kind":"peak","name":"Μαυροξυλιά","lat":40.9798903,"lon":25.4703455,"elevationM":335},{"id":"node:5188578215","kind":"peak","name":"Οδοντωτόν (Dus Kaya)","lat":40.895426,"lon":25.5778509,"elevationM":426},{"id":"node:8047954321","kind":"peak","name":"Komando Tepesi","lat":40.2214209,"lon":25.9163977,"elevationM":386},{"id":"node:8047981881","kind":"peak","name":"İncirlik Tepesi","lat":40.1664945,"lon":25.9551412,"elevationM":183},{"id":"node:8048007185","kind":"peak","name":"Keklik Tepesi","lat":40.1794061,"lon":25.9228743,"elevationM":419},{"id":"node:11556719349","kind":"peak","name":"Top Tepe","lat":40.1753649,"lon":25.917778,"elevationM":null},{"id":"node:11556719350","kind":"peak","name":"Tokmaklı Tepe","lat":40.1593612,"lon":25.9081649,"elevationM":null},{"id":"node:13702217084","kind":"peak","name":"Βουβός","lat":40.8708157,"lon":25.5644489,"elevationM":438},{"id":"node:13702277874","kind":"peak","name":"Μονόλιθος","lat":40.8649541,"lon":25.5640318,"elevationM":325},{"id":"node:13702289783","kind":"peak","name":"Χλωμό","lat":40.8782588,"lon":25.5626213,"elevationM":517},{"id":"node:13706482786","kind":"peak","name":"Καλιμαύκη","lat":40.8900504,"lon":25.5616284,"elevationM":537}]}