{"tileKey":"la_p13_lo_p5","version":"v1-1775891056926","entries":[{"id":"node:501246009","kind":"peak","name":"Arkilla Hill","lat":13.024503,"lon":5.181086,"elevationM":null},{"id":"node:501251703","kind":"peak","name":"Metsin Kai Hill","lat":13.1333591,"lon":5.733341,"elevationM":null},{"id":"node:501267322","kind":"peak","name":"Tozai Hill","lat":13.6670499,"lon":5.3803399,"elevationM":null},{"id":"node:501267355","kind":"peak","name":"Gidan Makera Hill","lat":13.238772,"lon":5.150918,"elevationM":null},{"id":"node:501274470","kind":"peak","name":"Kalanjeni Hill","lat":13.284095,"lon":5.042709,"elevationM":null},{"id":"node:501297954","kind":"peak","name":"Chancha Hill","lat":13.375069,"lon":5.293714,"elevationM":null},{"id":"node:501298019","kind":"peak","name":"Badon uku uku Hill","lat":13.003807,"lon":5.188574,"elevationM":null}]}