{"tileKey":"la_p15_lo_p73","version":"v1-1775891056926","entries":[{"id":"node:9417116298","kind":"peak","name":"Monte Guirim","lat":15.5630585,"lon":73.8003588,"elevationM":null},{"id":"node:10965960653","kind":"peak","name":"Chapora Fort Hill","lat":15.6059514,"lon":73.7363559,"elevationM":null},{"id":"node:10965960654","kind":"peak","name":"Anjuna Hilltop","lat":15.5877588,"lon":73.7378096,"elevationM":null},{"id":"node:10989323762","kind":"peak","name":"Sadashivgad","lat":15.6207772,"lon":73.8058825,"elevationM":null},{"id":"node:11203038388","kind":"peak","name":"Monte Hill","lat":15.2795641,"lon":73.9628041,"elevationM":null},{"id":"node:12252324904","kind":"peak","name":"Peacock Hill","lat":15.5933979,"lon":73.7472869,"elevationM":null},{"id":"node:12531681901","kind":"peak","name":"Kasainath","lat":15.6833481,"lon":73.9969498,"elevationM":null}]}