{"tileKey":"la_p63_lo_p10","version":"v1-1775891056926","entries":[{"id":"node:35492357","kind":"peak","name":"Gråkallen","lat":63.4211381,"lon":10.2522455,"elevationM":554},{"id":"node:192643898","kind":"peak","name":"Månen","lat":63.3895693,"lon":10.4916054,"elevationM":349},{"id":"node:206133952","kind":"peak","name":"Liaåsen","lat":63.3709562,"lon":10.4810649,"elevationM":429},{"id":"node:264515785","kind":"peak","name":"Våttakammen","lat":63.4369492,"lon":10.3346668,"elevationM":286},{"id":"node:264515814","kind":"peak","name":"Geitfjellet","lat":63.4332866,"lon":10.3044771,"elevationM":416},{"id":"node:266515754","kind":"peak","name":"Nymånen","lat":63.3941835,"lon":10.4988628,"elevationM":null},{"id":"node:266679031","kind":"peak","name":"Storheia","lat":63.4021714,"lon":10.2009919,"elevationM":565},{"id":"node:270329303","kind":"peak","name":"Herbernheia","lat":63.4351034,"lon":10.2520355,"elevationM":467},{"id":"node:270479939","kind":"peak","name":"Stadsheia","lat":63.4367638,"lon":10.246872,"elevationM":468},{"id":"node:278592419","kind":"peak","name":"Vassfjellet","lat":63.2621067,"lon":10.3562336,"elevationM":710},{"id":"node:278750259","kind":"peak","name":"Ratåsen","lat":63.2418592,"lon":10.2985155,"elevationM":null},{"id":"node:279574003","kind":"peak","name":"Litlfjellet","lat":63.2594802,"lon":10.3286172,"elevationM":605},{"id":"node:280245566","kind":"peak","name":"Melanakken","lat":63.9553458,"lon":10.2405165,"elevationM":345},{"id":"node:309374658","kind":"peak","name":"Hevilen","lat":63.3067104,"lon":10.7259522,"elevationM":null},{"id":"node:402629169","kind":"peak","name":"Bosbergheia","lat":63.4141706,"lon":10.1903609,"elevationM":537},{"id":"node:403336714","kind":"peak","name":"Merkespynten","lat":63.3918507,"lon":10.7455021,"elevationM":341},{"id":"node:420273393","kind":"peak","name":"Kvennberget","lat":63.3161592,"lon":10.2105163,"elevationM":279},{"id":"node:430913103","kind":"peak","name":"Solemsvåttan","lat":63.4090874,"lon":10.5827747,"elevationM":423},{"id":"node:431678552","kind":"peak","name":"Samsjølia","lat":63.1199118,"lon":10.6144158,"elevationM":585},{"id":"node:431678554","kind":"peak","name":"Kråkfjellet","lat":63.1633591,"lon":10.6322091,"elevationM":817},{"id":"node:431860688","kind":"peak","name":"Rensfjellet","lat":63.1421517,"lon":10.7219464,"elevationM":941},{"id":"node:573732198","kind":"peak","name":"Munken","lat":63.5678069,"lon":10.309804,"elevationM":512},{"id":"node:735295081","kind":"peak","name":"Hommelvikheia","lat":63.425039,"lon":10.8564324,"elevationM":339},{"id":"node:793970689","kind":"peak","name":"Svulluskaret","lat":63.3843227,"lon":10.9096593,"elevationM":390},{"id":"node:850476539","kind":"peak","name":"Svartkamberget","lat":63.5162806,"lon":10.9443536,"elevationM":539},{"id":"node:873831362","kind":"peak","name":"Tikneppen","lat":63.4301076,"lon":10.2896093,"elevationM":348},{"id":"node:889370597","kind":"peak","name":"Stokkåsen","lat":63.3981904,"lon":10.4941724,"elevationM":null},{"id":"node:889370598","kind":"peak","name":"Tomsetåsen","lat":63.3821855,"lon":10.4850281,"elevationM":414},{"id":"node:925816755","kind":"peak","name":"Tortberga","lat":63.278365,"lon":10.3613608,"elevationM":631},{"id":"node:926783209","kind":"peak","name":"Stavsjøfjellet","lat":63.3941539,"lon":10.7507377,"elevationM":342},{"id":"node:1025084516","kind":"peak","name":"Forbordsfjellet","lat":63.5259418,"lon":10.8895135,"elevationM":590},{"id":"node:1340056436","kind":"peak","name":"Jervfjellet","lat":63.3379286,"lon":10.6958463,"elevationM":504},{"id":"node:1500668994","kind":"peak","name":"Pungtjønnåsen","lat":63.27885,"lon":10.39473,"elevationM":386},{"id":"node:1500669001","kind":"peak","name":"Steinslættåsen","lat":63.27586,"lon":10.38158,"elevationM":447},{"id":"node:1500669003","kind":"peak","name":"Svartåsen","lat":63.2764507,"lon":10.3958434,"elevationM":379},{"id":"node:2001245003","kind":"peak","name":"Durmålshaugen","lat":63.7557394,"lon":10.5463456,"elevationM":431},{"id":"node:2339015636","kind":"peak","name":"Aunvåttan","lat":63.4288401,"lon":10.5963753,"elevationM":null},{"id":"node:2339015637","kind":"peak","name":"Høgåsen","lat":63.4173938,"lon":10.6607978,"elevationM":261},{"id":"node:2339015638","kind":"peak","name":"Leistadhaugen","lat":63.4310599,"lon":10.6499567,"elevationM":null},{"id":"node:2339015639","kind":"peak","name":"Leistadåsen","lat":63.4221184,"lon":10.6480779,"elevationM":266},{"id":"node:2339015640","kind":"peak","name":"Brannåsen","lat":63.4251601,"lon":10.600296,"elevationM":288},{"id":"node:2354938419","kind":"peak","name":"Toppen","lat":63.489122,"lon":10.959306,"elevationM":null},{"id":"node:2354938474","kind":"peak","name":"Kammen","lat":63.940247,"lon":10.978981,"elevationM":null},{"id":"node:2354941508","kind":"peak","name":"Raudberget","lat":63.592942,"lon":10.832383,"elevationM":null},{"id":"node:2442340105","kind":"peak","name":"Rabben","lat":63.0582489,"lon":10.863358,"elevationM":730},{"id":"node:2452093228","kind":"peak","name":"Våttåsen","lat":63.2481301,"lon":10.2102779,"elevationM":403},{"id":"node:2465061042","kind":"peak","name":"Gråberga","lat":63.3297677,"lon":10.6881807,"elevationM":495},{"id":"node:2504815421","kind":"peak","name":"Litlheia","lat":63.3987742,"lon":10.2127976,"elevationM":485},{"id":"node:2508161362","kind":"peak","name":"Høvringberget","lat":63.443001,"lon":10.3270788,"elevationM":221},{"id":"node:2710876354","kind":"peak","name":"Rundheia","lat":63.4135258,"lon":10.2200988,"elevationM":498},{"id":"node:2746307914","kind":"peak","name":"Storvåttån","lat":63.6862243,"lon":10.6591578,"elevationM":null},{"id":"node:2810766207","kind":"peak","name":"Våttan","lat":63.4821239,"lon":10.8225936,"elevationM":240},{"id":"node:3013040432","kind":"peak","name":"Revberget","lat":63.4292698,"lon":10.2669745,"elevationM":400},{"id":"node:3013041033","kind":"peak","name":"Tjuvsprangfjellet","lat":63.4272563,"lon":10.2755228,"elevationM":377},{"id":"node:3018242861","kind":"peak","name":"Hangervåttån","lat":63.3792899,"lon":10.0830518,"elevationM":272},{"id":"node:3309397646","kind":"peak","name":"Steinberget","lat":63.422026,"lon":10.361828,"elevationM":null},{"id":"node:3380956976","kind":"peak","name":"Furuåsen","lat":63.2711235,"lon":10.3118929,"elevationM":311},{"id":"node:3826281765","kind":"peak","name":"Skardhaugen","lat":63.4394195,"lon":10.3380514,"elevationM":195},{"id":"node:4376864216","kind":"peak","name":"Gammelåsen","lat":63.2638587,"lon":10.3040493,"elevationM":347},{"id":"node:4453848686","kind":"peak","name":"Kneppen","lat":63.2658609,"lon":10.2180839,"elevationM":213},{"id":"node:4477900378","kind":"peak","name":"Vintervasshøgda","lat":63.4167844,"lon":10.2378577,"elevationM":446},{"id":"node:4694352723","kind":"peak","name":"Valdåsen","lat":63.1551138,"lon":10.2534424,"elevationM":null},{"id":"node:4694352733","kind":"peak","name":"Høgskarven","lat":63.1071154,"lon":10.3492447,"elevationM":585},{"id":"node:4706467793","kind":"peak","name":"Våttååsen","lat":63.1293502,"lon":10.1665749,"elevationM":null},{"id":"node:4706557653","kind":"peak","name":"Brandhaugen","lat":63.1673313,"lon":10.2775889,"elevationM":198},{"id":"node:4706641678","kind":"peak","name":"Råkvikkammen","lat":63.1900794,"lon":10.2489427,"elevationM":306},{"id":"node:4706642221","kind":"peak","name":"Bjørsetknippen","lat":63.194495,"lon":10.191734,"elevationM":428},{"id":"node:4706642222","kind":"peak","name":"Seteråsen","lat":63.1930618,"lon":10.1919302,"elevationM":423},{"id":"node:4706737513","kind":"peak","name":"Stabbursåsen","lat":63.1479635,"lon":10.0747217,"elevationM":null},{"id":"node:4726179807","kind":"peak","name":"Klevakamben","lat":63.1433686,"lon":10.1927222,"elevationM":362},{"id":"node:4726179808","kind":"peak","name":"Øster Klevakamben","lat":63.1429497,"lon":10.1951975,"elevationM":380},{"id":"node:4726202182","kind":"peak","name":"Litlstenen","lat":63.1481229,"lon":10.2932384,"elevationM":209},{"id":"node:4726220937","kind":"peak","name":"Høgstenen","lat":63.1427472,"lon":10.2952018,"elevationM":null},{"id":"node:4730539907","kind":"peak","name":"Vardfjellet","lat":63.0293297,"lon":10.2008274,"elevationM":707},{"id":"node:4731256896","kind":"peak","name":"Mannfjellet","lat":63.0436931,"lon":10.2389777,"elevationM":659},{"id":"node:4731336761","kind":"peak","name":"Annfinnfjellet","lat":63.0569379,"lon":10.752878,"elevationM":858},{"id":"node:4737568409","kind":"peak","name":"St. Olavsknippen","lat":63.133445,"lon":10.5739174,"elevationM":614},{"id":"node:4829346691","kind":"peak","name":"Raudåsberga","lat":63.1134534,"lon":10.2642421,"elevationM":332},{"id":"node:5033685068","kind":"peak","name":"Brannåsen","lat":63.2307561,"lon":10.3070784,"elevationM":315},{"id":"node:5111177762","kind":"peak","name":"Svartdalsfjellet","lat":63.4446316,"lon":10.2585704,"elevationM":null},{"id":"node:5250149200","kind":"peak","name":"Huåsen","lat":63.3772944,"lon":10.2005482,"elevationM":415},{"id":"node:5254132453","kind":"peak","name":"Våttåfjellet","lat":63.2895252,"lon":10.9604072,"elevationM":689},{"id":"node:5254132454","kind":"peak","name":"Gjøversalen","lat":63.3055505,"lon":10.9937095,"elevationM":664},{"id":"node:5254132455","kind":"peak","name":"Strandbyggfjellet","lat":63.2954465,"lon":10.9618663,"elevationM":666},{"id":"node:5254132456","kind":"peak","name":"Vennafjellet","lat":63.3111794,"lon":10.9379733,"elevationM":697},{"id":"node:5254138497","kind":"peak","name":"Gullsiberget","lat":63.3074686,"lon":10.5470198,"elevationM":537},{"id":"node:5254138498","kind":"peak","name":"Sjåvidthøgda","lat":63.3164796,"lon":10.6793546,"elevationM":506},{"id":"node:5254164912","kind":"peak","name":"Eggjafjellet","lat":63.1891023,"lon":10.7734679,"elevationM":780},{"id":"node:5254164913","kind":"peak","name":"Litjfjellet","lat":63.2795217,"lon":10.7929301,"elevationM":411},{"id":"node:5254164914","kind":"peak","name":"Oksfjellet","lat":63.2825608,"lon":10.7625675,"elevationM":474},{"id":"node:5254164915","kind":"peak","name":"Gåttåsfjellet","lat":63.2838052,"lon":10.7309818,"elevationM":467},{"id":"node:5654769828","kind":"peak","name":"Sæteråsen","lat":63.360738,"lon":10.4695915,"elevationM":380},{"id":"node:5839857683","kind":"peak","name":"Bjørnåsen","lat":63.3835502,"lon":10.4658194,"elevationM":354},{"id":"node:6426823882","kind":"peak","name":"Blyberget","lat":63.4205026,"lon":10.3512622,"elevationM":195},{"id":"node:6571101863","kind":"peak","name":"Litlheia","lat":63.6591992,"lon":10.8962383,"elevationM":356},{"id":"node:6622600628","kind":"peak","name":"Storknuppen","lat":63.9755223,"lon":10.2632292,"elevationM":245},{"id":"node:7083843922","kind":"peak","name":"Monstadfjellet","lat":63.9739396,"lon":10.1957702,"elevationM":231},{"id":"node:7831599755","kind":"peak","name":"Flakkheia","lat":63.4387555,"lon":10.2450138,"elevationM":454},{"id":"node:7928616581","kind":"peak","name":"Frøneshammaren","lat":63.9517508,"lon":10.189787,"elevationM":84},{"id":"node:8267421466","kind":"peak","name":"Skarpåsen","lat":63.3865098,"lon":10.7363263,"elevationM":315},{"id":"node:8534403606","kind":"peak","name":"Rundhaugen","lat":63.3448937,"lon":10.8514907,"elevationM":315},{"id":"node:8873257201","kind":"peak","name":"Hommelvikheia","lat":63.4270056,"lon":10.8586544,"elevationM":328},{"id":"node:9008739664","kind":"peak","name":"Storknuke","lat":63.7739642,"lon":10.8430183,"elevationM":503},{"id":"node:9104909265","kind":"peak","name":"Hemmerdalsheia","lat":63.536401,"lon":10.1163047,"elevationM":398},{"id":"node:9104909266","kind":"peak","name":"Storhaugen","lat":63.5395158,"lon":10.1495701,"elevationM":401},{"id":"node:9105596452","kind":"peak","name":"Kjerringklumpen","lat":63.6106682,"lon":10.3618656,"elevationM":601},{"id":"node:9105596557","kind":"peak","name":"Tovardan","lat":63.6064204,"lon":10.3387433,"elevationM":475},{"id":"node:9105596595","kind":"peak","name":"Tempelheia","lat":63.5863527,"lon":10.3028007,"elevationM":477},{"id":"node:9105596596","kind":"peak","name":"Aksnesklumpen","lat":63.5712134,"lon":10.2798631,"elevationM":545},{"id":"node:9126703141","kind":"peak","name":"Indianerhaugen","lat":63.3958013,"lon":10.4355343,"elevationM":null},{"id":"node:11536612076","kind":"peak","name":"Bykleivåsen","lat":63.3921416,"lon":10.1973858,"elevationM":439},{"id":"node:11536612077","kind":"peak","name":"Seksortklumpen","lat":63.8526488,"lon":10.111409,"elevationM":493},{"id":"node:11923648313","kind":"peak","name":"Forbordsåsen","lat":63.4185909,"lon":10.6624249,"elevationM":255},{"id":"node:11956525653","kind":"peak","name":"Ballfjellet","lat":63.1688963,"lon":10.4726529,"elevationM":566},{"id":"node:12078925269","kind":"peak","name":"Nonsåsen","lat":63.6790352,"lon":10.9974784,"elevationM":250},{"id":"node:12178283342","kind":"peak","name":"Brungfjellet","lat":63.2007261,"lon":10.5489194,"elevationM":637},{"id":"node:12334753287","kind":"peak","name":"Oldskora","lat":63.8467085,"lon":10.033129,"elevationM":416},{"id":"node:12336793984","kind":"peak","name":"Vikstein","lat":63.9804383,"lon":10.0130289,"elevationM":241},{"id":"node:12336793997","kind":"peak","name":"Kvenndalsfjellet","lat":63.9962612,"lon":10.1076424,"elevationM":407},{"id":"node:12336861615","kind":"peak","name":"Beniken","lat":63.9661964,"lon":10.0023468,"elevationM":187},{"id":"node:12336861616","kind":"peak","name":"Grøttingsfjellet","lat":63.984081,"lon":10.0337179,"elevationM":228},{"id":"node:12336861617","kind":"peak","name":"Solfjellet","lat":63.9800931,"lon":10.0422361,"elevationM":330},{"id":"node:12336861620","kind":"peak","name":"Vattenfjellet","lat":63.9747836,"lon":10.0232456,"elevationM":225},{"id":"node:12918187112","kind":"peak","name":"Kastbrekkåsen","lat":63.3861292,"lon":10.4529306,"elevationM":273},{"id":"node:13202468987","kind":"peak","name":"Storheia","lat":63.6608779,"lon":10.9166904,"elevationM":null},{"id":"node:13226801098","kind":"peak","name":"Ramnåsen","lat":63.610967,"lon":10.7880004,"elevationM":216},{"id":"node:13546768703","kind":"peak","name":"Bergan","lat":63.3957875,"lon":10.1612901,"elevationM":null},{"id":"node:13546804530","kind":"peak","name":"Storhaugen","lat":63.3956153,"lon":10.165232,"elevationM":null},{"id":"node:13546804531","kind":"peak","name":"Askhølbergan","lat":63.3963652,"lon":10.162187,"elevationM":null},{"id":"node:13546804532","kind":"peak","name":"Oljeberget","lat":63.3955374,"lon":10.1637716,"elevationM":null}]}