{"tileKey":"la_p22_lo_p111","version":"v1-1775891056926","entries":[{"id":"node:2364280522","kind":"peak","name":"朝先椅顶","lat":22.6304406,"lon":111.9606829,"elevationM":731},{"id":"node:2491905231","kind":"peak","name":"八排山","lat":22.4886515,"lon":111.6730684,"elevationM":1081},{"id":"node:2491905232","kind":"peak","name":"笔休尖","lat":22.4936919,"lon":111.5308599,"elevationM":760},{"id":"node:2491905234","kind":"peak","name":"石屋顶","lat":22.5274921,"lon":111.6197804,"elevationM":670},{"id":"node:2491905238","kind":"peak","name":"天子岭","lat":22.5915422,"lon":111.7612154,"elevationM":558},{"id":"node:3713058295","kind":"peak","name":"十二灶顶","lat":22.5631663,"lon":111.2070309,"elevationM":1331},{"id":"node:4454437090","kind":"peak","name":"马安山","lat":22.3841635,"lon":111.308138,"elevationM":null},{"id":"node:5064717495","kind":"peak","name":"龙须顶","lat":22.4977404,"lon":111.268607,"elevationM":null},{"id":"node:5064717630","kind":"peak","name":"五指肚","lat":22.5328645,"lon":111.2442399,"elevationM":1248},{"id":"node:5248044799","kind":"peak","name":"大云雾山","lat":22.7046068,"lon":111.9563351,"elevationM":1140},{"id":"node:5318273850","kind":"peak","name":"鹤岭","lat":22.1867993,"lon":111.9947982,"elevationM":null},{"id":"node:5566564412","kind":"peak","name":"大田顶","lat":22.2914297,"lon":111.2149037,"elevationM":1704},{"id":"node:5567872342","kind":"peak","name":"石尖顶","lat":22.3068246,"lon":111.2224751,"elevationM":1444},{"id":"node:5567872343","kind":"peak","name":"大水坑顶","lat":22.2638595,"lon":111.2030334,"elevationM":1493},{"id":"node:5567873909","kind":"peak","name":"炉塘顶","lat":22.2937523,"lon":111.2465259,"elevationM":1658},{"id":"node:5577729074","kind":"peak","name":"云盖大山","lat":22.6220845,"lon":111.1883483,"elevationM":1224},{"id":"node:5577729075","kind":"peak","name":"石牛肚","lat":22.5838165,"lon":111.1390042,"elevationM":1082},{"id":"node:5577729076","kind":"peak","name":"鸭兜山","lat":22.610913,"lon":111.1908374,"elevationM":1195},{"id":"node:5577753540","kind":"peak","name":"亚公髻","lat":22.2789451,"lon":111.2784279,"elevationM":1522},{"id":"node:5577753608","kind":"peak","name":"大雾顶","lat":22.2545029,"lon":111.2242472,"elevationM":1252},{"id":"node:5577766726","kind":"peak","name":"鑊耳肩","lat":22.3176595,"lon":111.2641201,"elevationM":1506},{"id":"node:5577766728","kind":"peak","name":"白马山(禾仓石)","lat":22.3109292,"lon":111.2724221,"elevationM":1432},{"id":"node:5577775409","kind":"peak","name":"棉被顶","lat":22.2692808,"lon":111.2652982,"elevationM":1627},{"id":"node:5577775411","kind":"peak","name":"高旱顶","lat":22.3084442,"lon":111.3045376,"elevationM":1064},{"id":"node:5587090109","kind":"peak","name":"大金山","lat":22.9607317,"lon":111.9763824,"elevationM":1086},{"id":"node:5598445168","kind":"peak","name":"竹篙山","lat":22.9909166,"lon":111.946901,"elevationM":643},{"id":"node:5598445171","kind":"peak","name":"五指山","lat":22.9550439,"lon":111.9929449,"elevationM":855},{"id":"node:5838192675","kind":"peak","name":"白花顶","lat":22.6568544,"lon":111.9988648,"elevationM":799},{"id":"node:5838221505","kind":"peak","name":"大旗尾顶","lat":22.6320326,"lon":111.9897002,"elevationM":493},{"id":"node:5838243333","kind":"peak","name":"沙帽岗","lat":22.6317029,"lon":111.9807384,"elevationM":270},{"id":"node:5838243336","kind":"peak","name":"石狗岭","lat":22.6094269,"lon":111.9260997,"elevationM":563},{"id":"node:5838243340","kind":"peak","name":"婆计尖","lat":22.6142067,"lon":111.9461261,"elevationM":498},{"id":"node:5838243350","kind":"peak","name":"公仔头","lat":22.6360471,"lon":111.9653243,"elevationM":643},{"id":"node:5838243352","kind":"peak","name":"狗耳栋","lat":22.6247441,"lon":111.9385151,"elevationM":722},{"id":"node:5838246975","kind":"peak","name":"云社尖","lat":22.5930502,"lon":111.9051999,"elevationM":596},{"id":"node:5838246976","kind":"peak","name":"癞痢头","lat":22.5778346,"lon":111.8969001,"elevationM":427},{"id":"node:5839921506","kind":"peak","name":"长岗龙顶","lat":22.5792716,"lon":111.8337062,"elevationM":391},{"id":"node:5839921507","kind":"peak","name":"茅坪顶","lat":22.5533004,"lon":111.7768584,"elevationM":457},{"id":"node:5839921508","kind":"peak","name":"石膏顶","lat":22.5076095,"lon":111.7784312,"elevationM":620},{"id":"node:5839921509","kind":"peak","name":"分炎顶","lat":22.5638424,"lon":111.8225182,"elevationM":301},{"id":"node:5839921510","kind":"peak","name":"鸡冠山","lat":22.503737,"lon":111.7427536,"elevationM":765},{"id":"node:5839921511","kind":"peak","name":"鸡头岭","lat":22.4866746,"lon":111.7206371,"elevationM":678},{"id":"node:5839921512","kind":"peak","name":"大脊顶","lat":22.4924744,"lon":111.6932887,"elevationM":801},{"id":"node:5839921513","kind":"peak","name":"风相顶","lat":22.5424404,"lon":111.8026634,"elevationM":425},{"id":"node:5839921514","kind":"peak","name":"灯盏托","lat":22.5357021,"lon":111.7863834,"elevationM":445},{"id":"node:5839921515","kind":"peak","name":"大风顶","lat":22.5532489,"lon":111.8275242,"elevationM":356},{"id":"node:5839921516","kind":"peak","name":"笔架顶","lat":22.4754981,"lon":111.710449,"elevationM":719},{"id":"node:5839921517","kind":"peak","name":"猪牛岭","lat":22.5331652,"lon":111.7522529,"elevationM":437},{"id":"node:5839921518","kind":"peak","name":"婆髻顶","lat":22.5123987,"lon":111.7397452,"elevationM":667},{"id":"node:5839942984","kind":"peak","name":"五点梅","lat":22.4492555,"lon":111.67902,"elevationM":825},{"id":"node:5839943091","kind":"peak","name":"双髻顶","lat":22.4166327,"lon":111.6896544,"elevationM":646},{"id":"node:5839943278","kind":"peak","name":"牛角尖","lat":22.4371696,"lon":111.6890536,"elevationM":722},{"id":"node:5840650359","kind":"peak","name":"油麻岗","lat":22.5738761,"lon":111.9884889,"elevationM":381},{"id":"node:5840661885","kind":"peak","name":"白石顶","lat":22.5046353,"lon":111.6370088,"elevationM":649},{"id":"node:5840661886","kind":"peak","name":"石山顶","lat":22.5122235,"lon":111.644961,"elevationM":669},{"id":"node:5840667297","kind":"peak","name":"狮子顶","lat":22.4827324,"lon":111.6285244,"elevationM":548},{"id":"node:5840667301","kind":"peak","name":"埇暗顶","lat":22.5094028,"lon":111.5989,"elevationM":375},{"id":"node:5840668717","kind":"peak","name":"梅子顶","lat":22.4359848,"lon":111.6510721,"elevationM":837},{"id":"node:5843090675","kind":"peak","name":"小云雾山","lat":22.7104007,"lon":111.9045931,"elevationM":591},{"id":"node:5843090676","kind":"peak","name":"大山尾","lat":22.7258669,"lon":111.9053355,"elevationM":539},{"id":"node:5843328538","kind":"peak","name":"石仁顶","lat":22.5504104,"lon":111.7139499,"elevationM":584},{"id":"node:5843328539","kind":"peak","name":"飞天马","lat":22.5762494,"lon":111.73721,"elevationM":653},{"id":"node:5843354956","kind":"peak","name":"白石顶","lat":22.33625,"lon":111.6306504,"elevationM":723},{"id":"node:5843354957","kind":"peak","name":"大王顶","lat":22.3426011,"lon":111.6593693,"elevationM":727},{"id":"node:5843354958","kind":"peak","name":"石狗顶","lat":22.35562,"lon":111.6669224,"elevationM":601},{"id":"node:5843354959","kind":"peak","name":"塔树顶","lat":22.3743563,"lon":111.6365942,"elevationM":882},{"id":"node:5843354960","kind":"peak","name":"铸银顶","lat":22.3921299,"lon":111.644718,"elevationM":726},{"id":"node:5843358997","kind":"peak","name":"鸡春顶","lat":22.2961261,"lon":111.6518484,"elevationM":504},{"id":"node:5843358998","kind":"peak","name":"婆髻顶","lat":22.3025485,"lon":111.6499709,"elevationM":557},{"id":"node:5843376546","kind":"peak","name":"笔架山","lat":22.3746918,"lon":111.5810579,"elevationM":1159},{"id":"node:5843376547","kind":"peak","name":"花楼顶","lat":22.3893285,"lon":111.5562609,"elevationM":1062},{"id":"node:5843376566","kind":"peak","name":"食老米顶","lat":22.3493965,"lon":111.5611876,"elevationM":807},{"id":"node:5843377301","kind":"peak","name":"沙帽顶","lat":22.3292634,"lon":111.5802935,"elevationM":790},{"id":"node:5843377316","kind":"peak","name":"犁壁顶","lat":22.3782487,"lon":111.5661123,"elevationM":1015},{"id":"node:5843377322","kind":"peak","name":"林洲顶","lat":22.4002351,"lon":111.6027936,"elevationM":1008},{"id":"node:5844095132","kind":"peak","name":"杨桂顶","lat":22.3160468,"lon":111.5478352,"elevationM":966},{"id":"node:5844095133","kind":"peak","name":"耀婆斗山","lat":22.2970962,"lon":111.5576799,"elevationM":808},{"id":"node:5844095134","kind":"peak","name":"石船顶","lat":22.3704143,"lon":111.5412472,"elevationM":1197},{"id":"node:5844904322","kind":"peak","name":"望牛顶","lat":22.4263112,"lon":111.5373706,"elevationM":490},{"id":"node:5867248993","kind":"peak","name":"马槽岗","lat":22.4052811,"lon":111.5291409,"elevationM":714},{"id":"node:5867248994","kind":"peak","name":"通天蜡","lat":22.4370022,"lon":111.5188326,"elevationM":586},{"id":"node:5867248995","kind":"peak","name":"牙英尖","lat":22.3489858,"lon":111.5227336,"elevationM":963},{"id":"node:5867248996","kind":"peak","name":"三甲顶","lat":22.3684572,"lon":111.512833,"elevationM":1211},{"id":"node:5867248997","kind":"peak","name":"大蛤塘","lat":22.4617777,"lon":111.5311686,"elevationM":626},{"id":"node:5867248998","kind":"peak","name":"高山顶","lat":22.4600307,"lon":111.5197596,"elevationM":580},{"id":"node:5867248999","kind":"peak","name":"独望顶","lat":22.3561301,"lon":111.5075673,"elevationM":1062},{"id":"node:5867251044","kind":"peak","name":"山坪顶","lat":22.3223342,"lon":111.5272268,"elevationM":926},{"id":"node:5867264586","kind":"peak","name":"三尖","lat":22.258348,"lon":111.4795651,"elevationM":900},{"id":"node:5867264587","kind":"peak","name":"尖峰顶","lat":22.2457967,"lon":111.5062284,"elevationM":698},{"id":"node:5867264588","kind":"peak","name":"锅盖顶","lat":22.2532641,"lon":111.4882039,"elevationM":913},{"id":"node:5867264590","kind":"peak","name":"朴子坑顶","lat":22.2290771,"lon":111.5159787,"elevationM":774},{"id":"node:5867315813","kind":"peak","name":"石人仔","lat":22.2462575,"lon":111.5874414,"elevationM":599},{"id":"node:5867315829","kind":"peak","name":"大凹顶","lat":22.2356158,"lon":111.5464701,"elevationM":560},{"id":"node:5867316197","kind":"peak","name":"娘坑","lat":22.2374272,"lon":111.5133823,"elevationM":532},{"id":"node:5867339947","kind":"peak","name":"乌石古","lat":22.1955802,"lon":111.6110577,"elevationM":740},{"id":"node:5867339965","kind":"peak","name":"旗鼓岭","lat":22.0842774,"lon":111.5790128,"elevationM":481},{"id":"node:5867341129","kind":"peak","name":"蕉山顶","lat":22.2033761,"lon":111.5974578,"elevationM":514},{"id":"node:5867341175","kind":"peak","name":"何包岭","lat":22.2143937,"lon":111.5899648,"elevationM":392},{"id":"node:5867341184","kind":"peak","name":"鹦鹉岭","lat":22.1448768,"lon":111.5958528,"elevationM":561},{"id":"node:5867353296","kind":"peak","name":"大坡岭","lat":22.1260461,"lon":111.5370373,"elevationM":297},{"id":"node:5867353306","kind":"peak","name":"高田尖","lat":22.1004496,"lon":111.5341534,"elevationM":511},{"id":"node:5867353308","kind":"peak","name":"茶亭","lat":22.1142464,"lon":111.5178155,"elevationM":235},{"id":"node:5867353312","kind":"peak","name":"黄竹嶂","lat":22.1128548,"lon":111.5563535,"elevationM":464},{"id":"node:5867353317","kind":"peak","name":"龙湾嶂","lat":22.0666755,"lon":111.529806,"elevationM":387},{"id":"node:5867353322","kind":"peak","name":"大王山顶","lat":22.0847546,"lon":111.5261969,"elevationM":401},{"id":"node:5867361093","kind":"peak","name":"红火嶂","lat":22.1732274,"lon":111.560954,"elevationM":602},{"id":"node:5867361094","kind":"peak","name":"尖峰岭","lat":22.1351179,"lon":111.5085501,"elevationM":342},{"id":"node:5867361095","kind":"peak","name":"梅花嶂","lat":22.2175561,"lon":111.5503024,"elevationM":734},{"id":"node:5867361096","kind":"peak","name":"天堂顶","lat":22.1612964,"lon":111.5519461,"elevationM":485},{"id":"node:5867361098","kind":"peak","name":"耀婆亦","lat":22.1856183,"lon":111.5434789,"elevationM":594},{"id":"node:5867361099","kind":"peak","name":"大岭","lat":22.1447536,"lon":111.5503754,"elevationM":353},{"id":"node:7114033264","kind":"peak","name":"甲凹","lat":22.2763113,"lon":111.4230899,"elevationM":745},{"id":"node:7114033265","kind":"peak","name":"雷公山","lat":22.2786362,"lon":111.4292646,"elevationM":756},{"id":"node:7114033266","kind":"peak","name":"犁标坳","lat":22.2751685,"lon":111.4436084,"elevationM":747},{"id":"node:7114033267","kind":"peak","name":"黄凿顶","lat":22.2733794,"lon":111.4547417,"elevationM":1030},{"id":"node:8354040409","kind":"peak","name":"三叉顶","lat":22.4505235,"lon":111.4166496,"elevationM":1010},{"id":"node:8554105032","kind":"peak","name":"鸡冠顶","lat":22.2183075,"lon":111.2523007,"elevationM":1174},{"id":"node:8554105033","kind":"peak","name":"天花顶","lat":22.2290488,"lon":111.2608891,"elevationM":1240},{"id":"node:8693582664","kind":"peak","name":"铜鼓顶","lat":22.2151305,"lon":111.2303716,"elevationM":770},{"id":"node:9212216598","kind":"peak","name":"大王岭","lat":22.0785116,"lon":111.1370945,"elevationM":null},{"id":"node:11629858782","kind":"peak","name":"大雾岭顶","lat":22.262387,"lon":111.1505788,"elevationM":1423},{"id":"node:12987910710","kind":"peak","name":"鸡笼顶","lat":22.250605,"lon":111.383548,"elevationM":1281},{"id":"node:13032458646","kind":"peak","name":"槟榔顶","lat":22.3417098,"lon":111.4884389,"elevationM":723},{"id":"node:13367376042","kind":"peak","name":"石镬顶","lat":22.3299999,"lon":111.251105,"elevationM":null},{"id":"node:13367377843","kind":"peak","name":"横岗山","lat":22.316138,"lon":111.2555207,"elevationM":null},{"id":"node:13367378121","kind":"peak","name":"雷鸣顶","lat":22.3145469,"lon":111.2782086,"elevationM":null},{"id":"node:13367378896","kind":"peak","name":"溜头顶","lat":22.3210888,"lon":111.2945763,"elevationM":null},{"id":"node:13381422807","kind":"peak","name":"旧屋背","lat":22.2950609,"lon":111.2332655,"elevationM":null},{"id":"node:13381422910","kind":"peak","name":"竹园顶","lat":22.3597277,"lon":111.2230098,"elevationM":null},{"id":"node:13381423067","kind":"peak","name":"蓝湖根","lat":22.3077454,"lon":111.2461058,"elevationM":null},{"id":"node:13381423678","kind":"peak","name":"石脚顶","lat":22.3928453,"lon":111.2110598,"elevationM":null},{"id":"node:13381424486","kind":"peak","name":"将军戴铁帽","lat":22.3309194,"lon":111.2426766,"elevationM":null},{"id":"node:13381424596","kind":"peak","name":"尖峰顶","lat":22.3102902,"lon":111.2373297,"elevationM":null},{"id":"node:13381425007","kind":"peak","name":"高垠顶","lat":22.2998603,"lon":111.2376976,"elevationM":null},{"id":"node:13381425231","kind":"peak","name":"阿婆髻","lat":22.33687,"lon":111.241066,"elevationM":null},{"id":"node:13381425233","kind":"peak","name":"高寨顶","lat":22.3230652,"lon":111.2558623,"elevationM":null},{"id":"node:13434348816","kind":"peak","name":"石堆顶","lat":22.3734861,"lon":111.5844349,"elevationM":null}]}