{"tileKey":"la_p15_lo_p29","version":"v1-1775891056926","entries":[{"id":"node:7731291491","kind":"peak","name":"Qal‘at Umm Qunaybir","lat":15.2156008,"lon":29.5419546,"elevationM":null},{"id":"node:7731291517","kind":"peak","name":"Jabal Sada","lat":15.2557087,"lon":29.7490459,"elevationM":611},{"id":"node:7731291519","kind":"peak","name":"Jabal Nuşayb an Na‘ām","lat":15.916667,"lon":29.416667,"elevationM":null},{"id":"node:7731291549","kind":"peak","name":"Jabal al Dirar","lat":15.3,"lon":29.25,"elevationM":null},{"id":"node:7731291558","kind":"peak","name":"Jabal Ḩamdīn Umm Qawz","lat":15.6367493,"lon":29.3385197,"elevationM":null},{"id":"node:7731291559","kind":"peak","name":"Jabal Barkol","lat":15.7122728,"lon":29.1531252,"elevationM":null},{"id":"node:7731291560","kind":"peak","name":"Jabal al Erbit","lat":15.0589156,"lon":29.3653374,"elevationM":733},{"id":"node:7731291561","kind":"peak","name":"Nuşub al Khayl","lat":15.0527209,"lon":29.2667036,"elevationM":661},{"id":"node:7731292794","kind":"peak","name":"Jabal Kideimir","lat":15.0308544,"lon":29.7075081,"elevationM":687},{"id":"node:7731293113","kind":"peak","name":"Jabal al Ḩursh","lat":15.6,"lon":29.983333,"elevationM":null},{"id":"node:7731293114","kind":"peak","name":"Karab Ummāt Guffan","lat":15.9,"lon":29.266667,"elevationM":null},{"id":"node:7731293120","kind":"peak","name":"Jabal Umm Qa‘b","lat":15.551546,"lon":29.8354123,"elevationM":524},{"id":"node:7731293121","kind":"peak","name":"Quraywid ar Ra’l","lat":15.1981872,"lon":29.9264942,"elevationM":543},{"id":"node:7731293125","kind":"peak","name":"Jabal ‘Irq aţ Ţabaqah","lat":15.0728588,"lon":29.5184872,"elevationM":786},{"id":"node:9799287613","kind":"peak","name":"Jebel Galatat","lat":15.5565828,"lon":29.066014,"elevationM":null},{"id":"node:9799287614","kind":"peak","name":"Zalat Abu La'ot","lat":15.5005304,"lon":29.0631106,"elevationM":null},{"id":"node:9804344512","kind":"peak","name":"Jebel Abu La'ot","lat":15.338411,"lon":29.0121651,"elevationM":null},{"id":"node:9820159274","kind":"peak","name":"Ed Dirrad","lat":15.0766646,"lon":29.0557681,"elevationM":null},{"id":"node:9820342376","kind":"peak","name":"Jebel Sireig","lat":15.054314,"lon":29.1958397,"elevationM":null},{"id":"node:9870646400","kind":"peak","name":"Jebel Umm Rubeig","lat":15.524977,"lon":29.6792907,"elevationM":null},{"id":"node:9870646401","kind":"peak","name":"Jebel Umm Qussa","lat":15.392763,"lon":29.6977464,"elevationM":null},{"id":"node:9870646402","kind":"peak","name":"Jebel Hiss","lat":15.3887072,"lon":29.6783027,"elevationM":null},{"id":"node:9870646403","kind":"peak","name":"Jebel Umm Adhara","lat":15.3562088,"lon":29.6937917,"elevationM":null},{"id":"node:9870646404","kind":"peak","name":"Nasib el Gelli","lat":15.3113705,"lon":29.6833149,"elevationM":null},{"id":"node:9881374687","kind":"peak","name":"Jebel Atha Ricer","lat":15.0143518,"lon":29.572202,"elevationM":null},{"id":"node:9881374688","kind":"peak","name":"Jebel Abu Gofan","lat":15.0604811,"lon":29.8058296,"elevationM":null},{"id":"node:9881374710","kind":"peak","name":"Qal'a Gamila","lat":15.0150804,"lon":29.9764644,"elevationM":null},{"id":"node:9887867510","kind":"peak","name":"Jebel Amurad","lat":15.0817984,"lon":29.6748582,"elevationM":null},{"id":"node:9887878459","kind":"peak","name":"Qal'at 'Idd el Markh","lat":15.2208435,"lon":29.7233962,"elevationM":null},{"id":"node:9887878460","kind":"peak","name":"Zalat Wad er Ril","lat":15.1717031,"lon":29.7295503,"elevationM":null},{"id":"node:9887879144","kind":"peak","name":"Nasib el Gaw","lat":15.1512704,"lon":29.5644221,"elevationM":null},{"id":"node:9887879145","kind":"peak","name":"Nasib el Halfa","lat":15.156932,"lon":29.5065028,"elevationM":null},{"id":"node:9887879231","kind":"peak","name":"Jebel Sa'd es Serir","lat":15.262016,"lon":29.4732243,"elevationM":null},{"id":"node:9887879232","kind":"peak","name":"Jebel Sa'd es Sughaiyir","lat":15.2935781,"lon":29.4950236,"elevationM":null},{"id":"node:9887879233","kind":"peak","name":"Qalat et Turuk","lat":15.2618924,"lon":29.5312215,"elevationM":null},{"id":"node:9890273436","kind":"peak","name":"Nasib el Bahm","lat":15.2490851,"lon":29.3792218,"elevationM":null},{"id":"node:9890273437","kind":"peak","name":"Jebel ed Dirar","lat":15.2754082,"lon":29.2300422,"elevationM":null},{"id":"node:9890273692","kind":"peak","name":"Jebel Umm Usum","lat":15.5104558,"lon":29.3564798,"elevationM":null},{"id":"node:9890273693","kind":"peak","name":"Jebel Umm Rob","lat":15.5800628,"lon":29.2595094,"elevationM":null},{"id":"node:9890273704","kind":"peak","name":"Jebel Wad Id","lat":15.7411767,"lon":29.3465534,"elevationM":null},{"id":"node:9890273705","kind":"peak","name":"Nuseib en Na'am","lat":15.7396138,"lon":29.4606967,"elevationM":null},{"id":"node:9890273706","kind":"peak","name":"Jebel Gur","lat":15.8265166,"lon":29.6020893,"elevationM":null},{"id":"node:9890273707","kind":"peak","name":"Jebel Nusub en Na'am","lat":15.9654534,"lon":29.473942,"elevationM":null},{"id":"node:9890273708","kind":"peak","name":"Qal'at el Gafla","lat":15.9801792,"lon":29.4052044,"elevationM":null},{"id":"node:9890273709","kind":"peak","name":"Karab Ummat Guffan","lat":15.9434026,"lon":29.2395688,"elevationM":518},{"id":"node:9890273712","kind":"peak","name":"Jebel Dahiman","lat":15.9982049,"lon":29.6435402,"elevationM":null},{"id":"node:9890273716","kind":"peak","name":"Karabat et Tin (Mereimia)","lat":15.6599936,"lon":29.782309,"elevationM":null},{"id":"node:9890273773","kind":"peak","name":"Jebel el Hursh","lat":15.586394,"lon":29.9681532,"elevationM":null},{"id":"node:9890273774","kind":"peak","name":"Jebel el Figheigh","lat":15.4507793,"lon":29.9584737,"elevationM":null}]}