{"tileKey":"la_p20_lo_p104","version":"v1-1775891056926","entries":[{"id":"node:446043766","kind":"peak","name":"đỉnh dốc","lat":20.715873,"lon":104.98703,"elevationM":null},{"id":"node:560066339","kind":"peak","name":"San Khantot","lat":20.0853821,"lon":104.022712,"elevationM":1345},{"id":"node:560066512","kind":"peak","name":"Phou Long","lat":20.470278,"lon":104.376667,"elevationM":1201},{"id":"node:4655295495","kind":"peak","name":"Núi Pu Hu Luông","lat":20.4968634,"lon":104.8706415,"elevationM":1441},{"id":"node:4655295496","kind":"peak","name":"Núi Hóc","lat":20.5616647,"lon":104.87441,"elevationM":1424},{"id":"node:4842802721","kind":"peak","name":"Núi Pha Luông","lat":20.6727256,"lon":104.6346179,"elevationM":1880},{"id":"node:5474511440","kind":"peak","name":"ພູເວງ","lat":20.192887,"lon":104.2162421,"elevationM":null},{"id":"node:11699208361","kind":"peak","name":"Núi Hang Kia","lat":20.7366496,"lon":104.8833418,"elevationM":1483}]}