{"tileKey":"la_p28_lo_p42","version":"v1-1775891056926","entries":[{"id":"node:1237534366","kind":"peak","name":"جبل الجبيل","lat":28.4997684,"lon":42.8715123,"elevationM":null},{"id":"node:1237534549","kind":"peak","name":"شعفة ام الشنين","lat":28.446951,"lon":42.7992285,"elevationM":null},{"id":"node:1237534721","kind":"peak","name":"جبيلة","lat":28.594722,"lon":42.5075,"elevationM":null},{"id":"node:1237536570","kind":"peak","name":"سادة الحناتين","lat":28.700538,"lon":42.787536,"elevationM":null},{"id":"node:1237537186","kind":"peak","name":"قارة الخشمة","lat":28.82997,"lon":42.429359,"elevationM":null},{"id":"node:1237537628","kind":"peak","name":"طعيس الصفيح","lat":28.8727349,"lon":42.2781175,"elevationM":null},{"id":"node:1237538137","kind":"peak","name":"قارة الخشيمة","lat":28.84777,"lon":42.515886,"elevationM":null},{"id":"node:1237538240","kind":"peak","name":"شعاف الطينيات","lat":28.738587,"lon":42.805728,"elevationM":null},{"id":"node:1237538960","kind":"peak","name":"مكيمن الخرش","lat":28.918722,"lon":42.985357,"elevationM":null},{"id":"node:1237538999","kind":"peak","name":"قارة عنيزة","lat":28.919311,"lon":42.411376,"elevationM":null},{"id":"node:1237539025","kind":"peak","name":"سادة المندس","lat":28.898223,"lon":42.203941,"elevationM":null},{"id":"node:1237539190","kind":"peak","name":"شعفة الضلعانية","lat":28.985754,"lon":42.64899,"elevationM":null},{"id":"node:11870048249","kind":"peak","name":"الأشياخ","lat":28.7623142,"lon":42.4947008,"elevationM":null},{"id":"node:11870275798","kind":"peak","name":"الخليفية","lat":28.834152,"lon":42.8380244,"elevationM":null},{"id":"node:11870939705","kind":"peak","name":"الونديه أم بئر","lat":28.1817917,"lon":42.7833964,"elevationM":null},{"id":"node:11870950676","kind":"peak","name":"أبرق حصان","lat":28.8134361,"lon":42.1781652,"elevationM":null},{"id":"node:11870951223","kind":"peak","name":"العرتابة","lat":28.1776574,"lon":42.9279573,"elevationM":null},{"id":"node:11871306930","kind":"peak","name":"الوندية ام طعيس","lat":28.0902507,"lon":42.8531112,"elevationM":null},{"id":"node:11871651769","kind":"peak","name":"الوندية ام عاذر","lat":28.1215898,"lon":42.8361656,"elevationM":null},{"id":"node:11871754936","kind":"peak","name":"جبال جبلة","lat":28.6357554,"lon":42.6616489,"elevationM":null}]}