{"tileKey":"la_p15_lo_p120","version":"v1-1775891056926","entries":[{"id":"node:332021777","kind":"peak","name":"Bolja Peak","lat":15.533333,"lon":120,"elevationM":null},{"id":"node:319478140","kind":"volcano","name":"Mount Pinatubo","lat":15.1445564,"lon":120.3490617,"elevationM":1445},{"id":"node:319588221","kind":"peak","name":"South Peak","lat":15.1965737,"lon":120.7434961,"elevationM":970},{"id":"node:319588234","kind":"volcano","name":"Bangcay","lat":15.7833333,"lon":120.7333333,"elevationM":406},{"id":"node:319588300","kind":"volcano","name":"Burgos","lat":15.8228874,"lon":120.8687344,"elevationM":130},{"id":"node:319588303","kind":"volcano","name":"Cabaluyan","lat":15.7,"lon":120.3333333,"elevationM":285},{"id":"node:319588306","kind":"volcano","name":"Mount Poclis","lat":15.6971272,"lon":120.3225089,"elevationM":280},{"id":"node:319588323","kind":"volcano","name":"Cgndong","lat":15.7083333,"lon":120.3333333,"elevationM":164},{"id":"node:319588330","kind":"volcano","name":"Mount Cuyapo","lat":15.7974493,"lon":120.6640363,"elevationM":240},{"id":"node:320129547","kind":"volcano","name":"Limlingan","lat":15.7833333,"lon":120.875,"elevationM":135},{"id":"node:320129565","kind":"volcano","name":"Malabobo","lat":15.7166667,"lon":120.3,"elevationM":329},{"id":"node:332018865","kind":"peak","name":"Mount Patugo","lat":15.37473,"lon":120.0611706,"elevationM":772},{"id":"node:332018887","kind":"peak","name":"Mount Regal","lat":15.866389,"lon":120.988611,"elevationM":null},{"id":"node:332018936","kind":"peak","name":"Mount Williams","lat":15.868611,"lon":120.970278,"elevationM":578},{"id":"node:332019002","kind":"peak","name":"Mount Mulbao","lat":15.275833,"lon":120.140278,"elevationM":null},{"id":"node:332019035","kind":"peak","name":"Mount Cabaluyan","lat":15.6946893,"lon":120.3290461,"elevationM":285},{"id":"node:332019040","kind":"peak","name":"Mount Cardoues","lat":15.74796,"lon":120.090068,"elevationM":795},{"id":"node:332019062","kind":"peak","name":"Mount Dome","lat":15.3317562,"lon":120.1828522,"elevationM":1340},{"id":"node:332019176","kind":"peak","name":"Mount Piluca","lat":15.058889,"lon":120.220556,"elevationM":560},{"id":"node:332019232","kind":"peak","name":"Mount Balitog","lat":15.0244545,"lon":120.3307795,"elevationM":1057},{"id":"node:332019288","kind":"peak","name":"Mount Mobanghil","lat":15.233333,"lon":120.1,"elevationM":null},{"id":"node:332019338","kind":"peak","name":"Mount Nonoy","lat":15.866667,"lon":120.25,"elevationM":null},{"id":"node:332019388","kind":"peak","name":"Mount Pundillo Ni Luna","lat":15.195556,"lon":120.198611,"elevationM":null},{"id":"node:332019429","kind":"peak","name":"Mount Quimalagong","lat":15.0773872,"lon":120.1074027,"elevationM":325},{"id":"node:332019431","kind":"peak","name":"Mount Cutuno","lat":15.119722,"lon":120.483333,"elevationM":null},{"id":"node:332019438","kind":"peak","name":"Mount Cunonoyo","lat":15.1871804,"lon":120.0911985,"elevationM":465},{"id":"node:332019466","kind":"peak","name":"Mount Cagubay","lat":15.85,"lon":120.233333,"elevationM":null},{"id":"node:332019471","kind":"peak","name":"North Peak","lat":15.2051885,"lon":120.7427214,"elevationM":1020},{"id":"node:332019487","kind":"peak","name":"Binawawan Mountain","lat":15.1225,"lon":120.1475,"elevationM":null},{"id":"node:332019542","kind":"peak","name":"Mount Quimalogong","lat":15.1499563,"lon":120.1453285,"elevationM":935},{"id":"node:332019544","kind":"peak","name":"Mount Tapulao","lat":15.4810236,"lon":120.1213071,"elevationM":2034},{"id":"node:332019644","kind":"peak","name":"Mount Santa Cruz","lat":15.147222,"lon":120.093611,"elevationM":400},{"id":"node:332019693","kind":"peak","name":"Mount Masinloc","lat":15.534722,"lon":120.026944,"elevationM":null},{"id":"node:332019773","kind":"peak","name":"Cabaruan Hills","lat":15.933333,"lon":120.5,"elevationM":null},{"id":"node:332019786","kind":"peak","name":"Mount Cawayen","lat":15.2025,"lon":120.157222,"elevationM":null},{"id":"node:332019803","kind":"peak","name":"Mount Naparel","lat":15.2189851,"lon":120.1077375,"elevationM":675},{"id":"node:332019832","kind":"peak","name":"Bear Peak","lat":15.234722,"lon":120.099722,"elevationM":null},{"id":"node:332019867","kind":"peak","name":"Mount Balungao","lat":15.862778,"lon":120.683333,"elevationM":382},{"id":"node:332019987","kind":"peak","name":"Mount Labañgan","lat":15.078333,"lon":120.139722,"elevationM":345},{"id":"node:332020001","kind":"peak","name":"Pamalingpingan Mountain","lat":15.125556,"lon":120.103889,"elevationM":null},{"id":"node:332020007","kind":"peak","name":"Mount Pimmayong","lat":15.030278,"lon":120.180278,"elevationM":657},{"id":"node:332020010","kind":"peak","name":"Mount Real","lat":15.9333211,"lon":120.933333,"elevationM":1008},{"id":"node:332020025","kind":"peak","name":"Nagdayap Mountain","lat":15.130833,"lon":120.169167,"elevationM":942},{"id":"node:332020126","kind":"peak","name":"Mount Binalayan","lat":15.317778,"lon":120.0525,"elevationM":null},{"id":"node:332020156","kind":"peak","name":"Mount Bakil","lat":15.560278,"lon":120.009444,"elevationM":412},{"id":"node:332020195","kind":"peak","name":"Mount Maquineng","lat":15.072778,"lon":120.190833,"elevationM":784},{"id":"node:332020263","kind":"peak","name":"Mount Pera","lat":15.279167,"lon":120.166944,"elevationM":null},{"id":"node:332020348","kind":"peak","name":"Mount Dorst","lat":15.1353835,"lon":120.4326988,"elevationM":829},{"id":"node:332020491","kind":"peak","name":"Mount Sawtooth","lat":15.441389,"lon":120.151389,"elevationM":1653},{"id":"node:332020564","kind":"peak","name":"Coto Hill","lat":15.5618507,"lon":120.0873885,"elevationM":null},{"id":"node:332020577","kind":"peak","name":"Mount Natalisbong","lat":15.770556,"lon":120.011944,"elevationM":null},{"id":"node:332020579","kind":"peak","name":"Mount Mangkirat","lat":15.324722,"lon":120.150278,"elevationM":null},{"id":"node:332020605","kind":"peak","name":"Moraza Hill","lat":15.1501482,"lon":120.2500376,"elevationM":null},{"id":"node:332020633","kind":"peak","name":"Mount Lanitoc","lat":15.299444,"lon":120.158611,"elevationM":null},{"id":"node:332020660","kind":"peak","name":"Mount Iba","lat":15.363889,"lon":120.169167,"elevationM":1655},{"id":"node:332020665","kind":"peak","name":"Mount Gata","lat":15.260556,"lon":120.320833,"elevationM":null},{"id":"node:332020692","kind":"peak","name":"Mount Negron","lat":15.0928842,"lon":120.3680854,"elevationM":1580},{"id":"node:332020758","kind":"peak","name":"Mount Amorong","lat":15.837778,"lon":120.806389,"elevationM":376},{"id":"node:332020763","kind":"peak","name":"Mount Lunitan","lat":15.1623238,"lon":120.1735364,"elevationM":1290},{"id":"node:332020781","kind":"peak","name":"Mount Gates","lat":15.426944,"lon":120.314722,"elevationM":null},{"id":"node:332020787","kind":"peak","name":"Mount McDonald","lat":15.1260533,"lon":120.3690393,"elevationM":1330},{"id":"node:332020827","kind":"peak","name":"Mount Cuadrado","lat":15.0317382,"lon":120.3593875,"elevationM":1324},{"id":"node:332020861","kind":"peak","name":"Mount Bagano","lat":15.0917194,"lon":120.2517413,"elevationM":null},{"id":"node:332020887","kind":"peak","name":"Mount Cahapatan","lat":15.319506,"lon":120.184069,"elevationM":1016},{"id":"node:332020891","kind":"peak","name":"Mount Botolan","lat":15.233611,"lon":120.043056,"elevationM":561},{"id":"node:332020935","kind":"peak","name":"Mount Lanat","lat":15.647778,"lon":120.039722,"elevationM":1030},{"id":"node:332020952","kind":"peak","name":"Mount Malabobo","lat":15.7187023,"lon":120.309402,"elevationM":null},{"id":"node:332020955","kind":"peak","name":"Mount Munti","lat":15.252778,"lon":120.065,"elevationM":null},{"id":"node:332020970","kind":"peak","name":"Mount Mangatarem","lat":15.890556,"lon":120.103889,"elevationM":595},{"id":"node:332021088","kind":"peak","name":"Mount Bagang","lat":15.0057775,"lon":120.2517525,"elevationM":300},{"id":"node:332021135","kind":"peak","name":"Mount Bangcay","lat":15.778889,"lon":120.733889,"elevationM":408},{"id":"node:332021227","kind":"peak","name":"Mount Payte","lat":15.045278,"lon":120.164722,"elevationM":690},{"id":"node:332021300","kind":"peak","name":"Mount Bunglo","lat":15.309722,"lon":120.113333,"elevationM":444},{"id":"node:332021321","kind":"peak","name":"Dalayap Hill","lat":15.566667,"lon":120.116667,"elevationM":null},{"id":"node:332021322","kind":"peak","name":"Mount San Isidro","lat":15.983333,"lon":120.116667,"elevationM":null},{"id":"node:332021399","kind":"peak","name":"Mount Catongohan","lat":15.239167,"lon":120.077778,"elevationM":665},{"id":"node:332021403","kind":"peak","name":"Mount Culianan","lat":15.205,"lon":120.188056,"elevationM":null},{"id":"node:1244999239","kind":"peak","name":"Mount Resurrection","lat":15.437016,"lon":120.4315408,"elevationM":null},{"id":"node:5236933506","kind":"peak","name":"minor peak","lat":15.8592826,"lon":120.6723091,"elevationM":243},{"id":"node:5269019421","kind":"peak","name":"Mount 387","lat":15.900298,"lon":120.9737706,"elevationM":777},{"id":"node:6512272489","kind":"peak","name":"Pinacle Peak","lat":15.1963942,"lon":120.746871,"elevationM":null},{"id":"node:10245481482","kind":"volcano","name":"Mount Arayat","lat":15.2012911,"lon":120.7431149,"elevationM":null},{"id":"node:11580502692","kind":"peak","name":"Mount Bueno","lat":15.3581389,"lon":120.4352403,"elevationM":260},{"id":"node:13040360660","kind":"peak","name":"Lito De Veterbo's Peak","lat":15.1239398,"lon":120.3383619,"elevationM":null}]}