{"tileKey":"la_p28_lo_p37","version":"v1-1775891056926","entries":[{"id":"node:3219652751","kind":"peak","name":"جبل الشايب","lat":28.9896048,"lon":37.1104846,"elevationM":null},{"id":"node:7159366306","kind":"peak","name":"جبال الضاحكية","lat":28.0739436,"lon":37.9839949,"elevationM":null},{"id":"node:8827438493","kind":"peak","name":"ضلوع فجر","lat":28.9420912,"lon":37.9172697,"elevationM":null},{"id":"node:8827463220","kind":"peak","name":"برق عناز","lat":28.7439559,"lon":37.3194721,"elevationM":null},{"id":"node:9141107752","kind":"peak","name":"جبال الطعوس","lat":28.9354256,"lon":37.5550817,"elevationM":null},{"id":"node:11870048259","kind":"peak","name":"جبل أبو طينة","lat":28.3464782,"lon":37.0739062,"elevationM":null},{"id":"node:11870048302","kind":"peak","name":"طويّل محمّد","lat":28.2882801,"lon":37.1181799,"elevationM":null},{"id":"node:11870259028","kind":"peak","name":"جبال المدافع","lat":28.8798759,"lon":37.1430517,"elevationM":null},{"id":"node:11870265344","kind":"peak","name":"عناز","lat":28.9033414,"lon":37.1870337,"elevationM":null},{"id":"node:11870737797","kind":"peak","name":"ضلع حومات","lat":28.8044892,"lon":37.7532222,"elevationM":null},{"id":"node:11870738487","kind":"peak","name":"الزبليّات","lat":28.5432771,"lon":37.9553119,"elevationM":null},{"id":"node:11871306310","kind":"peak","name":"جبل المصيقرة","lat":28.2366026,"lon":37.2594776,"elevationM":null},{"id":"node:11871306681","kind":"peak","name":"جبال ظفير","lat":28.3741212,"lon":37.2757225,"elevationM":null},{"id":"node:11871538947","kind":"peak","name":"جبال أديرع","lat":28.0949448,"lon":37.4825129,"elevationM":null},{"id":"node:11871539048","kind":"peak","name":"جبال اللمة","lat":28.1305164,"lon":37.4715074,"elevationM":null},{"id":"node:11871539378","kind":"peak","name":"الغزوان","lat":28.2338347,"lon":37.3328125,"elevationM":null},{"id":"node:11871539685","kind":"peak","name":"مكيحيل","lat":28.2240248,"lon":37.267201,"elevationM":null},{"id":"node:11871539763","kind":"peak","name":"أمّ زمبق","lat":28.1733627,"lon":37.1063143,"elevationM":null},{"id":"node:11871652128","kind":"peak","name":"بركانة السمراء","lat":28.911215,"lon":37.7542435,"elevationM":null},{"id":"node:11871652140","kind":"peak","name":"جبل الشويب","lat":28.963532,"lon":37.1343124,"elevationM":null},{"id":"node:11871652289","kind":"peak","name":"جبال اللبيدة","lat":28.2660543,"lon":37.6484317,"elevationM":null},{"id":"node:11871652395","kind":"peak","name":"البريصيات","lat":28.6834969,"lon":37.8516747,"elevationM":null}]}