{"tileKey":"la_p33_lo_p66","version":"v1-1775891056926","entries":[{"id":"node:4377031019","kind":"peak","name":"بند چوگنی","lat":33.716702,"lon":66.09697,"elevationM":null},{"id":"node:4377031020","kind":"peak","name":"بند غرغره","lat":33.758854,"lon":66.121575,"elevationM":null},{"id":"node:4377031022","kind":"peak","name":"کوه سیاه بوم","lat":33.764216,"lon":66.05951,"elevationM":null},{"id":"node:4377182012","kind":"peak","name":"قره تاله","lat":33.543012,"lon":66.540917,"elevationM":null},{"id":"node:8972642252","kind":"peak","name":"کوه کمار","lat":33.849898,"lon":66.8795465,"elevationM":null},{"id":"node:12498370998","kind":"peak","name":"Oqaar Peak","lat":33.7799567,"lon":66.3009324,"elevationM":null}]}