{"tileKey":"la_p34_lo_p109","version":"v1-1775891056926","entries":[{"id":"node:998688959","kind":"peak","name":"骊山","lat":34.3334669,"lon":109.2762902,"elevationM":1302},{"id":"node:5330752597","kind":"peak","name":"风凰山","lat":34.8725665,"lon":109.1498336,"elevationM":null},{"id":"node:9989977213","kind":"peak","name":"圆梁","lat":34.0922368,"lon":109.3487153,"elevationM":null},{"id":"node:9989985079","kind":"peak","name":"芦山","lat":34.0909909,"lon":109.4093618,"elevationM":null},{"id":"node:9990625435","kind":"peak","name":"篑山","lat":34.088885,"lon":109.3246021,"elevationM":900},{"id":"node:9990681630","kind":"peak","name":"蓝田山","lat":34.1143133,"lon":109.5196759,"elevationM":2311},{"id":"node:10313060385","kind":"peak","name":"箭峪岭","lat":34.2449546,"lon":109.6837905,"elevationM":2449},{"id":"node:11100898830","kind":"peak","name":"望峰","lat":34.3535808,"lon":109.2530997,"elevationM":1059},{"id":"node:11929716940","kind":"peak","name":"凤凰咀","lat":34.2557487,"lon":109.1107253,"elevationM":null},{"id":"node:12151238300","kind":"peak","name":"草链岭","lat":34.2913497,"lon":109.8255788,"elevationM":2645}]}