{"tileKey":"la_p11_lo_p43","version":"v1-1775891056926","entries":[{"id":"node:7092134968","kind":"peak","name":"نقاذ","lat":11.5046233,"lon":43.1315255,"elevationM":49},{"id":"node:7733170799","kind":"peak","name":"Bourguiba","lat":11.9825,"lon":43.068611,"elevationM":null},{"id":"node:7733170800","kind":"peak","name":"Arda Dabba","lat":11.936111,"lon":43.040833,"elevationM":null},{"id":"node:7733170818","kind":"peak","name":"Obloli","lat":11.912222,"lon":43.088889,"elevationM":null},{"id":"node:7733170819","kind":"peak","name":"Boloka","lat":11.967778,"lon":43.084167,"elevationM":null},{"id":"node:7733170829","kind":"peak","name":"Goumbourta Déïdéï","lat":11.403333,"lon":43.081389,"elevationM":null},{"id":"node:7733170834","kind":"peak","name":"Maanditi Gouyyouh","lat":11.981944,"lon":43.005556,"elevationM":null},{"id":"node:7733170837","kind":"peak","name":"Garassou","lat":11.874722,"lon":43.061667,"elevationM":null},{"id":"node:7733170847","kind":"peak","name":"Oroli","lat":11.966667,"lon":43.108333,"elevationM":null},{"id":"node:7733170866","kind":"peak","name":"Harsa","lat":11.995556,"lon":43.030278,"elevationM":null},{"id":"node:7733170867","kind":"peak","name":"Tablo","lat":11.931667,"lon":43.016389,"elevationM":null},{"id":"node:7733170873","kind":"peak","name":"Ibna Fila","lat":11.971667,"lon":43.054167,"elevationM":null},{"id":"node:7733170875","kind":"peak","name":"Gabilema","lat":11.903056,"lon":43.019444,"elevationM":null},{"id":"node:7733170900","kind":"peak","name":"Ado Daba","lat":11.963333,"lon":43.016667,"elevationM":null},{"id":"node:7733171044","kind":"peak","name":"Guissi","lat":11.476389,"lon":43.116944,"elevationM":null},{"id":"node:7733171045","kind":"peak","name":"Goumarré","lat":11.460278,"lon":43.066667,"elevationM":null},{"id":"node:7733171071","kind":"peak","name":"Aoudi","lat":11.993611,"lon":43.061667,"elevationM":null},{"id":"node:7733171072","kind":"peak","name":"Inkararou","lat":11.9225,"lon":43.01,"elevationM":null},{"id":"node:7733171085","kind":"peak","name":"Oudadi","lat":11.965,"lon":43.033056,"elevationM":null},{"id":"node:7733171090","kind":"peak","name":"Oudlé","lat":11.915278,"lon":43.02,"elevationM":null},{"id":"node:7733171098","kind":"peak","name":"Djilbîbi","lat":11.2625,"lon":43.0325,"elevationM":null},{"id":"node:7733171103","kind":"peak","name":"Boûr Méhêlé","lat":11.111111,"lon":43.001667,"elevationM":null},{"id":"node:7733171104","kind":"peak","name":"Ediliba","lat":11.883333,"lon":43.016667,"elevationM":null},{"id":"node:7733171105","kind":"peak","name":"Bassalé","lat":11.948611,"lon":43.001944,"elevationM":null},{"id":"node:7733171107","kind":"peak","name":"Galato","lat":11.891667,"lon":43.079722,"elevationM":null},{"id":"node:7733171110","kind":"peak","name":"Halam","lat":11.963611,"lon":43.113056,"elevationM":null},{"id":"node:7733171111","kind":"peak","name":"Ouaïbolé","lat":11.914167,"lon":43.055,"elevationM":null},{"id":"node:7733171122","kind":"peak","name":"Djêdjêdo","lat":11.242222,"lon":43.062222,"elevationM":null},{"id":"node:7733171129","kind":"peak","name":"Gaoa","lat":11.872222,"lon":43.028333,"elevationM":null},{"id":"node:7733171138","kind":"peak","name":"Gaski","lat":11.45,"lon":43,"elevationM":null},{"id":"node:7733171188","kind":"peak","name":"Assagoli","lat":11.983611,"lon":43.033611,"elevationM":null},{"id":"node:7733171199","kind":"peak","name":"Inḏa‘i ‘Alé","lat":11.986944,"lon":43.143056,"elevationM":null},{"id":"node:7733171213","kind":"peak","name":"Issa","lat":11.883056,"lon":43.005833,"elevationM":null},{"id":"node:7733171215","kind":"peak","name":"Dihilta","lat":11.901667,"lon":43.065,"elevationM":null},{"id":"node:7733171219","kind":"peak","name":"Mirato","lat":11.971944,"lon":43.07,"elevationM":null},{"id":"node:7733171247","kind":"peak","name":"Ado Tim","lat":11.9,"lon":43.033333,"elevationM":null},{"id":"node:7733171251","kind":"peak","name":"As Alé","lat":11.991389,"lon":43.114167,"elevationM":null},{"id":"node:7733171252","kind":"peak","name":"Data Harka","lat":11.993611,"lon":43.091667,"elevationM":null},{"id":"node:7733171262","kind":"peak","name":"Ouaïbolou","lat":11.959444,"lon":43.061111,"elevationM":null},{"id":"node:7733171265","kind":"peak","name":"Mangaïa","lat":11.883889,"lon":43.057778,"elevationM":null},{"id":"node:7733171266","kind":"peak","name":"Gabao","lat":11.979167,"lon":43.095278,"elevationM":null},{"id":"node:7733173108","kind":"peak","name":"Bouloh-Oum","lat":11.483333,"lon":43.016667,"elevationM":null},{"id":"node:7733173110","kind":"peak","name":"Hammo","lat":11.812222,"lon":43.005556,"elevationM":null},{"id":"node:7733173116","kind":"peak","name":"Bôlé","lat":11.433333,"lon":43.15,"elevationM":null},{"id":"node:7733173119","kind":"peak","name":"Dallay","lat":11.857222,"lon":43.088889,"elevationM":null},{"id":"node:7733173120","kind":"peak","name":"‘Ali ‘Olou","lat":11.356111,"lon":43.123056,"elevationM":null},{"id":"node:7733173123","kind":"peak","name":"Goubi","lat":11.833889,"lon":43.066667,"elevationM":null},{"id":"node:7733173131","kind":"peak","name":"Tamattako","lat":11.835833,"lon":43.064444,"elevationM":null},{"id":"node:7733173134","kind":"peak","name":"Maabo","lat":11.944167,"lon":43.100833,"elevationM":null},{"id":"node:7733173138","kind":"peak","name":"Qôr Ouéïn","lat":11.358611,"lon":43.183889,"elevationM":null},{"id":"node:7733173144","kind":"peak","name":"Gaoura","lat":11.959167,"lon":43.090556,"elevationM":null},{"id":"node:7733173145","kind":"peak","name":"Garab","lat":11.933333,"lon":43.066667,"elevationM":null},{"id":"node:7733173149","kind":"peak","name":"Tabkallé","lat":11.95,"lon":43.15,"elevationM":null},{"id":"node:7733173280","kind":"peak","name":"Amḏerta","lat":11.998889,"lon":43.186389,"elevationM":null},{"id":"node:7733173299","kind":"peak","name":"‘Ali ‘As","lat":11.519444,"lon":43.169444,"elevationM":null},{"id":"node:7733173304","kind":"peak","name":"Guêllo Djôgsé","lat":11.505833,"lon":43.015833,"elevationM":null},{"id":"node:7733173306","kind":"peak","name":"Toûr ‘Osbo طور عصبو","lat":11.570556,"lon":43.108889,"elevationM":null},{"id":"node:7733173307","kind":"peak","name":"Legga Obsi","lat":11.569167,"lon":43.071111,"elevationM":null},{"id":"node:7733173308","kind":"peak","name":"Ḏaoualé","lat":11.463611,"lon":43.006667,"elevationM":null},{"id":"node:7733173311","kind":"peak","name":"Toûrka Damêrdjôg","lat":11.507222,"lon":43.176667,"elevationM":null},{"id":"node:7733173312","kind":"peak","name":"Nagâḏ","lat":11.507778,"lon":43.132778,"elevationM":null},{"id":"node:7733173314","kind":"peak","name":"Godadléï","lat":11.454167,"lon":43.048889,"elevationM":null},{"id":"node:7733173319","kind":"peak","name":"Goumbourta ‘Atar","lat":11.454722,"lon":43.203611,"elevationM":null},{"id":"node:7733173320","kind":"peak","name":"Diko","lat":11.45,"lon":43.183333,"elevationM":null},{"id":"node:7733173321","kind":"peak","name":"Guêddi Barbârou","lat":11.4425,"lon":43.128889,"elevationM":null},{"id":"node:7733173336","kind":"peak","name":"Goubad","lat":11.411667,"lon":43.191111,"elevationM":null},{"id":"node:7733173340","kind":"peak","name":"Dagelébé Koma","lat":11.908333,"lon":43.101111,"elevationM":null},{"id":"node:7733173341","kind":"peak","name":"Gabilema","lat":11.829444,"lon":43.040833,"elevationM":null},{"id":"node:7733173344","kind":"peak","name":"Bo‘layyâl","lat":11.423056,"lon":43.130833,"elevationM":null},{"id":"node:7733173361","kind":"peak","name":"Leïssan Koma","lat":11.932778,"lon":43.136667,"elevationM":null},{"id":"node:7733173369","kind":"peak","name":"Badameli","lat":11.946944,"lon":43.079722,"elevationM":null},{"id":"node:7733173374","kind":"peak","name":"Qâdi Qaoulé","lat":11.341944,"lon":43.114722,"elevationM":null},{"id":"node:7733173378","kind":"peak","name":"Dalhaou","lat":11.354444,"lon":43.137778,"elevationM":null},{"id":"node:7733173379","kind":"peak","name":"Ouaï Ouaï","lat":11.430833,"lon":43.162778,"elevationM":null},{"id":"node:7733173387","kind":"peak","name":"Hadle-Médou","lat":11.433333,"lon":43.083333,"elevationM":null},{"id":"node:7733173392","kind":"peak","name":"Nidiq","lat":11.416667,"lon":43.026111,"elevationM":null},{"id":"node:7733173396","kind":"peak","name":"Hâdley ‘Ad","lat":11.43,"lon":43.054722,"elevationM":null},{"id":"node:7733173420","kind":"peak","name":"Imilé Bolo","lat":11.991667,"lon":43.158889,"elevationM":null},{"id":"node:7733173431","kind":"peak","name":"‘Ali ‘Addêllé","lat":11.295278,"lon":43.13,"elevationM":null},{"id":"node:7733173432","kind":"peak","name":"Qorroto ‘As Madou","lat":11.436944,"lon":43.082222,"elevationM":null},{"id":"node:7733173434","kind":"peak","name":"Arkaïlé","lat":11.951389,"lon":43.110833,"elevationM":null},{"id":"node:7733173450","kind":"peak","name":"Akkaba","lat":11.929722,"lon":43.116111,"elevationM":null},{"id":"node:7733173453","kind":"peak","name":"Acha‘adléï","lat":11.335278,"lon":43.145,"elevationM":null},{"id":"node:7733173459","kind":"peak","name":"Hassim","lat":11.949722,"lon":43.016944,"elevationM":null},{"id":"node:7733173463","kind":"peak","name":"Ḏagahdamêr","lat":11.429722,"lon":43.226389,"elevationM":null}]}