{"tileKey":"la_p56_lo_m125","version":"v1-1775891056926","entries":[{"id":"node:1154027867","kind":"peak","name":"Bevel Mountain","lat":56.1261424,"lon":-124.0052846,"elevationM":1729},{"id":"node:1154062306","kind":"peak","name":"Mount Moodie","lat":56.2952067,"lon":-124.2145077,"elevationM":1571},{"id":"node:1154096735","kind":"peak","name":"Montagnes Rocheuses","lat":56.4932597,"lon":-124.3222317,"elevationM":1066},{"id":"node:1155583639","kind":"peak","name":"Mount Henri","lat":56.5092906,"lon":-124.7242704,"elevationM":2216},{"id":"node:1155608646","kind":"peak","name":"Mica Peak","lat":56.534874,"lon":-124.7147304,"elevationM":2067},{"id":"node:1155692017","kind":"peak","name":"Chowika Mountain","lat":56.7483652,"lon":-124.6602224,"elevationM":2064},{"id":"node:1155759309","kind":"peak","name":"Mount Ferguson","lat":56.6345337,"lon":-124.9838583,"elevationM":1995},{"id":"node:1155759994","kind":"peak","name":"Mount Ross","lat":56.6514732,"lon":-124.8523738,"elevationM":1773},{"id":"node:1156027078","kind":"peak","name":"Deception Cone","lat":56.8517632,"lon":-124.7629369,"elevationM":2142},{"id":"node:1165547811","kind":"peak","name":"Snowtop Peak","lat":56.9180596,"lon":-124.8440728,"elevationM":2163},{"id":"node:1165561923","kind":"peak","name":"Deserters Peak","lat":56.9676827,"lon":-124.905528,"elevationM":2251},{"id":"node:1165607355","kind":"peak","name":"Pesika Mountain","lat":56.9868046,"lon":-124.9294888,"elevationM":2125},{"id":"node:1680061368","kind":"peak","name":"Mount Grahame","lat":56.6100705,"lon":-124.481519,"elevationM":1728},{"id":"node:1681049590","kind":"peak","name":"Trident Peak","lat":56.7281718,"lon":-124.0824082,"elevationM":2090}]}