{"tileKey":"la_p16_lo_p101","version":"v1-1775891056926","entries":[{"id":"node:1673820216","kind":"peak","name":"ภูกระดึง","lat":16.868056,"lon":101.775833,"elevationM":1316},{"id":"node:2541850932","kind":"peak","name":"Khao Ko Po","lat":16.9175285,"lon":101.0534878,"elevationM":null},{"id":"node:2541850933","kind":"peak","name":"Phu Hin Rong Kla","lat":16.9819667,"lon":101.0452015,"elevationM":null},{"id":"node:3970808984","kind":"peak","name":"เขากวาง","lat":16.5369165,"lon":101.0326115,"elevationM":null},{"id":"node:3970808985","kind":"peak","name":"เขาน้ำก้อใหญ่","lat":16.8202114,"lon":101.1395035,"elevationM":null},{"id":"node:3970808988","kind":"peak","name":"เขาแก้ว","lat":16.7751742,"lon":101.0876208,"elevationM":null},{"id":"node:11155319301","kind":"peak","name":"ภูฟ้าเพียงดิน 3","lat":16.8843451,"lon":101.0969831,"elevationM":1615},{"id":"node:12982381756","kind":"peak","name":"ผาหัวสิงห์ ภูทับเบิก","lat":16.8832664,"lon":101.0968487,"elevationM":null},{"id":"node:12982381757","kind":"peak","name":"ภูลมโล","lat":16.9862234,"lon":101.0752258,"elevationM":1660},{"id":"node:13105980735","kind":"peak","name":"ภูคี","lat":16.3501983,"lon":101.7729393,"elevationM":1038},{"id":"node:13108636766","kind":"peak","name":"ภูผาจิต","lat":16.6442191,"lon":101.6823248,"elevationM":1260},{"id":"node:13115959907","kind":"peak","name":"ยอดผานกเค้า","lat":16.8421053,"lon":101.9474904,"elevationM":null},{"id":"node:13200249375","kind":"peak","name":"ภูกระดึง","lat":16.8719369,"lon":101.7188674,"elevationM":1323},{"id":"node:13351221066","kind":"peak","name":"ภูเขียว","lat":16.3086935,"lon":101.8276709,"elevationM":1223},{"id":"node:13504905491","kind":"peak","name":"ผาเทวดา","lat":16.39582,"lon":101.5234001,"elevationM":1001},{"id":"node:13546915174","kind":"peak","name":"ภูทับเบิก","lat":16.9062282,"lon":101.0865022,"elevationM":null},{"id":"node:13546988109","kind":"peak","name":"ภูทับเบิก","lat":16.9058407,"lon":101.109824,"elevationM":null}]}