{"tileKey":"la_p44_lo_p34","version":"v1-1775891056926","entries":[{"id":"node:400957137","kind":"peak","name":"Аленга","lat":44.7489254,"lon":34.4144964,"elevationM":1193},{"id":"node:410242614","kind":"peak","name":"Шаан-Кая","lat":44.4354012,"lon":34.0199744,"elevationM":871},{"id":"node:427919105","kind":"peak","name":"Кемаль-Эгерек","lat":44.5788416,"lon":34.1830928,"elevationM":1529},{"id":"node:481281169","kind":"peak","name":"Ай-Петри","lat":44.4483057,"lon":34.0559869,"elevationM":1234},{"id":"node:850548312","kind":"peak","name":"Коба-Кая","lat":44.8226596,"lon":34.9141277,"elevationM":165},{"id":"node:878885770","kind":"peak","name":"Северная Демерджи","lat":44.7790801,"lon":34.388365,"elevationM":1359},{"id":"node:1006187907","kind":"peak","name":"Яман-Таш","lat":44.577682,"lon":34.14027,"elevationM":1054},{"id":"node:1009795769","kind":"peak","name":"Сори","lat":44.8984903,"lon":34.712659,"elevationM":982},{"id":"node:1126675155","kind":"peak","name":"Кок-Таш","lat":44.9466457,"lon":34.7674397,"elevationM":804},{"id":"node:1126765332","kind":"peak","name":"Кара-Тау","lat":44.8475721,"lon":34.4901567,"elevationM":1220},{"id":"node:1174407125","kind":"peak","name":"Басман","lat":44.6076185,"lon":34.1688409,"elevationM":1136},{"id":"node:1195531120","kind":"peak","name":"Аю-Даг","lat":44.5607202,"lon":34.3267832,"elevationM":571},{"id":"node:1207745178","kind":"peak","name":"Эклизи-Бурун","lat":44.7372931,"lon":34.2877675,"elevationM":1527},{"id":"node:1214673477","kind":"peak","name":"Сотира","lat":44.5535771,"lon":34.0303907,"elevationM":1172},{"id":"node:1214815870","kind":"peak","name":"Пахкал-Кая","lat":44.7764796,"lon":34.3676477,"elevationM":1138},{"id":"node:1221156107","kind":"peak","name":"Куш-Кая","lat":44.5385653,"lon":34.044689,"elevationM":1107},{"id":"node:1221196074","kind":"peak","name":"Караул-Кая","lat":44.5462342,"lon":34.0456573,"elevationM":1134},{"id":"node:1221246349","kind":"peak","name":"Бойка","lat":44.5547984,"lon":34.0010654,"elevationM":1087},{"id":"node:1233268885","kind":"peak","name":"Крепостная","lat":44.8401262,"lon":34.9580885,"elevationM":158},{"id":"node:1233877856","kind":"peak","name":"Кастель","lat":44.6396737,"lon":34.3838007,"elevationM":439},{"id":"node:1233950219","kind":"peak","name":"Парагильмен","lat":44.6213934,"lon":34.3374765,"elevationM":857},{"id":"node:1234028981","kind":"peak","name":"Караул-Оба","lat":44.8244007,"lon":34.8905651,"elevationM":342},{"id":"node:1234028991","kind":"peak","name":"Папая-Кая","lat":44.8251452,"lon":34.8399713,"elevationM":319},{"id":"node:1236562081","kind":"peak","name":"Перепелиная","lat":44.4841757,"lon":34.0290255,"elevationM":1301},{"id":"node:1238520263","kind":"peak","name":"Куроча","lat":44.8761322,"lon":34.6996143,"elevationM":782},{"id":"node:1240728968","kind":"peak","name":"Большая Чучель","lat":44.6531555,"lon":34.2362098,"elevationM":1390},{"id":"node:1240731774","kind":"peak","name":"Чёрная","lat":44.6805317,"lon":34.251081,"elevationM":1308},{"id":"node:1373649582","kind":"peak","name":"Полуэктовы","lat":44.860682,"lon":34.9423144,"elevationM":516},{"id":"node:1373649918","kind":"peak","name":"Голая","lat":44.8547075,"lon":34.9523374,"elevationM":313},{"id":"node:1417444915","kind":"peak","name":"Измаил-Кая","lat":44.9507028,"lon":34.9715717,"elevationM":null},{"id":"node:1417539390","kind":"peak","name":"Апалы","lat":44.9604704,"lon":34.9865853,"elevationM":677},{"id":"node:1417539394","kind":"peak","name":"Бал-Кая","lat":44.951026,"lon":34.9784897,"elevationM":null},{"id":"node:1417539396","kind":"peak","name":"Биюк-Эгерек","lat":44.9475376,"lon":34.9774286,"elevationM":603},{"id":"node:1418512461","kind":"peak","name":"Голь-Кая","lat":44.9767313,"lon":34.6020671,"elevationM":424},{"id":"node:1421831569","kind":"peak","name":"Байраклы","lat":44.9145224,"lon":34.1977484,"elevationM":519},{"id":"node:1638231002","kind":"peak","name":"Сайнын-Бурну","lat":44.7733333,"lon":34.57,"elevationM":338},{"id":"node:1744159806","kind":"peak","name":"Эндек","lat":44.5170496,"lon":34.0812201,"elevationM":1371},{"id":"node:1744167985","kind":"peak","name":"Комбопло","lat":44.5214416,"lon":34.0661093,"elevationM":1161},{"id":"node:1757200511","kind":"peak","name":"Болван","lat":44.8394246,"lon":34.9490772,"elevationM":null},{"id":"node:2146180790","kind":"peak","name":"Кум-Баир (Дубки)","lat":44.9476025,"lon":34.0564546,"elevationM":325},{"id":"node:2146183604","kind":"peak","name":"Чагарли-Оба","lat":44.905035,"lon":34.0591381,"elevationM":305},{"id":"node:2146185770","kind":"peak","name":"Таш-Джарган","lat":44.859571,"lon":34.0814213,"elevationM":546},{"id":"node:2146205357","kind":"peak","name":"Мурун-Кир","lat":44.9528226,"lon":34.2000037,"elevationM":441},{"id":"node:2196097851","kind":"peak","name":"Хачла-Каясы","lat":44.4495727,"lon":34.1238633,"elevationM":null},{"id":"node:2208679506","kind":"peak","name":"Иссар","lat":44.4324397,"lon":34.0554783,"elevationM":443},{"id":"node:2229031261","kind":"peak","name":"Малая Шаан-Кая","lat":44.4316464,"lon":34.020767,"elevationM":627},{"id":"node:2237738918","kind":"peak","name":"Южная Демерджи","lat":44.7557438,"lon":34.4114767,"elevationM":1239},{"id":"node:2319083392","kind":"peak","name":"Каршитерс","lat":44.8746678,"lon":34.9946036,"elevationM":304},{"id":"node:2349068270","kind":"peak","name":"Алчак-Кая","lat":44.8351924,"lon":34.9946821,"elevationM":157},{"id":"node:2349068271","kind":"peak","name":"Космос","lat":44.819305,"lon":34.8938948,"elevationM":245},{"id":"node:2349068273","kind":"peak","name":"Перчем-Кая","lat":44.8590899,"lon":34.9286631,"elevationM":576},{"id":"node:2349068274","kind":"peak","name":"Чубчик","lat":44.861148,"lon":34.9367572,"elevationM":571},{"id":"node:2370677885","kind":"peak","name":"Агыс-Хыр","lat":44.6835953,"lon":34.2899401,"elevationM":806},{"id":"node:2390616962","kind":"peak","name":"Кара-Тепе","lat":44.9231837,"lon":34.65931,"elevationM":832},{"id":"node:2419557233","kind":"peak","name":"Ай-Никола","lat":44.4549855,"lon":34.1261138,"elevationM":389},{"id":"node:2522172051","kind":"peak","name":"Сахарная Головка","lat":44.7600623,"lon":34.3247492,"elevationM":1053},{"id":"node:2528036015","kind":"peak","name":"Сарп","lat":44.8185327,"lon":34.3031609,"elevationM":853},{"id":"node:2533651110","kind":"peak","name":"Ахлаплых","lat":44.5433026,"lon":34.0099458,"elevationM":1113},{"id":"node:2533651111","kind":"peak","name":"Биликля","lat":44.5304371,"lon":34.0641842,"elevationM":1098},{"id":"node:2533651113","kind":"peak","name":"Кизил-Кая","lat":44.5172112,"lon":34.0230255,"elevationM":null},{"id":"node:2533651114","kind":"peak","name":"Курушлюк-Бурун","lat":44.5355187,"lon":34.013496,"elevationM":1026},{"id":"node:2533651115","kind":"peak","name":"Ольмесхыр","lat":44.5306395,"lon":34.084943,"elevationM":1213},{"id":"node:2533651116","kind":"peak","name":"Пания-Кая","lat":44.5101216,"lon":34.0217902,"elevationM":1151},{"id":"node:2533696873","kind":"peak","name":"Блачаг","lat":44.5142115,"lon":34.0399541,"elevationM":1011},{"id":"node:2533696877","kind":"peak","name":"Куин-Тепе","lat":44.5043033,"lon":34.0422608,"elevationM":1204},{"id":"node:2539839272","kind":"peak","name":"Бал-Кая","lat":44.81848,"lon":34.3500472,"elevationM":802},{"id":"node:2539839273","kind":"peak","name":"Кизил-Кая","lat":44.8249442,"lon":34.3462641,"elevationM":738},{"id":"node:2539839274","kind":"peak","name":"Юке-Тепе","lat":44.8020543,"lon":34.3581516,"elevationM":931},{"id":"node:2593249836","kind":"peak","name":"Серебряков Бугор","lat":44.7441385,"lon":34.0701097,"elevationM":496},{"id":"node:2599971768","kind":"peak","name":"Скифский мыс","lat":44.8499983,"lon":34.0638578,"elevationM":537},{"id":"node:2690668250","kind":"peak","name":"Сарайчихлар","lat":44.765879,"lon":34.5470937,"elevationM":null},{"id":"node:2733373495","kind":"peak","name":"Сандык-Кая","lat":44.836082,"lon":34.900321,"elevationM":399},{"id":"node:2733373513","kind":"peak","name":"Биюк-Черен-Оба","lat":44.8637156,"lon":34.8993573,"elevationM":263},{"id":"node:2901136705","kind":"peak","name":"Сунгурта","lat":44.5354942,"lon":34.097329,"elevationM":1333},{"id":"node:2945993624","kind":"peak","name":"Ставри-Кая","lat":44.4982755,"lon":34.0999092,"elevationM":651},{"id":"node:2974334970","kind":"peak","name":"Букунбай","lat":44.7808624,"lon":34.5616606,"elevationM":null},{"id":"node:3058827708","kind":"peak","name":"Чамны-Бурун","lat":44.6548525,"lon":34.3235862,"elevationM":1192},{"id":"node:3059471429","kind":"peak","name":"Коль-Баир","lat":44.8853363,"lon":34.3359855,"elevationM":818},{"id":"node:3061016464","kind":"peak","name":"Базар-Оба","lat":44.8822232,"lon":34.3564447,"elevationM":855},{"id":"node:3061016466","kind":"peak","name":"Калан-Баир","lat":44.8798527,"lon":34.3910931,"elevationM":914},{"id":"node:3065130225","kind":"peak","name":"Ставра","lat":44.7987689,"lon":34.6627218,"elevationM":304},{"id":"node:3065132353","kind":"peak","name":"Стаурунын-Бурун","lat":44.8083605,"lon":34.6550829,"elevationM":415},{"id":"node:3065132354","kind":"peak","name":"Янтуруз","lat":44.7880577,"lon":34.62633,"elevationM":343},{"id":"node:3066259554","kind":"peak","name":"Мангана","lat":44.756833,"lon":34.5444093,"elevationM":155},{"id":"node:3066294117","kind":"peak","name":"Биюк-Оба","lat":44.7551851,"lon":34.5245264,"elevationM":160},{"id":"node:3066384289","kind":"peak","name":"Каматра","lat":44.8360939,"lon":34.7949057,"elevationM":245},{"id":"node:3066384290","kind":"peak","name":"Ташлы-Бурун","lat":44.8338391,"lon":34.7733361,"elevationM":370},{"id":"node:3066384291","kind":"peak","name":"Хады-Бурун","lat":44.8302943,"lon":34.7698541,"elevationM":362},{"id":"node:3066384293","kind":"peak","name":"Чабан-Куле","lat":44.82245,"lon":34.7308025,"elevationM":280},{"id":"node:3066423119","kind":"peak","name":"Ай-Фока","lat":44.8227101,"lon":34.8179128,"elevationM":115},{"id":"node:3066441845","kind":"peak","name":"Плакья","lat":44.897586,"lon":34.8048806,"elevationM":680},{"id":"node:3066469882","kind":"peak","name":"Кутур-Оба","lat":44.8354212,"lon":34.8544602,"elevationM":352},{"id":"node:3066525837","kind":"peak","name":"Скала Сахарная голова","lat":44.8446463,"lon":34.9643635,"elevationM":null},{"id":"node:3071506229","kind":"peak","name":"Ай-Йори","lat":44.6734007,"lon":34.3392839,"elevationM":572},{"id":"node:3071506230","kind":"peak","name":"Сераус","lat":44.6621756,"lon":34.3444723,"elevationM":628},{"id":"node:3071512468","kind":"peak","name":"Куш-Кая","lat":44.6448474,"lon":34.3172817,"elevationM":1339},{"id":"node:3071591060","kind":"peak","name":"Могаби","lat":44.4643047,"lon":34.1024493,"elevationM":805},{"id":"node:3085803724","kind":"peak","name":"Базма","lat":44.6227888,"lon":34.1479519,"elevationM":789},{"id":"node:3085803725","kind":"peak","name":"Кермен","lat":44.6214252,"lon":34.1598503,"elevationM":857},{"id":"node:3085803726","kind":"peak","name":"Учурум-Кая","lat":44.6131962,"lon":34.2527624,"elevationM":1538},{"id":"node:3086675607","kind":"peak","name":"Долгая","lat":44.8238593,"lon":34.4396923,"elevationM":1283},{"id":"node:3086675608","kind":"peak","name":"Замана","lat":44.8127682,"lon":34.3790302,"elevationM":1067},{"id":"node:3086675614","kind":"peak","name":"Стол-Гора","lat":44.8215344,"lon":34.4473777,"elevationM":1240},{"id":"node:3086675616","kind":"peak","name":"Уч-Терек","lat":44.7809785,"lon":34.4180726,"elevationM":1246},{"id":"node:3086675617","kind":"peak","name":"Харатан-Хая","lat":44.7537632,"lon":34.4187722,"elevationM":null},{"id":"node:3086675619","kind":"peak","name":"Тырке","lat":44.8161465,"lon":34.4180804,"elevationM":1283},{"id":"node:3103974448","kind":"peak","name":"Малая Чучель","lat":44.6452256,"lon":34.2431079,"elevationM":1302},{"id":"node:3104001423","kind":"peak","name":"Агман","lat":44.6390631,"lon":34.1951362,"elevationM":958},{"id":"node:3104001424","kind":"peak","name":"Бешуй-Шор","lat":44.6455494,"lon":34.1896533,"elevationM":904},{"id":"node:3104002929","kind":"peak","name":"Хапаклы-Таш","lat":44.6722306,"lon":34.1575949,"elevationM":687},{"id":"node:3104057445","kind":"peak","name":"Демир-Капу","lat":44.5857682,"lon":34.2069954,"elevationM":1539},{"id":"node:3105962264","kind":"peak","name":"Бельбек-Отар","lat":44.7936117,"lon":34.2656136,"elevationM":976},{"id":"node:3105962265","kind":"peak","name":"Хьели-Кая","lat":44.5649677,"lon":34.0794062,"elevationM":633},{"id":"node:3106090688","kind":"peak","name":"Аспетид","lat":44.7686962,"lon":34.1421541,"elevationM":425},{"id":"node:3106090690","kind":"peak","name":"Карагач","lat":44.7972937,"lon":34.0591586,"elevationM":461},{"id":"node:3106090692","kind":"peak","name":"Кочкар","lat":44.8079535,"lon":34.1319637,"elevationM":647},{"id":"node:3106090696","kind":"peak","name":"Партизанка","lat":44.7748816,"lon":34.0928723,"elevationM":429},{"id":"node:3106090698","kind":"peak","name":"Сараман","lat":44.7492545,"lon":34.1144316,"elevationM":600},{"id":"node:3106090699","kind":"peak","name":"Бойчавского","lat":44.7849295,"lon":34.1074709,"elevationM":453},{"id":"node:3106090700","kind":"peak","name":"Шайтанов Бугор","lat":44.751029,"lon":34.1337607,"elevationM":496},{"id":"node:3126246132","kind":"peak","name":"Казу-Кая","lat":44.7308942,"lon":34.3051941,"elevationM":1108},{"id":"node:3136825623","kind":"peak","name":"Средний Бугор","lat":44.9035887,"lon":34.315365,"elevationM":727},{"id":"node:3136825628","kind":"peak","name":"Шпиль","lat":44.8931877,"lon":34.3036005,"elevationM":683},{"id":"node:3137454012","kind":"peak","name":"Гайтан-Тепе","lat":44.7292696,"lon":34.0286082,"elevationM":598},{"id":"node:3137454016","kind":"peak","name":"Мудрянова Гора","lat":44.7408382,"lon":34.0319344,"elevationM":503},{"id":"node:3137454017","kind":"peak","name":"Присяжная","lat":44.7446187,"lon":34.0085979,"elevationM":582},{"id":"node:3137454018","kind":"peak","name":"Тумбарова","lat":44.7494815,"lon":34.0432191,"elevationM":433},{"id":"node:3137454019","kind":"peak","name":"Яшкина","lat":44.7530693,"lon":34.0324593,"elevationM":423},{"id":"node:3137524381","kind":"peak","name":"Большой Бугор","lat":44.6895946,"lon":34.0010737,"elevationM":367},{"id":"node:3137524382","kind":"peak","name":"Папаир-Баир","lat":44.6635224,"lon":34.0804118,"elevationM":592},{"id":"node:3137524383","kind":"peak","name":"Чобанчик","lat":44.6826413,"lon":34.0315551,"elevationM":567},{"id":"node:3137524384","kind":"peak","name":"Урган-Тепе","lat":44.6797751,"lon":34.0405832,"elevationM":573},{"id":"node:3146014226","kind":"peak","name":"Доз","lat":44.8744536,"lon":34.4276959,"elevationM":912},{"id":"node:3146934092","kind":"peak","name":"Чалбаш","lat":44.8438432,"lon":34.3703799,"elevationM":1003},{"id":"node:3147241058","kind":"peak","name":"Топарчик-Хыр","lat":44.8873925,"lon":34.6042711,"elevationM":1041},{"id":"node:3147418544","kind":"peak","name":"Хриколь","lat":44.8656182,"lon":34.6326381,"elevationM":1036},{"id":"node:3148706706","kind":"peak","name":"Кара-Тав","lat":44.8983222,"lon":34.6010954,"elevationM":986},{"id":"node:3148842030","kind":"peak","name":"Кокасан-Тепе","lat":44.8983315,"lon":34.6878965,"elevationM":791},{"id":"node:3148842031","kind":"peak","name":"Кокташ","lat":44.8887963,"lon":34.6929562,"elevationM":816},{"id":"node:3152346161","kind":"peak","name":"Шан-Кая","lat":44.9100061,"lon":34.5597385,"elevationM":854},{"id":"node:3157227874","kind":"peak","name":"Алу-Кая","lat":44.925022,"lon":34.7065813,"elevationM":null},{"id":"node:3157227875","kind":"peak","name":"Бала-Хая","lat":44.9270503,"lon":34.6905784,"elevationM":null},{"id":"node:3157227876","kind":"peak","name":"Бучина","lat":44.92488,"lon":34.6673504,"elevationM":913},{"id":"node:3157227877","kind":"peak","name":"Емула-Кая","lat":44.8962583,"lon":34.7241747,"elevationM":null},{"id":"node:3157227878","kind":"peak","name":"Кара-Бурун","lat":44.9226967,"lon":34.7141664,"elevationM":793},{"id":"node:3157227879","kind":"peak","name":"Куба-Бурун","lat":44.9547977,"lon":34.6985252,"elevationM":699},{"id":"node:3157227881","kind":"peak","name":"Кубулда","lat":44.9562042,"lon":34.7137052,"elevationM":589},{"id":"node:3157227882","kind":"peak","name":"Орта-Бурун","lat":44.8265019,"lon":34.6902117,"elevationM":null},{"id":"node:3157227883","kind":"peak","name":"Пузатый Стол","lat":44.9238113,"lon":34.6779862,"elevationM":826},{"id":"node:3157227884","kind":"peak","name":"Скалтураши","lat":44.8444891,"lon":34.6694669,"elevationM":326},{"id":"node:3157227885","kind":"peak","name":"Скирда","lat":44.9043508,"lon":34.7112016,"elevationM":924},{"id":"node:3157227886","kind":"peak","name":"Средняя","lat":44.9151007,"lon":34.7119073,"elevationM":804},{"id":"node:3157227887","kind":"peak","name":"Филипов Сенокос","lat":44.9052673,"lon":34.689107,"elevationM":721},{"id":"node:3157227888","kind":"peak","name":"Харши-Бурун","lat":44.8301649,"lon":34.6889665,"elevationM":null},{"id":"node:3166248868","kind":"peak","name":"Такуш","lat":44.9317987,"lon":34.4074438,"elevationM":701},{"id":"node:3166337685","kind":"peak","name":"Караул-Кая","lat":44.9205639,"lon":34.5321638,"elevationM":838},{"id":"node:3166358046","kind":"peak","name":"Шуври-Кая","lat":44.8734044,"lon":34.641071,"elevationM":1015},{"id":"node:3171332258","kind":"peak","name":"Орлиная","lat":44.9678771,"lon":34.3598783,"elevationM":576},{"id":"node:3197890241","kind":"peak","name":"Большая Веха","lat":44.786441,"lon":34.1878029,"elevationM":741},{"id":"node:3197890242","kind":"peak","name":"Брусок","lat":44.8190643,"lon":34.1573867,"elevationM":612},{"id":"node:3197890243","kind":"peak","name":"Второй Алантин","lat":44.8123232,"lon":34.1443671,"elevationM":626},{"id":"node:3197890244","kind":"peak","name":"Гапка","lat":44.7968003,"lon":34.1715743,"elevationM":731},{"id":"node:3197890245","kind":"peak","name":"Кошара","lat":44.8049792,"lon":34.1268824,"elevationM":647},{"id":"node:3197890246","kind":"peak","name":"Малая Веха","lat":44.7912716,"lon":34.1816683,"elevationM":740},{"id":"node:3197890247","kind":"peak","name":"Маяк","lat":44.8283125,"lon":34.1403535,"elevationM":604},{"id":"node:3197890248","kind":"peak","name":"Погорелая","lat":44.8029198,"lon":34.1105596,"elevationM":443},{"id":"node:3197890249","kind":"peak","name":"Третий Алантин","lat":44.8118381,"lon":34.1405315,"elevationM":631},{"id":"node:3197890250","kind":"peak","name":"Урта","lat":44.7873359,"lon":34.1568787,"elevationM":682},{"id":"node:3197890251","kind":"peak","name":"Чуелтын-Баши","lat":44.8164774,"lon":34.1348428,"elevationM":655},{"id":"node:3197890252","kind":"peak","name":"Чумнок-Топе","lat":44.7779951,"lon":34.116199,"elevationM":489},{"id":"node:3197945263","kind":"peak","name":"Кичик-Сараман","lat":44.7732739,"lon":34.0542119,"elevationM":574},{"id":"node:3197945266","kind":"peak","name":"Малая Роща","lat":44.7627954,"lon":34.0552157,"elevationM":468},{"id":"node:3197945267","kind":"peak","name":"Маленький Шпиль","lat":44.7652295,"lon":34.0400907,"elevationM":490},{"id":"node:3197945268","kind":"peak","name":"Палос","lat":44.7705081,"lon":34.0255773,"elevationM":441},{"id":"node:3197945269","kind":"peak","name":"Шпиль Мешкова","lat":44.768159,"lon":34.0450571,"elevationM":534},{"id":"node:3197992247","kind":"peak","name":"Белая","lat":44.830765,"lon":34.0485032,"elevationM":354},{"id":"node:3197992249","kind":"peak","name":"Лысая","lat":44.8240746,"lon":34.0652423,"elevationM":392},{"id":"node:3202943318","kind":"peak","name":"Тас-Тау","lat":44.8299828,"lon":34.2804501,"elevationM":722},{"id":"node:3202943319","kind":"peak","name":"Хушахлы-Кая","lat":44.8284292,"lon":34.2731578,"elevationM":677},{"id":"node:3202943320","kind":"peak","name":"Буки","lat":44.8424588,"lon":34.399758,"elevationM":1023},{"id":"node:3202943321","kind":"peak","name":"Янкой-Баир","lat":44.8633597,"lon":34.3621427,"elevationM":883},{"id":"node:3202943328","kind":"peak","name":"Маяк","lat":44.9105643,"lon":34.3054301,"elevationM":726},{"id":"node:3202943332","kind":"peak","name":"702","lat":44.9284934,"lon":34.3941576,"elevationM":null},{"id":"node:3202943343","kind":"peak","name":"Бураган","lat":44.9681455,"lon":34.3803603,"elevationM":594},{"id":"node:3202943344","kind":"peak","name":"Казакчи","lat":44.9548564,"lon":34.3742564,"elevationM":626},{"id":"node:3202943345","kind":"peak","name":"Кыр","lat":44.9565458,"lon":34.3936855,"elevationM":593},{"id":"node:3202950704","kind":"peak","name":"Борсук-Тепе","lat":44.9534633,"lon":34.4130189,"elevationM":486},{"id":"node:3203183179","kind":"peak","name":"Кол-Баши","lat":44.8824819,"lon":34.4513208,"elevationM":896},{"id":"node:3203183186","kind":"peak","name":"790","lat":44.9177594,"lon":34.4704825,"elevationM":null},{"id":"node:3203183194","kind":"peak","name":"Карбуз-Тыгырткан","lat":44.9471687,"lon":34.4881422,"elevationM":721},{"id":"node:3203183195","kind":"peak","name":"Мутырмакай","lat":44.9514816,"lon":34.5283324,"elevationM":724},{"id":"node:3203183235","kind":"peak","name":"Джельтермен-Баши","lat":44.9593928,"lon":34.5410783,"elevationM":712},{"id":"node:3203183248","kind":"peak","name":"Чомбай","lat":44.9544731,"lon":34.5606906,"elevationM":727},{"id":"node:3203183249","kind":"peak","name":"Копкалы-Оба","lat":44.9614274,"lon":34.5847446,"elevationM":617},{"id":"node:3203183250","kind":"peak","name":"Медием","lat":44.9545187,"lon":34.5912678,"elevationM":557},{"id":"node:3203183251","kind":"peak","name":"Узун-Кая","lat":44.9441122,"lon":34.5675195,"elevationM":648},{"id":"node:3203183252","kind":"peak","name":"Карт-Кая","lat":44.9412531,"lon":34.5524526,"elevationM":666},{"id":"node:3203183253","kind":"peak","name":"Кабарга","lat":44.9201358,"lon":34.5908054,"elevationM":762},{"id":"node:3203183254","kind":"peak","name":"Кубриали-Кыр","lat":44.9012139,"lon":34.5878292,"elevationM":1011},{"id":"node:3203183255","kind":"peak","name":"Кулуйны-Обасы","lat":44.8745184,"lon":34.5975209,"elevationM":1041},{"id":"node:3203183257","kind":"peak","name":"Бабий-Кыр","lat":44.8802621,"lon":34.5796109,"elevationM":1060},{"id":"node:3203183258","kind":"peak","name":"Динозавр","lat":44.8779965,"lon":34.5219809,"elevationM":980},{"id":"node:3203183259","kind":"peak","name":"Карчигалы","lat":44.8667892,"lon":34.5741231,"elevationM":1083},{"id":"node:3203183361","kind":"peak","name":"Кенгечь-Оба","lat":44.8457982,"lon":34.5603902,"elevationM":1120},{"id":"node:3203183362","kind":"peak","name":"Такья-Тепе","lat":44.8350716,"lon":34.5134193,"elevationM":1253},{"id":"node:3203183363","kind":"peak","name":"Тай-Коба","lat":44.8386012,"lon":34.5086714,"elevationM":1262},{"id":"node:3203183364","kind":"peak","name":"Ликон","lat":44.8252866,"lon":34.5031196,"elevationM":1017},{"id":"node:3203183365","kind":"peak","name":"Пефлас","lat":44.8108542,"lon":34.5695946,"elevationM":377},{"id":"node:3203183366","kind":"peak","name":"Пакся","lat":44.8084896,"lon":34.5869074,"elevationM":368},{"id":"node:3203183367","kind":"peak","name":"Кукануз","lat":44.8005199,"lon":34.5800883,"elevationM":316},{"id":"node:3203183368","kind":"peak","name":"Тралимис","lat":44.7957541,"lon":34.5832426,"elevationM":312},{"id":"node:3203183369","kind":"peak","name":"Хумсал","lat":44.7868609,"lon":34.59292,"elevationM":239},{"id":"node:3203183370","kind":"peak","name":"Япул-Бурун","lat":44.7835256,"lon":34.6199996,"elevationM":328},{"id":"node:3203183371","kind":"peak","name":"Хатурха-Бурун","lat":44.818255,"lon":34.6561772,"elevationM":350},{"id":"node:3203183372","kind":"peak","name":"Артыхарын-Баши","lat":44.8208272,"lon":34.6444613,"elevationM":414},{"id":"node:3203183373","kind":"peak","name":"Нетру-Бурун","lat":44.8007596,"lon":34.6119315,"elevationM":322},{"id":"node:3203183374","kind":"peak","name":"Хамас","lat":44.8084975,"lon":34.6053869,"elevationM":364},{"id":"node:3203183375","kind":"peak","name":"Тарачуг","lat":44.8173721,"lon":34.6258897,"elevationM":287},{"id":"node:3203183376","kind":"peak","name":"Хамыш","lat":44.8326217,"lon":34.6268392,"elevationM":371},{"id":"node:3203183377","kind":"peak","name":"Лапата-Хая","lat":44.8462562,"lon":34.5892767,"elevationM":1096},{"id":"node:3203183378","kind":"peak","name":"Хаплу-Зия-Каясы","lat":44.8536936,"lon":34.6047217,"elevationM":1064},{"id":"node:3203183379","kind":"peak","name":"Хургуч","lat":44.8855898,"lon":34.6585395,"elevationM":911},{"id":"node:3203183383","kind":"peak","name":"Койбакк","lat":44.945893,"lon":34.6146566,"elevationM":543},{"id":"node:3203183384","kind":"peak","name":"Пиленая","lat":44.942491,"lon":34.6531731,"elevationM":526},{"id":"node:3203183385","kind":"peak","name":"Столб","lat":44.9402431,"lon":34.6868,"elevationM":754},{"id":"node:3203183386","kind":"peak","name":"Тахья","lat":44.9142381,"lon":34.6479035,"elevationM":727},{"id":"node:3203183387","kind":"peak","name":"Куш-Кая","lat":44.9103327,"lon":34.6403075,"elevationM":670},{"id":"node:3203183388","kind":"peak","name":"Байрач","lat":44.9653028,"lon":34.7259451,"elevationM":494},{"id":"node:3203183389","kind":"peak","name":"Кордон","lat":44.9497656,"lon":34.7400338,"elevationM":536},{"id":"node:3203183390","kind":"peak","name":"Караул-Тепе","lat":44.9159512,"lon":34.7471148,"elevationM":984},{"id":"node:3203183391","kind":"peak","name":"Партизанская","lat":44.9218466,"lon":34.7454626,"elevationM":882},{"id":"node:3203183392","kind":"peak","name":"Бурма","lat":44.9353977,"lon":34.7761256,"elevationM":854},{"id":"node:3203183393","kind":"peak","name":"Айваз-Кая","lat":44.9223622,"lon":34.7802446,"elevationM":876},{"id":"node:3203183394","kind":"peak","name":"Дырван-Чефала","lat":44.9125271,"lon":34.7776741,"elevationM":769},{"id":"node:3203183403","kind":"peak","name":"Бурлюк","lat":44.9113925,"lon":34.7351247,"elevationM":913},{"id":"node:3203183404","kind":"peak","name":"Умер-Чобан-Аланы","lat":44.8947806,"lon":34.692548,"elevationM":816},{"id":"node:3203183405","kind":"peak","name":"Хыз-Кая","lat":44.8893993,"lon":34.6828062,"elevationM":723},{"id":"node:3203183406","kind":"peak","name":"Муэдзин-Кая","lat":44.8815515,"lon":34.7211795,"elevationM":602},{"id":"node:3203183407","kind":"peak","name":"Чок-Сары-Кая","lat":44.8795506,"lon":34.7431757,"elevationM":829},{"id":"node:3203183408","kind":"peak","name":"Орта-Таш-Топе","lat":44.8709973,"lon":34.7505571,"elevationM":616},{"id":"node:3203183409","kind":"peak","name":"Построфиль","lat":44.8861839,"lon":34.7534341,"elevationM":839},{"id":"node:3203183410","kind":"peak","name":"Балг-Агач","lat":44.8550474,"lon":34.7287685,"elevationM":446},{"id":"node:3203183411","kind":"peak","name":"Индже-Сырт","lat":44.8506318,"lon":34.7073487,"elevationM":276},{"id":"node:3203183412","kind":"peak","name":"Сотра","lat":44.8458287,"lon":34.7212154,"elevationM":323},{"id":"node:3203183413","kind":"peak","name":"Чурлах-Сырт","lat":44.8349499,"lon":34.7230179,"elevationM":380},{"id":"node:3203183415","kind":"peak","name":"Казах","lat":44.8172808,"lon":34.7126109,"elevationM":262},{"id":"node:3203183416","kind":"peak","name":"Кечит-Вермез","lat":44.8199248,"lon":34.8426535,"elevationM":221},{"id":"node:3203183417","kind":"peak","name":"Айфоканын-Буруну","lat":44.8394538,"lon":34.8163373,"elevationM":247},{"id":"node:3203183418","kind":"peak","name":"Тохьянын-Буруну","lat":44.8470762,"lon":34.8151571,"elevationM":288},{"id":"node:3203183419","kind":"peak","name":"Пурсук-Баш","lat":44.8579527,"lon":34.8171741,"elevationM":338},{"id":"node:3203183420","kind":"peak","name":"Биюк-Криж","lat":44.9089086,"lon":34.7913671,"elevationM":747},{"id":"node:3203183421","kind":"peak","name":"Кучук-Криж","lat":44.908414,"lon":34.8076684,"elevationM":512},{"id":"node:3203183422","kind":"peak","name":"Ликман-Ганын","lat":44.8997054,"lon":34.8003942,"elevationM":690},{"id":"node:3203185453","kind":"peak","name":"Тырме-Кая","lat":44.8947198,"lon":34.7759325,"elevationM":591},{"id":"node:3206303328","kind":"peak","name":"Биюк-Куба-Тепе","lat":44.9206417,"lon":34.9772167,"elevationM":541},{"id":"node:3206303329","kind":"peak","name":"Гудур","lat":44.9368397,"lon":34.8130697,"elevationM":560},{"id":"node:3206303330","kind":"peak","name":"Кисломно","lat":44.9298691,"lon":34.8259323,"elevationM":671},{"id":"node:3206303331","kind":"peak","name":"Куркушлу-Оба","lat":44.9478035,"lon":34.8785837,"elevationM":878},{"id":"node:3206303332","kind":"peak","name":"Кучук-Куба-Тепе","lat":44.9222201,"lon":34.965688,"elevationM":536},{"id":"node:3206303333","kind":"peak","name":"Орта-Сырт","lat":44.9538061,"lon":34.8700806,"elevationM":null},{"id":"node:3206303335","kind":"peak","name":"Сугут-Оба","lat":44.9443837,"lon":34.8545458,"elevationM":960},{"id":"node:3206303337","kind":"peak","name":"Харт-Кая","lat":44.8835986,"lon":34.9439432,"elevationM":375},{"id":"node:3206303338","kind":"peak","name":"Чатал-Кая","lat":44.9273847,"lon":34.90357,"elevationM":717},{"id":"node:3206303339","kind":"peak","name":"Челитли-Бурун","lat":44.9272644,"lon":34.928866,"elevationM":587},{"id":"node:3206303340","kind":"peak","name":"Чубарын-Кезе","lat":44.9230271,"lon":34.9909241,"elevationM":373},{"id":"node:3206303341","kind":"peak","name":"Эльмели","lat":44.9249501,"lon":34.9226126,"elevationM":641},{"id":"node:3206309532","kind":"peak","name":"Каламат-Кая","lat":44.8983256,"lon":34.9385095,"elevationM":439},{"id":"node:3206309584","kind":"peak","name":"Папас-Тепе","lat":44.9003501,"lon":34.9490932,"elevationM":370},{"id":"node:3206309712","kind":"peak","name":"Сотра","lat":44.906747,"lon":34.9360959,"elevationM":484},{"id":"node:3206309957","kind":"peak","name":"Чатла","lat":44.916815,"lon":34.9405232,"elevationM":434},{"id":"node:3206310632","kind":"peak","name":"Биюк-Оба","lat":44.9273229,"lon":34.8876263,"elevationM":734},{"id":"node:3234277294","kind":"peak","name":"Яман-Тепе","lat":44.6025087,"lon":34.114471,"elevationM":654},{"id":"node:3234277377","kind":"peak","name":"Чингене-Тепе","lat":44.6052762,"lon":34.1075583,"elevationM":640},{"id":"node:3234277443","kind":"peak","name":"Стар-Баир","lat":44.6107832,"lon":34.0515264,"elevationM":552},{"id":"node:3234277532","kind":"peak","name":"Зуку-Тепе","lat":44.6199746,"lon":34.0917973,"elevationM":684},{"id":"node:3234277704","kind":"peak","name":"Дорт-Тепе","lat":44.6277314,"lon":34.0193167,"elevationM":570},{"id":"node:3234277705","kind":"peak","name":"Килисча","lat":44.6293555,"lon":34.1212447,"elevationM":null},{"id":"node:3234278027","kind":"peak","name":"Темир-Ат","lat":44.6816502,"lon":34.1429542,"elevationM":721},{"id":"node:3234278184","kind":"peak","name":"Мулга","lat":44.7084816,"lon":34.1056255,"elevationM":699},{"id":"node:3234278193","kind":"peak","name":"Большой Балаган","lat":44.768986,"lon":34.1927131,"elevationM":734},{"id":"node:3240690153","kind":"peak","name":"Казанчук","lat":44.8412748,"lon":34.0397999,"elevationM":444},{"id":"node:3240697044","kind":"peak","name":"Джирждаир-Баш","lat":44.7862715,"lon":34.0462231,"elevationM":583},{"id":"node:3240699233","kind":"peak","name":"Кизил-Чигир","lat":44.7957653,"lon":34.0097376,"elevationM":443},{"id":"node:3240699938","kind":"peak","name":"Биюк-Сырт","lat":44.7992417,"lon":34.0238606,"elevationM":478},{"id":"node:3240703264","kind":"peak","name":"Маленький Шпилёк","lat":44.8067237,"lon":34.0288039,"elevationM":402},{"id":"node:3240797320","kind":"peak","name":"Бакла","lat":44.8130226,"lon":34.0106429,"elevationM":472},{"id":"node:3268875496","kind":"peak","name":"Анкита","lat":44.637483,"lon":34.1753947,"elevationM":816},{"id":"node:3268875498","kind":"peak","name":"Копар","lat":44.6573262,"lon":34.1696327,"elevationM":716},{"id":"node:3268875499","kind":"peak","name":"Сахал-Сырт","lat":44.6206782,"lon":34.2108606,"elevationM":972},{"id":"node:3268875500","kind":"peak","name":"Таш-Кесер","lat":44.6424449,"lon":34.1620223,"elevationM":756},{"id":"node:3268880246","kind":"peak","name":"Кучералы-Тепе","lat":44.6350984,"lon":34.185473,"elevationM":817},{"id":"node:3268971813","kind":"peak","name":"Амет-Чобан-Чаиры","lat":44.6067766,"lon":34.0165862,"elevationM":411},{"id":"node:3268971818","kind":"peak","name":"Осман-Акаин-Чаиры","lat":44.6021817,"lon":34.009339,"elevationM":418},{"id":"node:3268973447","kind":"peak","name":"Хырлар","lat":44.6010635,"lon":34.0363813,"elevationM":495},{"id":"node:3319210366","kind":"peak","name":"Высший Шпиль","lat":44.6812155,"lon":34.2601533,"elevationM":1217},{"id":"node:3319210368","kind":"peak","name":"Кобоплу","lat":44.5818486,"lon":34.2534163,"elevationM":993},{"id":"node:3326799413","kind":"peak","name":"Хапхал-Баш","lat":44.8083264,"lon":34.4178666,"elevationM":1287},{"id":"node:3326799414","kind":"peak","name":"Босна","lat":44.7850373,"lon":34.4325973,"elevationM":1285},{"id":"node:3326799415","kind":"peak","name":"Байрак-Хая","lat":44.779006,"lon":34.4339062,"elevationM":null},{"id":"node:3326799416","kind":"peak","name":"Базарбай","lat":44.7751329,"lon":34.4402053,"elevationM":null},{"id":"node:3326799417","kind":"peak","name":"Еркян-Кая","lat":44.7730046,"lon":34.4173838,"elevationM":1245},{"id":"node:3326799420","kind":"peak","name":"Шан-Кая","lat":44.770274,"lon":34.451362,"elevationM":931},{"id":"node:3326799422","kind":"peak","name":"Муслюм-Бурун","lat":44.7866244,"lon":34.4624875,"elevationM":null},{"id":"node:3327014467","kind":"peak","name":"Диплис","lat":44.7842808,"lon":34.4393822,"elevationM":1237},{"id":"node:3370439952","kind":"peak","name":"Мавля","lat":44.775898,"lon":34.183197,"elevationM":568},{"id":"node:3370439953","kind":"peak","name":"Малый Балаган","lat":44.7683154,"lon":34.2037508,"elevationM":622},{"id":"node:3370439954","kind":"peak","name":"Подсостав","lat":44.8124991,"lon":34.2302148,"elevationM":646},{"id":"node:3370439955","kind":"peak","name":"Соломенный Бугор","lat":44.7747602,"lon":34.154256,"elevationM":553},{"id":"node:3370439956","kind":"peak","name":"Средний Балаган","lat":44.767298,"lon":34.1983015,"elevationM":629},{"id":"node:3384000237","kind":"peak","name":"Нос","lat":44.8460795,"lon":34.0499863,"elevationM":492},{"id":"node:3390756094","kind":"peak","name":"Бег-Алан","lat":44.9759296,"lon":34.9320028,"elevationM":505},{"id":"node:3390756095","kind":"peak","name":"Биюк-Бурун","lat":44.960471,"lon":34.9371824,"elevationM":619},{"id":"node:3390756098","kind":"peak","name":"Тау-Баши","lat":44.9814461,"lon":34.8864889,"elevationM":772},{"id":"node:3390756099","kind":"peak","name":"Топшан","lat":44.9694476,"lon":34.8660867,"elevationM":744},{"id":"node:3390756100","kind":"peak","name":"Улан-Кая","lat":44.9266109,"lon":34.8524173,"elevationM":813},{"id":"node:3390756101","kind":"peak","name":"Халасыс-Оба","lat":44.9206525,"lon":34.8364685,"elevationM":749},{"id":"node:3390756102","kind":"peak","name":"Эриклик","lat":44.9853277,"lon":34.9355537,"elevationM":518},{"id":"node:3413850633","kind":"peak","name":"Бойнус-Тепе","lat":44.6224662,"lon":34.2653043,"elevationM":1542},{"id":"node:3413850634","kind":"peak","name":"Дам-Кош","lat":44.6101732,"lon":34.2619787,"elevationM":1514},{"id":"node:3413850635","kind":"peak","name":"Зейтин-Кош","lat":44.6179737,"lon":34.2827674,"elevationM":1537},{"id":"node:3413850636","kind":"peak","name":"Тас-Тепе","lat":44.6074135,"lon":34.2433692,"elevationM":1538},{"id":"node:3413850638","kind":"peak","name":"Хабан-Кыр","lat":44.6085385,"lon":34.2757251,"elevationM":1413},{"id":"node:3413850639","kind":"peak","name":"Черкез-Кош","lat":44.625858,"lon":34.302433,"elevationM":1394},{"id":"node:3413919812","kind":"peak","name":"Авунда","lat":44.5730424,"lon":34.2097481,"elevationM":1449},{"id":"node:3413947134","kind":"peak","name":"Малагия","lat":44.4371643,"lon":34.0511883,"elevationM":589},{"id":"node:3419821199","kind":"peak","name":"Козырёк","lat":44.7713108,"lon":34.3845906,"elevationM":null},{"id":"node:3419821203","kind":"peak","name":"Эльх-Кая","lat":44.7666735,"lon":34.3644877,"elevationM":1011},{"id":"node:3421331562","kind":"peak","name":"Казас-Алан","lat":44.9675601,"lon":34.9556818,"elevationM":571},{"id":"node:3421401076","kind":"peak","name":"Юки-Тепе","lat":44.8418138,"lon":34.4338776,"elevationM":1031},{"id":"node:3421401253","kind":"peak","name":"Седло","lat":44.8368025,"lon":34.4277668,"elevationM":1012},{"id":"node:3422914265","kind":"peak","name":"Шарха","lat":44.6114009,"lon":34.3306511,"elevationM":725},{"id":"node:3429696359","kind":"peak","name":"Комо-Фырхра","lat":44.9242646,"lon":34.8100495,"elevationM":null},{"id":"node:3429696360","kind":"peak","name":"Лялель-Оба","lat":44.9212534,"lon":34.8618005,"elevationM":777},{"id":"node:3429696363","kind":"peak","name":"Чатал-Гез","lat":44.9087464,"lon":34.7692585,"elevationM":null},{"id":"node:3429696364","kind":"peak","name":"Япулган","lat":44.9572396,"lon":34.8358851,"elevationM":655},{"id":"node:3429730439","kind":"peak","name":"Шахара","lat":44.9157183,"lon":34.8941609,"elevationM":null},{"id":"node:3431255246","kind":"peak","name":"Токау","lat":44.6973193,"lon":34.139432,"elevationM":571},{"id":"node:3431255247","kind":"peak","name":"Хойла-Хыр","lat":44.6008914,"lon":34.064174,"elevationM":572},{"id":"node:3431255248","kind":"peak","name":"Цала","lat":44.6547762,"lon":34.0982632,"elevationM":683},{"id":"node:3431255249","kind":"peak","name":"Чапуа-Мустафа","lat":44.5940571,"lon":34.0460178,"elevationM":449},{"id":"node:3431255250","kind":"peak","name":"Чипчи-Бойну","lat":44.7100159,"lon":34.1319711,"elevationM":607},{"id":"node:3435257716","kind":"peak","name":"Ховахлы-Дере","lat":44.9298274,"lon":34.8767438,"elevationM":727},{"id":"node:3435383824","kind":"peak","name":"Алчах-Кезил-Сырты","lat":44.8796932,"lon":34.9159209,"elevationM":376},{"id":"node:3435383828","kind":"peak","name":"Хорозма-Кая","lat":44.9036533,"lon":34.9316031,"elevationM":null},{"id":"node:3436451741","kind":"peak","name":"Биюк-Мачи-Кая","lat":44.945178,"lon":34.933301,"elevationM":512},{"id":"node:3436451742","kind":"peak","name":"Келечхан-Оба","lat":44.9075367,"lon":34.8247888,"elevationM":421},{"id":"node:3436451747","kind":"peak","name":"Сан-Алан","lat":44.9113258,"lon":34.8383528,"elevationM":632},{"id":"node:3438572649","kind":"peak","name":"Джемсек","lat":44.9937613,"lon":34.6871872,"elevationM":629},{"id":"node:3438572650","kind":"peak","name":"Кабарга","lat":44.97751,"lon":34.68311,"elevationM":686},{"id":"node:3438572651","kind":"peak","name":"Калыч-Хыр","lat":44.9823641,"lon":34.778874,"elevationM":533},{"id":"node:3438572652","kind":"peak","name":"Карачегир-Тепе","lat":44.9728339,"lon":34.7138363,"elevationM":552},{"id":"node:3438572653","kind":"peak","name":"Смаул","lat":44.9867307,"lon":34.769281,"elevationM":513},{"id":"node:3438572654","kind":"peak","name":"Толга-Хыр","lat":44.9933772,"lon":34.7180686,"elevationM":504},{"id":"node:3438572655","kind":"peak","name":"Хыр-Кая","lat":44.9696032,"lon":34.7540963,"elevationM":547},{"id":"node:3442522921","kind":"peak","name":"Большая Чонка","lat":44.7167696,"lon":34.0201659,"elevationM":547},{"id":"node:3442522922","kind":"peak","name":"Ванькин Бугор","lat":44.7102907,"lon":34.0351928,"elevationM":null},{"id":"node:3442522924","kind":"peak","name":"Кычхи-Бурну","lat":44.7237669,"lon":34.0348208,"elevationM":643},{"id":"node:3442522925","kind":"peak","name":"Язлав","lat":44.7092163,"lon":34.0065226,"elevationM":425},{"id":"node:3443043473","kind":"peak","name":"Колесникова Гора","lat":44.7340651,"lon":34.0458101,"elevationM":491},{"id":"node:3443043474","kind":"peak","name":"Кугульник","lat":44.7347975,"lon":34.07903,"elevationM":null},{"id":"node:3448228702","kind":"peak","name":"Гяур-Кая","lat":44.9010356,"lon":34.6198745,"elevationM":867},{"id":"node:3448228703","kind":"peak","name":"Карагач-Тепе","lat":44.88245,"lon":34.6327678,"elevationM":789},{"id":"node:3448571906","kind":"peak","name":"Ходянын-Хыры","lat":44.5968006,"lon":34.1195198,"elevationM":662},{"id":"node:3448837365","kind":"peak","name":"Дедов Курень","lat":44.8372954,"lon":34.4156964,"elevationM":1016},{"id":"node:3450548332","kind":"peak","name":"Алямна","lat":44.7549007,"lon":34.1552281,"elevationM":483},{"id":"node:3450548375","kind":"peak","name":"Ольховая","lat":44.7251371,"lon":34.1902054,"elevationM":607},{"id":"node:3453620486","kind":"peak","name":"Хартан-Хуш","lat":44.8859272,"lon":34.6896401,"elevationM":null},{"id":"node:3467543615","kind":"peak","name":"Куба-Бурун","lat":44.8626785,"lon":34.7580459,"elevationM":583},{"id":"node:3467543616","kind":"peak","name":"Даз-Тепе","lat":44.8453526,"lon":34.7606208,"elevationM":373},{"id":"node:3467543617","kind":"peak","name":"Йопья","lat":44.8409557,"lon":34.7675516,"elevationM":null},{"id":"node:3467543618","kind":"peak","name":"Сокол","lat":44.8362861,"lon":34.9266555,"elevationM":474},{"id":"node:3502612241","kind":"peak","name":"Джяв-Тепе","lat":44.9863357,"lon":34.7252676,"elevationM":541},{"id":"node:3502612402","kind":"peak","name":"Кокен-Оба","lat":44.9971404,"lon":34.7740517,"elevationM":495},{"id":"node:3502612403","kind":"peak","name":"Каель","lat":44.9687283,"lon":34.7418115,"elevationM":407},{"id":"node:3502612919","kind":"peak","name":"Кордон","lat":44.9789253,"lon":34.7925213,"elevationM":486},{"id":"node:3502612978","kind":"peak","name":"Болюг-Оба","lat":44.9510433,"lon":34.7859231,"elevationM":610},{"id":"node:3502613115","kind":"peak","name":"430","lat":44.9715329,"lon":34.8458276,"elevationM":null},{"id":"node:3502698455","kind":"peak","name":"Кур-Лилю-Бурун","lat":44.9318339,"lon":34.7977355,"elevationM":730},{"id":"node:3502698472","kind":"peak","name":"Шантай-Оба","lat":44.9558495,"lon":34.8121283,"elevationM":476},{"id":"node:3519039213","kind":"peak","name":"Майна","lat":44.6498878,"lon":34.1076832,"elevationM":648},{"id":"node:3534971060","kind":"peak","name":"Крестовая","lat":44.4546868,"lon":34.1356088,"elevationM":204},{"id":"node:3555821758","kind":"peak","name":"Саламлар (Лысая)","lat":44.5044411,"lon":34.0154387,"elevationM":1157},{"id":"node:3555821760","kind":"peak","name":"Лысая","lat":44.4987555,"lon":34.0481616,"elevationM":1275},{"id":"node:3555821761","kind":"peak","name":"Рока","lat":44.5055812,"lon":34.0732349,"elevationM":1347},{"id":"node:3555821762","kind":"peak","name":"Кызыл-Кая","lat":44.5150378,"lon":34.0917314,"elevationM":1358},{"id":"node:3563264433","kind":"peak","name":"Чака-Тыш","lat":44.4358259,"lon":34.0024349,"elevationM":931},{"id":"node:3628931832","kind":"peak","name":"Ат-Ёл","lat":44.9349677,"lon":34.2935681,"elevationM":634},{"id":"node:3629175961","kind":"peak","name":"Карлы-Кая","lat":44.9596303,"lon":34.3376755,"elevationM":580},{"id":"node:3630877421","kind":"peak","name":"Лысый Бугор","lat":44.9610363,"lon":34.3630769,"elevationM":573},{"id":"node:3642534090","kind":"peak","name":"Кастурун-Хыры","lat":44.7602453,"lon":34.463882,"elevationM":null},{"id":"node:3642534091","kind":"peak","name":"Маяк","lat":44.7573046,"lon":34.4608565,"elevationM":517},{"id":"node:3642553033","kind":"peak","name":"Аюджинин-Хыры","lat":44.7569798,"lon":34.4834065,"elevationM":314},{"id":"node:3642760428","kind":"peak","name":"Малбанын-Хыры","lat":44.7340968,"lon":34.4589126,"elevationM":456},{"id":"node:3642760429","kind":"peak","name":"Алака","lat":44.7390049,"lon":34.4548142,"elevationM":null},{"id":"node:3642760472","kind":"peak","name":"Абдуглу-Бурун","lat":44.7244547,"lon":34.4719052,"elevationM":198},{"id":"node:3662113447","kind":"peak","name":"Волванын-Хыр","lat":44.7830568,"lon":34.5502154,"elevationM":null},{"id":"node:3665735223","kind":"peak","name":"Аккот-Джами","lat":44.6462012,"lon":34.2884222,"elevationM":1451},{"id":"node:3665735327","kind":"peak","name":"Деве-Даг","lat":44.6793867,"lon":34.3331232,"elevationM":497},{"id":"node:3665735336","kind":"peak","name":"Чунгур-Кая","lat":44.6853235,"lon":34.3228494,"elevationM":377},{"id":"node:3665735338","kind":"peak","name":"Эгер-Тепе","lat":44.6414287,"lon":34.2666093,"elevationM":1468},{"id":"node:3665772338","kind":"peak","name":"Мали","lat":44.5299866,"lon":34.0525704,"elevationM":1062},{"id":"node:3679336543","kind":"peak","name":"Ай-Йори","lat":44.6482619,"lon":34.3442251,"elevationM":851},{"id":"node:3679336544","kind":"peak","name":"Биюк-Урага","lat":44.6519518,"lon":34.3420745,"elevationM":905},{"id":"node:3679385569","kind":"peak","name":"Чамлы-Даг","lat":44.6668836,"lon":34.3312284,"elevationM":833},{"id":"node:3679427054","kind":"peak","name":"Подпоричел","lat":44.6295365,"lon":34.3436851,"elevationM":626},{"id":"node:3682338559","kind":"peak","name":"Куркулет","lat":44.5761658,"lon":34.3207463,"elevationM":312},{"id":"node:3742678942","kind":"peak","name":"Хаялар","lat":44.8748363,"lon":34.0930163,"elevationM":510},{"id":"node:3756078095","kind":"peak","name":"Берилан-Кош","lat":44.6587244,"lon":34.2343215,"elevationM":1318},{"id":"node:3756078097","kind":"peak","name":"Юсуп-Сырт","lat":44.6244121,"lon":34.20058,"elevationM":886},{"id":"node:3810877703","kind":"peak","name":"Ак-Бурун","lat":44.7496498,"lon":34.2946611,"elevationM":null},{"id":"node:3874292089","kind":"peak","name":"Хоянчих","lat":44.5989681,"lon":34.102188,"elevationM":690},{"id":"node:3875159396","kind":"peak","name":"Тюрлю-Оба","lat":44.9009534,"lon":34.2552836,"elevationM":475},{"id":"node:3883386036","kind":"peak","name":"Уч-Сырым-Тепеси","lat":44.54047,"lon":34.166948,"elevationM":832},{"id":"node:3884601739","kind":"peak","name":"Каракули-Кая","lat":44.4505528,"lon":34.1157077,"elevationM":421},{"id":"node:3896627107","kind":"peak","name":"Голый Шпиль","lat":44.7725864,"lon":34.2295779,"elevationM":838},{"id":"node:3896719999","kind":"peak","name":"Париля","lat":44.7183746,"lon":34.3036987,"elevationM":830},{"id":"node:3914663399","kind":"peak","name":"Ичме-Чиган","lat":44.6186772,"lon":34.2394146,"elevationM":null},{"id":"node:3914663400","kind":"peak","name":"Лапата","lat":44.5542324,"lon":34.1351513,"elevationM":1406},{"id":"node:3914663402","kind":"peak","name":"Оксек-Бурун","lat":44.562501,"lon":34.1291093,"elevationM":1395},{"id":"node:3914663405","kind":"peak","name":"Турла-Кая","lat":44.5268497,"lon":34.129267,"elevationM":1013},{"id":"node:3914665357","kind":"peak","name":"Балабан-кафрах","lat":44.5935471,"lon":34.287828,"elevationM":924},{"id":"node:3915923959","kind":"peak","name":"Зур-Бурун","lat":44.7383327,"lon":34.1067921,"elevationM":546},{"id":"node:3926807478","kind":"peak","name":"Красный камень","lat":44.5541762,"lon":34.203817,"elevationM":1320},{"id":"node:3928860975","kind":"peak","name":"Аганын-Бурун","lat":44.8529691,"lon":34.7945871,"elevationM":221},{"id":"node:3928860976","kind":"peak","name":"Ай-Йорын-Бурун","lat":44.8830025,"lon":34.8332913,"elevationM":510},{"id":"node:3928860977","kind":"peak","name":"Баш-Пармак","lat":44.8546528,"lon":34.862246,"elevationM":518},{"id":"node:3928860978","kind":"peak","name":"Биюм-Са-Гочма","lat":44.8791924,"lon":34.8782849,"elevationM":null},{"id":"node:3928860979","kind":"peak","name":"Вигла","lat":44.862702,"lon":34.8569996,"elevationM":578},{"id":"node:3928860980","kind":"peak","name":"Кызыл-Кая","lat":44.8546419,"lon":34.8441086,"elevationM":483},{"id":"node:3928860981","kind":"peak","name":"Манастырлер","lat":44.8715018,"lon":34.9326976,"elevationM":null},{"id":"node:3928860982","kind":"peak","name":"Сары-Сопла","lat":44.8717641,"lon":34.7760451,"elevationM":479},{"id":"node:3928860983","kind":"peak","name":"Сасыхан-Тепеси","lat":44.8996547,"lon":34.8425248,"elevationM":708},{"id":"node:3928860984","kind":"peak","name":"Таркез-Оба","lat":44.8991811,"lon":34.8808534,"elevationM":773},{"id":"node:3928860985","kind":"peak","name":"Хатурланын-Бурун","lat":44.8824625,"lon":34.8611765,"elevationM":495},{"id":"node:3928860986","kind":"peak","name":"Хучла","lat":44.8834371,"lon":34.7877925,"elevationM":null},{"id":"node:3928865462","kind":"peak","name":"Амбулапла","lat":44.8733718,"lon":34.8717293,"elevationM":506},{"id":"node:3944145330","kind":"peak","name":"Тепе-Мале","lat":44.6024032,"lon":34.0839729,"elevationM":595},{"id":"node:3944145331","kind":"peak","name":"Фтекни-Баир","lat":44.5962238,"lon":34.0878301,"elevationM":611},{"id":"node:3964380907","kind":"peak","name":"Лапата","lat":44.875876,"lon":34.6919445,"elevationM":null},{"id":"node:3964380908","kind":"peak","name":"Папаюр","lat":44.8474076,"lon":34.6972488,"elevationM":373},{"id":"node:3968608654","kind":"peak","name":"Артышлыр-Бурун","lat":44.8957277,"lon":34.9768425,"elevationM":352},{"id":"node:3968608655","kind":"peak","name":"Таш-Кышла","lat":44.9017238,"lon":34.9706117,"elevationM":null},{"id":"node:3968610021","kind":"peak","name":"Сычан-тепе","lat":44.8842017,"lon":34.9943566,"elevationM":148},{"id":"node:4011246638","kind":"peak","name":"Кушан-Кылырын","lat":44.8960413,"lon":34.9110362,"elevationM":485},{"id":"node:4011246639","kind":"peak","name":"Кыдыр-Кая","lat":44.8891632,"lon":34.9551499,"elevationM":229},{"id":"node:4011246640","kind":"peak","name":"Лягушка","lat":44.8932959,"lon":34.9809798,"elevationM":null},{"id":"node:4011246641","kind":"peak","name":"Фурунча","lat":44.8963297,"lon":34.9859879,"elevationM":258},{"id":"node:4011246642","kind":"peak","name":"Харга-Бурун","lat":44.887296,"lon":34.9043453,"elevationM":460},{"id":"node:4011246643","kind":"peak","name":"Хашки-Кая","lat":44.8809746,"lon":34.8387725,"elevationM":null},{"id":"node:4011246644","kind":"peak","name":"Чатал-Кая","lat":44.8755201,"lon":34.8872146,"elevationM":null},{"id":"node:4011246645","kind":"peak","name":"Чигерлин-Бурун","lat":44.8743774,"lon":34.8297897,"elevationM":308},{"id":"node:4011246646","kind":"peak","name":"Юртун-Бурун","lat":44.875226,"lon":34.9007012,"elevationM":412},{"id":"node:4066839339","kind":"peak","name":"Куров Бугор","lat":44.7229503,"lon":34.0459225,"elevationM":549},{"id":"node:4066839340","kind":"peak","name":"Кычхи-Тепе","lat":44.7338497,"lon":34.1170488,"elevationM":612},{"id":"node:4066839342","kind":"peak","name":"Ченка","lat":44.7111419,"lon":34.0211404,"elevationM":495},{"id":"node:4109989583","kind":"peak","name":"Тас-Тау","lat":44.981723,"lon":34.5951025,"elevationM":412},{"id":"node:4144596879","kind":"peak","name":"Воронья скала","lat":44.4568089,"lon":34.0683854,"elevationM":765},{"id":"node:4144730099","kind":"peak","name":"Лисичка","lat":44.456751,"lon":34.1033093,"elevationM":null},{"id":"node:4176190820","kind":"peak","name":"Холодная","lat":44.4619024,"lon":34.0800636,"elevationM":null},{"id":"node:4230446228","kind":"peak","name":"Длинная","lat":44.7572973,"lon":34.0049699,"elevationM":null},{"id":"node:4267064331","kind":"peak","name":"Кермен","lat":44.7731198,"lon":34.0154599,"elevationM":442},{"id":"node:4452247175","kind":"peak","name":"Чатан-Баиры","lat":44.6070914,"lon":34.2936362,"elevationM":1039},{"id":"node:4738670011","kind":"peak","name":"Язлых","lat":44.8494979,"lon":34.6096774,"elevationM":907},{"id":"node:4751489199","kind":"peak","name":"Кутур-Кая","lat":44.8594342,"lon":34.6101486,"elevationM":1064},{"id":"node:4793722015","kind":"peak","name":"Зал-Бурну","lat":44.8321372,"lon":34.7003511,"elevationM":278},{"id":"node:4793782418","kind":"peak","name":"Юхары-Теркез","lat":44.8975715,"lon":34.885625,"elevationM":782},{"id":"node:4793807916","kind":"peak","name":"Сунгурэгрек-Кая","lat":44.907175,"lon":34.8662757,"elevationM":724},{"id":"node:4796087526","kind":"peak","name":"Сирви-Бурун","lat":44.8461667,"lon":34.8955356,"elevationM":295},{"id":"node:4796087539","kind":"peak","name":"Кунделен-Йол","lat":44.8438719,"lon":34.9103755,"elevationM":405},{"id":"node:4796087550","kind":"peak","name":"Сыхтлар","lat":44.8409888,"lon":34.9118063,"elevationM":null},{"id":"node:4796087552","kind":"peak","name":"Талька-Кая","lat":44.8356733,"lon":34.8903874,"elevationM":269},{"id":"node:4796087607","kind":"peak","name":"Чиянчи","lat":44.8402489,"lon":34.9030368,"elevationM":null},{"id":"node:4807465611","kind":"peak","name":"Ангар-Бурун","lat":44.7556645,"lon":34.3140531,"elevationM":1453},{"id":"node:4808194559","kind":"peak","name":"Альярма","lat":44.8046212,"lon":34.246692,"elevationM":null},{"id":"node:4808194560","kind":"peak","name":"Батларан","lat":44.8015729,"lon":34.2389725,"elevationM":683},{"id":"node:4808936280","kind":"peak","name":"Кош-Кая","lat":44.8245245,"lon":34.2083804,"elevationM":695},{"id":"node:4839561161","kind":"peak","name":"Чабанка","lat":44.9044161,"lon":34.1511664,"elevationM":390},{"id":"node:5066931649","kind":"peak","name":"Пендикюль","lat":44.4699242,"lon":34.0831948,"elevationM":865},{"id":"node:5179294516","kind":"peak","name":"Кучук-Гогерджин-Кая","lat":44.8576409,"lon":34.8648119,"elevationM":null},{"id":"node:5179294517","kind":"peak","name":"Биюк-Гогерджин-Кая","lat":44.8619225,"lon":34.871496,"elevationM":null},{"id":"node:5179295011","kind":"peak","name":"Хашташин-Бурун","lat":44.8913366,"lon":34.8803397,"elevationM":635},{"id":"node:5179295033","kind":"peak","name":"Тогал-Бурун","lat":44.887936,"lon":34.8731884,"elevationM":null},{"id":"node:5179401631","kind":"peak","name":"Лысая","lat":44.9513984,"lon":34.6712988,"elevationM":580},{"id":"node:5179401932","kind":"peak","name":"Стелины Кулисы","lat":44.9552915,"lon":34.7552235,"elevationM":591},{"id":"node:5179401933","kind":"peak","name":"Карши-Алан","lat":44.9549857,"lon":34.769521,"elevationM":641},{"id":"node:5262316314","kind":"peak","name":"Судак-Таш","lat":44.9060483,"lon":34.8385677,"elevationM":651},{"id":"node:5266179529","kind":"peak","name":"Самар-Кая","lat":44.7888277,"lon":34.3782057,"elevationM":1271},{"id":"node:5349343922","kind":"peak","name":"Джин-Баир","lat":44.5903262,"lon":34.1312536,"elevationM":720},{"id":"node:5351238652","kind":"peak","name":"Шаган-Кая","lat":44.5740145,"lon":34.2236532,"elevationM":1427},{"id":"node:5351238683","kind":"peak","name":"Роман-Кош","lat":44.6127914,"lon":34.2428239,"elevationM":1545},{"id":"node:5398507978","kind":"peak","name":"Беш-Куба","lat":44.7958164,"lon":34.3123064,"elevationM":1093},{"id":"node:5398508832","kind":"peak","name":"Домчи-Кая","lat":44.7751419,"lon":34.2715515,"elevationM":1045},{"id":"node:5404991324","kind":"peak","name":"Япалах","lat":44.6666232,"lon":34.1630494,"elevationM":666},{"id":"node:5407463881","kind":"peak","name":"Караул-Кая","lat":44.5972381,"lon":34.2768291,"elevationM":1268},{"id":"node:5412985070","kind":"peak","name":"Полотенчик","lat":44.615719,"lon":34.2666122,"elevationM":1540},{"id":"node:5414351115","kind":"peak","name":"Иртыш","lat":44.8689402,"lon":34.5494109,"elevationM":1053},{"id":"node:5416976925","kind":"peak","name":"Улу-Чахил","lat":44.6895809,"lon":34.0764983,"elevationM":541},{"id":"node:5440627086","kind":"peak","name":"Ай-Лия-Сырым","lat":44.5402171,"lon":34.223988,"elevationM":1219},{"id":"node:5440627175","kind":"peak","name":"Хатмерлер","lat":44.5486846,"lon":34.2151339,"elevationM":1386},{"id":"node:5455011352","kind":"peak","name":"Сюрюклеме","lat":44.8692567,"lon":34.644742,"elevationM":null},{"id":"node:5466500322","kind":"peak","name":"Аранлы","lat":44.8825085,"lon":34.6070033,"elevationM":1000},{"id":"node:5467458763","kind":"peak","name":"Чиплах-Кая","lat":44.9536152,"lon":34.996916,"elevationM":null},{"id":"node:5475734130","kind":"peak","name":"Кулнак","lat":44.980663,"lon":34.6478432,"elevationM":470},{"id":"node:5475734472","kind":"peak","name":"Крым","lat":44.9738615,"lon":34.6561563,"elevationM":437},{"id":"node:5475926365","kind":"peak","name":"Байрак","lat":44.9563181,"lon":34.6443289,"elevationM":null},{"id":"node:5487204282","kind":"peak","name":"Малый Ай-Тодор","lat":44.6176253,"lon":34.3581267,"elevationM":null},{"id":"node:5497083910","kind":"peak","name":"Воежка","lat":44.6113,"lon":34.3614,"elevationM":292},{"id":"node:5561482466","kind":"peak","name":"Пуан-Хыр","lat":44.7330734,"lon":34.3467759,"elevationM":746},{"id":"node:5561482503","kind":"peak","name":"Терис-Хыр","lat":44.6881943,"lon":34.3394315,"elevationM":284},{"id":"node:5733618357","kind":"peak","name":"Карасан","lat":44.7188034,"lon":34.4356102,"elevationM":258},{"id":"node:5832554148","kind":"peak","name":"Хапчан-Эгерек","lat":44.8872101,"lon":34.8631999,"elevationM":549},{"id":"node:5832797985","kind":"peak","name":"Митис","lat":44.5709502,"lon":34.0739036,"elevationM":520},{"id":"node:5901161785","kind":"peak","name":"Туаре-Эгерек","lat":44.532265,"lon":34.2156326,"elevationM":900},{"id":"node:5901228573","kind":"peak","name":"Шаан-Кая","lat":44.5360908,"lon":34.240422,"elevationM":765},{"id":"node:5901258525","kind":"peak","name":"Карамет-Кая","lat":44.5266663,"lon":34.2266995,"elevationM":605},{"id":"node:5913518569","kind":"peak","name":"1210","lat":44.4460067,"lon":34.0061667,"elevationM":null},{"id":"node:5913579107","kind":"peak","name":"Кучук-Нишан-Хая","lat":44.4420339,"lon":34.0139934,"elevationM":1175},{"id":"node:5921959582","kind":"peak","name":"Грамота","lat":44.5367777,"lon":34.2226868,"elevationM":1100},{"id":"node:5942390217","kind":"peak","name":"Оксек-Бурун","lat":44.5557485,"lon":34.1699668,"elevationM":1180},{"id":"node:5944521198","kind":"peak","name":"Харши-Кая","lat":44.5538987,"lon":34.1718688,"elevationM":1060},{"id":"node:6120627434","kind":"peak","name":"Авинда","lat":44.5598714,"lon":34.2085588,"elevationM":1474},{"id":"node:6189975240","kind":"peak","name":"Ай-Валенти","lat":44.4959141,"lon":34.0761533,"elevationM":1284},{"id":"node:6348151608","kind":"peak","name":"Рбек-Баши","lat":44.9688666,"lon":34.5861625,"elevationM":617},{"id":"node:6348152270","kind":"peak","name":"Баши","lat":44.9864436,"lon":34.6205485,"elevationM":395},{"id":"node:6370926665","kind":"peak","name":"Тогерек-Алан","lat":44.9567133,"lon":34.7960158,"elevationM":563},{"id":"node:7106538930","kind":"peak","name":"Коюнчик","lat":44.6008706,"lon":34.0961168,"elevationM":677},{"id":"node:7279943280","kind":"peak","name":"Куктамезский бугор","lat":44.8297849,"lon":34.0165064,"elevationM":361},{"id":"node:7305723815","kind":"peak","name":"Синап","lat":44.6658329,"lon":34.2375419,"elevationM":1229},{"id":"node:7320657291","kind":"peak","name":"Утёс Кале-Поти","lat":44.5759322,"lon":34.3476968,"elevationM":null},{"id":"node:7343720553","kind":"peak","name":"Хаплы-Кая","lat":44.5716474,"lon":34.0923664,"elevationM":null},{"id":"node:7350263903","kind":"peak","name":"Биюк-Таушан","lat":44.5711883,"lon":34.1135465,"elevationM":1062},{"id":"node:7923272527","kind":"peak","name":"Домус-Чарыш","lat":44.4542342,"lon":34.0210211,"elevationM":1269},{"id":"node:8855253874","kind":"peak","name":"Ливаз-Кая","lat":44.9218776,"lon":34.7854926,"elevationM":872},{"id":"node:9233697634","kind":"peak","name":"Гора Гюзель-Даг","lat":44.8890097,"lon":34.1049239,"elevationM":480},{"id":"node:10239837028","kind":"peak","name":"Скала Ура","lat":44.5202039,"lon":34.1986983,"elevationM":null},{"id":"node:10292923742","kind":"peak","name":"Палеокастрон","lat":44.5204075,"lon":34.2268766,"elevationM":467},{"id":"node:10561853946","kind":"peak","name":"Палеокастрон","lat":44.5218763,"lon":34.2263936,"elevationM":499},{"id":"node:10567656454","kind":"peak","name":"Скала Биюк-Кардис-Кая","lat":44.5416247,"lon":34.2398544,"elevationM":null},{"id":"node:10567656455","kind":"peak","name":"Скала Кучук-Кардис-Кая","lat":44.5437283,"lon":34.2382666,"elevationM":null},{"id":"node:11001256823","kind":"peak","name":"Черкасын-Даг","lat":44.5231125,"lon":34.2146235,"elevationM":598},{"id":"node:11001256828","kind":"peak","name":"Тепелер","lat":44.5791264,"lon":34.3482862,"elevationM":null},{"id":"node:11064478222","kind":"peak","name":"Дарсан","lat":44.4990817,"lon":34.1601077,"elevationM":148},{"id":"node:11078921195","kind":"peak","name":"Магарач","lat":44.5059773,"lon":34.1526389,"elevationM":291},{"id":"node:11078921196","kind":"peak","name":"Поликуровский холм","lat":44.5026979,"lon":34.17919,"elevationM":153},{"id":"node:11323101877","kind":"peak","name":"Ашага-Чулах-Кая","lat":44.8771809,"lon":34.6950052,"elevationM":null},{"id":"node:11381020735","kind":"peak","name":"Чумакари","lat":44.8995668,"lon":34.1143668,"elevationM":468},{"id":"node:11381022770","kind":"peak","name":"Ак-Баїр","lat":44.9489495,"lon":34.1446069,"elevationM":360},{"id":"node:11385625588","kind":"peak","name":"Кан-Кая","lat":44.9455217,"lon":34.1191724,"elevationM":null},{"id":"node:11385625589","kind":"peak","name":"Джан-Кая","lat":44.9439953,"lon":34.1211573,"elevationM":null},{"id":"node:11385625590","kind":"peak","name":"Алім-Коба","lat":44.9122936,"lon":34.1283651,"elevationM":null},{"id":"node:11385625591","kind":"peak","name":"Сари-Балчик (Киловська гора)","lat":44.9069679,"lon":34.123737,"elevationM":464},{"id":"node:11385641588","kind":"peak","name":"Дженакай-Кир (Петрівські скелі)","lat":44.9432207,"lon":34.1217903,"elevationM":null},{"id":"node:11385642011","kind":"peak","name":"Абдал-Кир","lat":44.9839149,"lon":34.1206299,"elevationM":323},{"id":"node:11385666223","kind":"peak","name":"Кара-Оба (Банкова гора)","lat":44.9585464,"lon":34.1690996,"elevationM":403},{"id":"node:11385666225","kind":"peak","name":"Кая-Баш","lat":44.9452259,"lon":34.1134893,"elevationM":290},{"id":"node:11385666470","kind":"peak","name":"Абдал Кыр","lat":44.997886,"lon":34.1620982,"elevationM":323},{"id":"node:11385670981","kind":"peak","name":"Панати-Кая","lat":44.9442728,"lon":34.1499199,"elevationM":null},{"id":"node:11385696061","kind":"peak","name":"Каяси","lat":44.9132582,"lon":34.1545993,"elevationM":320},{"id":"node:11385696062","kind":"peak","name":"Скалка","lat":44.922651,"lon":34.150641,"elevationM":null},{"id":"node:11385723031","kind":"peak","name":"Ташлик","lat":44.9705116,"lon":34.1970135,"elevationM":409},{"id":"node:11385773872","kind":"peak","name":"Чечеклі-Кир","lat":44.9539496,"lon":34.1935977,"elevationM":null},{"id":"node:11385776572","kind":"peak","name":"Бадана","lat":44.9076186,"lon":34.0254921,"elevationM":352},{"id":"node:11385776573","kind":"peak","name":"Ботке","lat":44.9234862,"lon":34.0419324,"elevationM":341},{"id":"node:11405600767","kind":"peak","name":"Байрам-Таш","lat":44.9475807,"lon":34.282971,"elevationM":565},{"id":"node:11489117419","kind":"peak","name":"Сунен-Кая","lat":44.5979196,"lon":34.360852,"elevationM":216},{"id":"node:12423409628","kind":"peak","name":"Паша-Тепе","lat":44.6922702,"lon":34.4256193,"elevationM":186},{"id":"node:12423409629","kind":"peak","name":"Стахеевская горка","lat":44.6866423,"lon":34.4242646,"elevationM":118},{"id":"node:12427055922","kind":"peak","name":"Ай-Яни","lat":44.504419,"lon":34.14021,"elevationM":414},{"id":"node:12427055924","kind":"peak","name":"Холм Славы","lat":44.5002982,"lon":34.1610934,"elevationM":null},{"id":"node:12427055983","kind":"peak","name":"Тавалар","lat":44.5906591,"lon":34.343639,"elevationM":241},{"id":"node:12427055984","kind":"peak","name":"Чан-Баир","lat":44.5947341,"lon":34.3478808,"elevationM":null},{"id":"node:12880929621","kind":"peak","name":"Кереч-Хую","lat":44.4442529,"lon":34.1243087,"elevationM":null},{"id":"node:12880929624","kind":"peak","name":"Чёрный бугор","lat":44.4161232,"lon":34.0400632,"elevationM":null},{"id":"node:12880929627","kind":"peak","name":"Мачтовая скала","lat":44.4564093,"lon":34.1426491,"elevationM":null},{"id":"node:13028568572","kind":"peak","name":"Хачамахлар-Оба","lat":44.9148179,"lon":34.8257416,"elevationM":475},{"id":"node:13093223132","kind":"peak","name":"Бузавлук","lat":44.6107103,"lon":34.0140221,"elevationM":441},{"id":"node:13093223516","kind":"peak","name":"Хырлар-Баир","lat":44.6007686,"lon":34.0581169,"elevationM":null},{"id":"node:13428629001","kind":"peak","name":"Бакабрех","lat":44.5222298,"lon":34.2131582,"elevationM":null},{"id":"node:13540654900","kind":"peak","name":"Сырная скала","lat":44.8095538,"lon":34.0066519,"elevationM":null},{"id":"node:13540671906","kind":"peak","name":"Каменный сфинкс","lat":44.8101653,"lon":34.0023271,"elevationM":null},{"id":"node:13603678787","kind":"peak","name":"Сычан-Тепе","lat":44.5278458,"lon":34.169398,"elevationM":338},{"id":"node:13603678798","kind":"peak","name":"Тохатлы-Хыр","lat":44.5798604,"lon":34.3212958,"elevationM":null},{"id":"node:13603678799","kind":"peak","name":"Аян-Тепе","lat":44.6077393,"lon":34.3553273,"elevationM":363},{"id":"node:13603844225","kind":"peak","name":"Стамас","lat":44.4205548,"lon":34.035714,"elevationM":273},{"id":"node:13603844226","kind":"peak","name":"Чам-Тепе","lat":44.4155029,"lon":34.000994,"elevationM":null},{"id":"node:13630312303","kind":"peak","name":"Пляки-Кая","lat":44.5449081,"lon":34.1777185,"elevationM":571}]}