{"tileKey":"la_p61_lo_p5","version":"v1-1775891056926","entries":[{"id":"node:26862574","kind":"peak","name":"Blåfjellet","lat":61.5376184,"lon":5.920778,"elevationM":1067},{"id":"node:26862581","kind":"peak","name":"Blånibba","lat":61.8025,"lon":5.8219444,"elevationM":1670},{"id":"node:26862588","kind":"peak","name":"Blægja","lat":61.4241103,"lon":5.5108221,"elevationM":1305},{"id":"node:26862635","kind":"peak","name":"Brossviksåta","lat":61.0342843,"lon":5.1539954,"elevationM":722},{"id":"node:26862643","kind":"peak","name":"Bukkenibba","lat":61.8038889,"lon":5.7516667,"elevationM":1515},{"id":"node:26863222","kind":"peak","name":"Hornelen","lat":61.8558288,"lon":5.2469586,"elevationM":860},{"id":"node:26863458","kind":"peak","name":"Kvanngrofjellet","lat":61.2355556,"lon":5.7366667,"elevationM":null},{"id":"node:26863460","kind":"peak","name":"Kvasshornet","lat":61.8627763,"lon":5.6586244,"elevationM":1094},{"id":"node:26863543","kind":"peak","name":"Lifjell","lat":61.1633359,"lon":5.1575034,"elevationM":null},{"id":"node:26864865","kind":"peak","name":"Krakhellenipa","lat":61.1218129,"lon":5.0003472,"elevationM":569},{"id":"node:26864937","kind":"peak","name":"Toreheia","lat":61.4406589,"lon":5.1630809,"elevationM":717},{"id":"node:26865087","kind":"peak","name":"Vikafjellet","lat":61.5641667,"lon":5.4358333,"elevationM":null},{"id":"node:410439464","kind":"peak","name":"Viafjellet","lat":61.4511594,"lon":5.9402576,"elevationM":709},{"id":"node:410439465","kind":"peak","name":"Hafstadfjellet","lat":61.4371609,"lon":5.8581716,"elevationM":706},{"id":"node:410439466","kind":"peak","name":"Førdsnipa","lat":61.4773348,"lon":5.8870723,"elevationM":863},{"id":"node:626026960","kind":"peak","name":"Kletten","lat":61.461087,"lon":5.8454022,"elevationM":null},{"id":"node:626075191","kind":"peak","name":"Fauskevarden","lat":61.4486953,"lon":5.7225713,"elevationM":853},{"id":"node:626075192","kind":"peak","name":"Fureviksnipa","lat":61.4664866,"lon":5.7454359,"elevationM":750},{"id":"node:1387884324","kind":"peak","name":"Hanekammen","lat":61.9373291,"lon":5.1747751,"elevationM":652},{"id":"node:1389844084","kind":"peak","name":"Dyrhovden","lat":61.4656038,"lon":5.2873243,"elevationM":274},{"id":"node:1424330749","kind":"peak","name":"Haukanipa","lat":61.6467335,"lon":5.2244011,"elevationM":790},{"id":"node:1547313622","kind":"peak","name":"Grønholten","lat":61.3517569,"lon":5.4377795,"elevationM":411},{"id":"node:1709764691","kind":"peak","name":"Aksla","lat":61.6297431,"lon":5.794118,"elevationM":682},{"id":"node:1709764692","kind":"peak","name":"Grøneknausen","lat":61.6208732,"lon":5.8314344,"elevationM":872},{"id":"node:1837128637","kind":"peak","name":"Oldeidsmannen","lat":61.8836886,"lon":5.0422632,"elevationM":422},{"id":"node:2050796248","kind":"peak","name":"Teigesåta","lat":61.255123,"lon":5.146267,"elevationM":441},{"id":"node:2442992990","kind":"peak","name":"Kjæretoppane","lat":61.9450254,"lon":5.0782858,"elevationM":382},{"id":"node:2908932009","kind":"peak","name":"Halbrendsnipa","lat":61.4423615,"lon":5.7756128,"elevationM":801},{"id":"node:2974649344","kind":"peak","name":"Kletten","lat":61.5071864,"lon":5.7303703,"elevationM":269},{"id":"node:3268551810","kind":"peak","name":"Veten","lat":61.9488016,"lon":5.0917466,"elevationM":613},{"id":"node:3268561905","kind":"peak","name":"Gottrøysa","lat":61.9493233,"lon":5.1128864,"elevationM":556},{"id":"node:3268561906","kind":"peak","name":"Brurahornet","lat":61.9568165,"lon":5.1078935,"elevationM":604},{"id":"node:3648446036","kind":"peak","name":"Skadebakken","lat":61.9646892,"lon":5.081271,"elevationM":354},{"id":"node:3655515992","kind":"peak","name":"Kletten","lat":61.9434082,"lon":5.0630456,"elevationM":304},{"id":"node:3802898720","kind":"peak","name":"Keipen","lat":61.7382453,"lon":5.4190812,"elevationM":1362},{"id":"node:3804128678","kind":"peak","name":"Hyeneshesten","lat":61.8404341,"lon":5.9356394,"elevationM":1255},{"id":"node:3858420362","kind":"peak","name":"Børefjell","lat":61.6767772,"lon":5.328657,"elevationM":null},{"id":"node:3861754560","kind":"peak","name":"Krunene","lat":61.5408294,"lon":5.9465869,"elevationM":1064},{"id":"node:4032558228","kind":"peak","name":"Hellevikåsen","lat":61.2952665,"lon":5.1645864,"elevationM":114},{"id":"node:4032558231","kind":"peak","name":"Kysnesåsen","lat":61.3111472,"lon":5.139965,"elevationM":89},{"id":"node:4037486109","kind":"peak","name":"Einingsfjellet","lat":61.2731664,"lon":5.0025291,"elevationM":258},{"id":"node:4144899922","kind":"peak","name":"Sankta Synneva-hornet","lat":61.9355615,"lon":5.2717784,"elevationM":689},{"id":"node:4144937780","kind":"peak","name":"Flistrahornet","lat":61.9797766,"lon":5.3280572,"elevationM":637},{"id":"node:4161989942","kind":"peak","name":"Gløsen","lat":61.6604552,"lon":5.3413853,"elevationM":694},{"id":"node:4161989943","kind":"peak","name":"Grønskredfjellet","lat":61.6972755,"lon":5.3638193,"elevationM":898},{"id":"node:4161989947","kind":"peak","name":"Håukåbøra","lat":61.6724722,"lon":5.2940497,"elevationM":1065},{"id":"node:4161989948","kind":"peak","name":"Litle Børa","lat":61.6611478,"lon":5.3123316,"elevationM":788},{"id":"node:4161989949","kind":"peak","name":"Lægdefjellet","lat":61.6781023,"lon":5.372338,"elevationM":793},{"id":"node:4161989950","kind":"peak","name":"Nordrefjellet","lat":61.6538744,"lon":5.262979,"elevationM":669},{"id":"node:4161989951","kind":"peak","name":"Svartebotsnipa","lat":61.6970517,"lon":5.337126,"elevationM":1018},{"id":"node:4161989953","kind":"peak","name":"Trollnipa","lat":61.6682566,"lon":5.260919,"elevationM":911},{"id":"node:4161989954","kind":"peak","name":"Ulldalsnipa","lat":61.6508994,"lon":5.3183827,"elevationM":726},{"id":"node:4211586990","kind":"peak","name":"Gygrekjeften","lat":61.1735881,"lon":5.223891,"elevationM":710},{"id":"node:4214166790","kind":"peak","name":"Kyrnosa","lat":61.9822019,"lon":5.4679034,"elevationM":617},{"id":"node:4286195364","kind":"peak","name":"Vassnipa","lat":61.0973216,"lon":5.7739701,"elevationM":null},{"id":"node:4286195366","kind":"peak","name":"Veslenipa","lat":61.1037686,"lon":5.7860059,"elevationM":null},{"id":"node:4286195370","kind":"peak","name":"Åkrenipa","lat":61.1097894,"lon":5.7884729,"elevationM":669},{"id":"node:4294537079","kind":"peak","name":"Bondefjellet","lat":61.1218939,"lon":5.0637838,"elevationM":433},{"id":"node:4294537080","kind":"peak","name":"Fargerlifjellet","lat":61.1390502,"lon":5.070028,"elevationM":381},{"id":"node:4294537083","kind":"peak","name":"Meinova","lat":61.1626457,"lon":5.0396332,"elevationM":453},{"id":"node:4761666144","kind":"peak","name":"Kletten","lat":61.9236928,"lon":5.1305535,"elevationM":144},{"id":"node:4761740379","kind":"peak","name":"Verpeneset","lat":61.9015237,"lon":5.2014378,"elevationM":null},{"id":"node:4761740380","kind":"peak","name":"Nestoppen","lat":61.9020466,"lon":5.1999304,"elevationM":null},{"id":"node:4764070861","kind":"peak","name":"Ørnenipa","lat":61.4683341,"lon":5.2439368,"elevationM":27},{"id":"node:4764096905","kind":"peak","name":"Storehaugen","lat":61.4663918,"lon":5.2473418,"elevationM":47},{"id":"node:4765012730","kind":"peak","name":"Neset","lat":61.9859621,"lon":5.1917079,"elevationM":null},{"id":"node:4766343316","kind":"peak","name":"Rindehaugen","lat":61.9991245,"lon":5.1371035,"elevationM":145},{"id":"node:4766343317","kind":"peak","name":"Lynghaugen","lat":61.9973943,"lon":5.1388711,"elevationM":null},{"id":"node:4766343513","kind":"peak","name":"Veten","lat":61.9938755,"lon":5.1491305,"elevationM":null},{"id":"node:4767896963","kind":"peak","name":"Larshaugen","lat":61.1075026,"lon":5.2342907,"elevationM":null},{"id":"node:4770619736","kind":"peak","name":"Gottebergshammaren","lat":61.9429027,"lon":5.1269763,"elevationM":null},{"id":"node:4806420446","kind":"peak","name":"Nibbefjellet","lat":61.9466808,"lon":5.0370128,"elevationM":309},{"id":"node:4806420447","kind":"peak","name":"Hestetinden","lat":61.9456559,"lon":5.0217068,"elevationM":330},{"id":"node:4806420448","kind":"peak","name":"Hesten","lat":61.9457934,"lon":5.0227448,"elevationM":null},{"id":"node:4806420513","kind":"peak","name":"Vommahaugen","lat":61.9331711,"lon":5.0369364,"elevationM":null},{"id":"node:5047505347","kind":"peak","name":"Systadfjellet","lat":61.177698,"lon":5.3896927,"elevationM":208},{"id":"node:5102608660","kind":"peak","name":"Dua","lat":61.9664447,"lon":5.62009,"elevationM":787},{"id":"node:5514267879","kind":"peak","name":"Kroppa","lat":61.0891002,"lon":5.8552897,"elevationM":686},{"id":"node:5514267880","kind":"peak","name":"Rimmenova","lat":61.0328595,"lon":5.8545569,"elevationM":null},{"id":"node:5514267881","kind":"peak","name":"Tverrfjellet","lat":61.0358683,"lon":5.8294504,"elevationM":null},{"id":"node:5514267882","kind":"peak","name":"Hestkamben","lat":61.0593205,"lon":5.8184656,"elevationM":null},{"id":"node:5516871339","kind":"peak","name":"Fridalsnuten","lat":61.0084976,"lon":5.8030128,"elevationM":954},{"id":"node:5516871340","kind":"peak","name":"Styggehaugen","lat":61.020653,"lon":5.8448982,"elevationM":770},{"id":"node:5516871345","kind":"peak","name":"Kvanngrødet","lat":61.0437655,"lon":5.8666348,"elevationM":945},{"id":"node:5519254118","kind":"peak","name":"Høgelloftet","lat":61.0529269,"lon":5.7598185,"elevationM":838},{"id":"node:5519254119","kind":"peak","name":"Rindenova","lat":61.0387526,"lon":5.7299602,"elevationM":697},{"id":"node:5519254120","kind":"peak","name":"Høgerinden","lat":61.0389449,"lon":5.7178688,"elevationM":745},{"id":"node:5519259765","kind":"peak","name":"Skråa","lat":61.0756838,"lon":5.7107663,"elevationM":721},{"id":"node:5519259766","kind":"peak","name":"Nova","lat":61.0876994,"lon":5.7142639,"elevationM":586},{"id":"node:5728989747","kind":"peak","name":"Nordre","lat":61.4056602,"lon":5.4103683,"elevationM":782},{"id":"node:5728989748","kind":"peak","name":"Søre","lat":61.3992672,"lon":5.4127072,"elevationM":800},{"id":"node:5730062971","kind":"peak","name":"Håheia","lat":61.3100345,"lon":5.3175951,"elevationM":455},{"id":"node:5730094852","kind":"peak","name":"Eikarolsheia","lat":61.3405146,"lon":5.2388851,"elevationM":414},{"id":"node:5730095929","kind":"peak","name":"Vardeheia","lat":61.3220717,"lon":5.2423376,"elevationM":459},{"id":"node:5730181918","kind":"peak","name":"Kallastølsfjellet","lat":61.3175942,"lon":5.2377363,"elevationM":386},{"id":"node:5730181996","kind":"peak","name":"Sylvsteinheia","lat":61.3425499,"lon":5.2361658,"elevationM":385},{"id":"node:5730182162","kind":"peak","name":"Søre Klibberdalsfjellet","lat":61.2940432,"lon":5.417121,"elevationM":600},{"id":"node:5730218873","kind":"peak","name":"Nonsholten","lat":61.3800968,"lon":5.3479685,"elevationM":752},{"id":"node:5734797207","kind":"peak","name":"Fløyen","lat":61.3784252,"lon":5.3697316,"elevationM":761},{"id":"node:5734844819","kind":"peak","name":"Laukelandshesten","lat":61.3883721,"lon":5.4564662,"elevationM":678},{"id":"node:5734864575","kind":"peak","name":"Fossedalshengenipa","lat":61.4093475,"lon":5.353405,"elevationM":713},{"id":"node:5734949874","kind":"peak","name":"Stølsfjellet","lat":61.3979679,"lon":5.2922453,"elevationM":628},{"id":"node:5734949882","kind":"peak","name":"Hekkelfjellet","lat":61.3954296,"lon":5.209381,"elevationM":708},{"id":"node:5762251571","kind":"peak","name":"Storekletten","lat":61.380302,"lon":5.1896398,"elevationM":349},{"id":"node:5762252855","kind":"peak","name":"Dokka","lat":61.3721864,"lon":5.1509999,"elevationM":756},{"id":"node:5762252858","kind":"peak","name":"Bronkeliknoltren","lat":61.3871824,"lon":5.1466011,"elevationM":487},{"id":"node:5762322419","kind":"peak","name":"Fanafjellet","lat":61.4019634,"lon":5.1640818,"elevationM":712},{"id":"node:5762383507","kind":"peak","name":"Moldura","lat":61.3957675,"lon":5.1618006,"elevationM":837},{"id":"node:5762419735","kind":"peak","name":"Hundeheia","lat":61.3797583,"lon":5.2737676,"elevationM":472},{"id":"node:5762420147","kind":"peak","name":"Klimpen","lat":61.4075819,"lon":5.3019969,"elevationM":652},{"id":"node:5762420150","kind":"peak","name":"Vagstadfjellet","lat":61.4018666,"lon":5.3014282,"elevationM":575},{"id":"node:5764330451","kind":"peak","name":"Kletten","lat":61.322805,"lon":5.3641336,"elevationM":163},{"id":"node:5766642631","kind":"peak","name":"Gjelsvikefjellet","lat":61.4492123,"lon":5.3901644,"elevationM":663},{"id":"node:5766644143","kind":"peak","name":"Høgefjellet","lat":61.4345941,"lon":5.421069,"elevationM":689},{"id":"node:5766644150","kind":"peak","name":"Botnafjellet","lat":61.4333731,"lon":5.4474834,"elevationM":676},{"id":"node:5766678593","kind":"peak","name":"Seten","lat":61.4027198,"lon":5.547798,"elevationM":779},{"id":"node:5766710670","kind":"peak","name":"Kvamshesten","lat":61.4014148,"lon":5.62732,"elevationM":1209},{"id":"node:5766711026","kind":"peak","name":"Litlehesten","lat":61.4092618,"lon":5.6812272,"elevationM":912},{"id":"node:5766712245","kind":"peak","name":"Selshogda","lat":61.4025145,"lon":5.5840402,"elevationM":999},{"id":"node:5766725702","kind":"peak","name":"Hermannsfjellet","lat":61.3980258,"lon":5.6769412,"elevationM":610},{"id":"node:5777706513","kind":"peak","name":"Dyrekula","lat":61.4193226,"lon":5.1738639,"elevationM":212},{"id":"node:5777741375","kind":"peak","name":"Fristadfjellet","lat":61.3652143,"lon":5.0878698,"elevationM":477},{"id":"node:5777741529","kind":"peak","name":"Kultingane","lat":61.3715844,"lon":5.08469,"elevationM":456},{"id":"node:5782686515","kind":"peak","name":"Nabben","lat":61.342313,"lon":5.3122435,"elevationM":74},{"id":"node:5787852333","kind":"peak","name":"Varden","lat":61.3137698,"lon":5.2875221,"elevationM":370},{"id":"node:5787854525","kind":"peak","name":"Korsfjellet","lat":61.3184625,"lon":5.2765817,"elevationM":357},{"id":"node:5787855115","kind":"peak","name":"Arsteinheia","lat":61.3342617,"lon":5.2431948,"elevationM":446},{"id":"node:5787855117","kind":"peak","name":"Holten","lat":61.3364486,"lon":5.2638895,"elevationM":211},{"id":"node:5788031814","kind":"peak","name":"Nipane","lat":61.414097,"lon":5.2166111,"elevationM":612},{"id":"node:5788031815","kind":"peak","name":"Heiane","lat":61.4217244,"lon":5.2097018,"elevationM":237},{"id":"node:5788031899","kind":"peak","name":"Porten","lat":61.4150351,"lon":5.260071,"elevationM":563},{"id":"node:5788058360","kind":"peak","name":"Åsen","lat":61.4402289,"lon":5.3197574,"elevationM":306},{"id":"node:5788058363","kind":"peak","name":"Holten","lat":61.4524032,"lon":5.3025055,"elevationM":190},{"id":"node:5789101535","kind":"peak","name":"Svidnova","lat":61.3073299,"lon":5.4249017,"elevationM":522},{"id":"node:5789101536","kind":"peak","name":"Høgevarden","lat":61.3101011,"lon":5.4035728,"elevationM":515},{"id":"node:5789226368","kind":"peak","name":"Storåsen","lat":61.3454162,"lon":5.3200924,"elevationM":306},{"id":"node:5789363657","kind":"peak","name":"Sageholten","lat":61.4683607,"lon":5.2696776,"elevationM":null},{"id":"node:5790646159","kind":"peak","name":"Kvamsnipa","lat":61.4300675,"lon":5.2865382,"elevationM":651},{"id":"node:5790646462","kind":"peak","name":"Nipa","lat":61.4479549,"lon":5.2409433,"elevationM":391},{"id":"node:5792118599","kind":"peak","name":"Kvitefjellet","lat":61.3534564,"lon":5.4490079,"elevationM":418},{"id":"node:5796875528","kind":"peak","name":"Rusta","lat":61.4083509,"lon":5.0012905,"elevationM":145},{"id":"node:5796875735","kind":"peak","name":"Brendehaugane","lat":61.4253894,"lon":5.0516837,"elevationM":220},{"id":"node:5799830055","kind":"peak","name":"Torsnova","lat":61.3242179,"lon":5.3766222,"elevationM":346},{"id":"node:5799900374","kind":"peak","name":"Kamben","lat":61.4555302,"lon":5.4088982,"elevationM":198},{"id":"node:5845804780","kind":"peak","name":"Almberget","lat":61.3337798,"lon":5.3578974,"elevationM":386},{"id":"node:5859607061","kind":"peak","name":"Langeberga","lat":61.4048527,"lon":5.1512544,"elevationM":null},{"id":"node:5859607062","kind":"peak","name":"Nipa","lat":61.4032351,"lon":5.1227479,"elevationM":588},{"id":"node:5912510710","kind":"peak","name":"Brekka","lat":61.4574403,"lon":5.3441299,"elevationM":326},{"id":"node:6104386580","kind":"peak","name":"Jerningshaugen","lat":61.9814567,"lon":5.1887535,"elevationM":null},{"id":"node:6448489264","kind":"peak","name":"Storåsen","lat":61.4893411,"lon":5.1154607,"elevationM":147},{"id":"node:6448489408","kind":"peak","name":"Kvalstadfjellet","lat":61.485139,"lon":5.0800502,"elevationM":235},{"id":"node:6449289208","kind":"peak","name":"Kvalstadfjellet","lat":61.4796889,"lon":5.1101875,"elevationM":151},{"id":"node:6587200433","kind":"peak","name":"Veten","lat":61.8919145,"lon":5.9027768,"elevationM":566},{"id":"node:6587201219","kind":"peak","name":"Hornet","lat":61.8867122,"lon":5.785909,"elevationM":719},{"id":"node:6587201365","kind":"peak","name":"Kroknakken","lat":61.8663113,"lon":5.8254374,"elevationM":505},{"id":"node:6648385186","kind":"peak","name":"Troda","lat":61.8734631,"lon":5.4740987,"elevationM":953},{"id":"node:6881803489","kind":"peak","name":"Vindkjegla","lat":61.5105334,"lon":5.671883,"elevationM":688},{"id":"node:8018394623","kind":"peak","name":"Hovden","lat":61.3022617,"lon":5.1839217,"elevationM":null},{"id":"node:8158882287","kind":"peak","name":"Brendåsen","lat":61.2824706,"lon":5.0970471,"elevationM":null},{"id":"node:8158882342","kind":"peak","name":"Bygdaheia","lat":61.2733826,"lon":5.0470272,"elevationM":null},{"id":"node:8165437172","kind":"peak","name":"Åsen","lat":61.3337107,"lon":5.2134373,"elevationM":null},{"id":"node:8339184907","kind":"peak","name":"Sørdalshaugen","lat":61.2969555,"lon":5.2118438,"elevationM":null},{"id":"node:8941858501","kind":"peak","name":"Staurdalseggja","lat":61.9623023,"lon":5.5757755,"elevationM":787},{"id":"node:8963601171","kind":"peak","name":"Hatlesetnipa","lat":61.6202778,"lon":5.3483033,"elevationM":583},{"id":"node:8964232313","kind":"peak","name":"Blånipa","lat":61.6194537,"lon":5.4800789,"elevationM":1021},{"id":"node:9120993214","kind":"peak","name":"Tortenholvarden","lat":61.9331701,"lon":5.9772333,"elevationM":878},{"id":"node:9121034748","kind":"peak","name":"Liavarden","lat":61.9368467,"lon":5.9440835,"elevationM":849},{"id":"node:9356169507","kind":"peak","name":"Skurveholten","lat":61.3445232,"lon":5.343065,"elevationM":450},{"id":"node:9356219662","kind":"peak","name":"Vardane","lat":61.310499,"lon":5.4179894,"elevationM":null},{"id":"node:9356220006","kind":"peak","name":"Nordre Klibberdalsfjellet","lat":61.3005231,"lon":5.4213614,"elevationM":587},{"id":"node:9813422284","kind":"peak","name":"Stigfjellet","lat":61.1280187,"lon":5.0771481,"elevationM":null},{"id":"node:9813454755","kind":"peak","name":"Dalsknuten","lat":61.1366482,"lon":5.0487542,"elevationM":null},{"id":"node:9908042477","kind":"peak","name":"Fløyen","lat":61.3519095,"lon":5.6479346,"elevationM":651},{"id":"node:9908046012","kind":"peak","name":"Blåfjellet","lat":61.3292666,"lon":5.6317466,"elevationM":848},{"id":"node:9908072195","kind":"peak","name":"Knanngrødnipa","lat":61.3074017,"lon":5.627973,"elevationM":767},{"id":"node:9908119029","kind":"peak","name":"Høgevarden","lat":61.2930566,"lon":5.61525,"elevationM":788},{"id":"node:9921944040","kind":"peak","name":"Eiaåsen","lat":61.3742608,"lon":5.6647783,"elevationM":223},{"id":"node:9968044782","kind":"peak","name":"Blåsalen","lat":61.9808,"lon":5.97937,"elevationM":1008},{"id":"node:9968044794","kind":"peak","name":"Rikeloftet","lat":61.72627,"lon":5.31907,"elevationM":1143},{"id":"node:9968044816","kind":"peak","name":"Nordfjordtoren","lat":61.98649,"lon":5.97565,"elevationM":1093},{"id":"node:9980744433","kind":"peak","name":"Seltuftnibba","lat":61.76468,"lon":5.90767,"elevationM":1316},{"id":"node:9980744436","kind":"peak","name":"Skjerdingane","lat":61.84303,"lon":5.91268,"elevationM":1276},{"id":"node:9980744437","kind":"peak","name":"Gråfjellet","lat":61.74561,"lon":5.78969,"elevationM":1405},{"id":"node:9980744457","kind":"peak","name":"Månyta","lat":61.80638,"lon":5.88976,"elevationM":1397},{"id":"node:9980744463","kind":"peak","name":"Eggene","lat":61.77983,"lon":5.91557,"elevationM":1268},{"id":"node:9980744467","kind":"peak","name":"Lassenipa","lat":61.68849,"lon":5.61419,"elevationM":1024},{"id":"node:9980744470","kind":"peak","name":"Egga","lat":61.69862,"lon":5.52481,"elevationM":1077},{"id":"node:9980744473","kind":"peak","name":"Skorfjellet","lat":61.69637,"lon":5.69855,"elevationM":1032},{"id":"node:9980744475","kind":"peak","name":"Hjelmen","lat":61.76638,"lon":5.39139,"elevationM":1215},{"id":"node:9980744478","kind":"peak","name":"Klakegga","lat":61.8648,"lon":5.59199,"elevationM":1093},{"id":"node:9980744479","kind":"peak","name":"Snønyken","lat":61.79205,"lon":5.5651,"elevationM":1241},{"id":"node:9980744537","kind":"peak","name":"Kjelstadnakken","lat":61.35831,"lon":5.90728,"elevationM":1030},{"id":"node:9980744561","kind":"peak","name":"Snøheia","lat":61.2992,"lon":5.98262,"elevationM":1141},{"id":"node:9980744565","kind":"peak","name":"Sollinova","lat":61.27774,"lon":5.99442,"elevationM":1088},{"id":"node:9980744576","kind":"peak","name":"Jemdalsnova","lat":61.28833,"lon":5.99833,"elevationM":1122},{"id":"node:9980744674","kind":"peak","name":"Middagsnova","lat":61.08961,"lon":5.99185,"elevationM":1168},{"id":"node:11074858009","kind":"peak","name":"Bøheia","lat":61.1288689,"lon":5.3051571,"elevationM":350},{"id":"node:11613502222","kind":"peak","name":"Røyseheida","lat":61.951641,"lon":5.168586,"elevationM":500},{"id":"node:12020282842","kind":"peak","name":"Lundavarden","lat":61.9316566,"lon":5.7190282,"elevationM":769},{"id":"node:12020362416","kind":"peak","name":"Grønlidkollen","lat":61.9583092,"lon":5.5352737,"elevationM":589},{"id":"node:12020362417","kind":"peak","name":"Steinamannen","lat":61.9455475,"lon":5.5642987,"elevationM":733},{"id":"node:12020362418","kind":"peak","name":"Vindfyllekollen","lat":61.9345674,"lon":5.5569125,"elevationM":710},{"id":"node:12020362419","kind":"peak","name":"Blåfjellet","lat":61.968811,"lon":5.703491,"elevationM":948},{"id":"node:12187605840","kind":"peak","name":"Traneberget","lat":61.991811,"lon":5.0738598,"elevationM":null},{"id":"node:12206004581","kind":"peak","name":"Nova","lat":61.1041381,"lon":5.9100399,"elevationM":null},{"id":"node:12249090799","kind":"peak","name":"Svoranibba","lat":61.8738029,"lon":5.1239091,"elevationM":478},{"id":"node:12339366673","kind":"peak","name":"Nysvora","lat":61.8701806,"lon":5.0062876,"elevationM":569},{"id":"node:12339366677","kind":"peak","name":"Vestre Hornelen","lat":61.8559943,"lon":5.2234806,"elevationM":889},{"id":"node:12339366679","kind":"peak","name":"Strusnipa","lat":61.8455652,"lon":5.0065407,"elevationM":281},{"id":"node:12339366681","kind":"peak","name":"Hælkinna","lat":61.8411844,"lon":5.1032161,"elevationM":579},{"id":"node:12339366682","kind":"peak","name":"Uraheia","lat":61.8490403,"lon":5.2214878,"elevationM":818},{"id":"node:12339366690","kind":"peak","name":"Langevasshornet","lat":61.8249044,"lon":5.0327012,"elevationM":591},{"id":"node:12339366693","kind":"peak","name":"Svartevassegga","lat":61.8540911,"lon":5.2060188,"elevationM":833},{"id":"node:12339366696","kind":"peak","name":"Sæternipa","lat":61.8643691,"lon":5.1688996,"elevationM":532},{"id":"node:12339366697","kind":"peak","name":"Knutsnakken","lat":61.8854475,"lon":5.022735,"elevationM":493},{"id":"node:12339366700","kind":"peak","name":"Gamlehaugen","lat":61.8757014,"lon":5.0211442,"elevationM":489},{"id":"node:12778057417","kind":"peak","name":"Krabbestigheidaw","lat":61.9016377,"lon":5.0653101,"elevationM":330},{"id":"node:12778058259","kind":"peak","name":"Rønelden","lat":61.9150797,"lon":5.0211287,"elevationM":null},{"id":"node:12778058260","kind":"peak","name":"Rauddalsegga","lat":61.9034679,"lon":5.0489627,"elevationM":319},{"id":"node:12778058261","kind":"peak","name":"Vassdalegga","lat":61.9053321,"lon":5.050267,"elevationM":281},{"id":"node:12778058262","kind":"peak","name":"Blåfjellet","lat":61.9088001,"lon":5.052222,"elevationM":232},{"id":"node:12778058263","kind":"peak","name":"Nonshornet","lat":61.9103885,"lon":5.031468,"elevationM":191},{"id":"node:12911754629","kind":"peak","name":"Blåfjellet","lat":61.0083871,"lon":5.756793,"elevationM":914},{"id":"node:12983891708","kind":"peak","name":"Eikåsnipa","lat":61.4705945,"lon":5.9905874,"elevationM":826},{"id":"node:13622189480","kind":"peak","name":"Kletten","lat":61.5925496,"lon":5.3704928,"elevationM":211}]}