{"tileKey":"la_p51_lo_p45","version":"v1-1775891056926","entries":[{"id":"node:2460076045","kind":"peak","name":"Буданова гора","lat":51.4369454,"lon":45.7925561,"elevationM":236},{"id":"node:2473326940","kind":"peak","name":"Лысая","lat":51.5525667,"lon":45.9811764,"elevationM":280},{"id":"node:5012056841","kind":"peak","name":"гора Лазоревая","lat":51.0771938,"lon":45.8920276,"elevationM":null},{"id":"node:5748541502","kind":"peak","name":"Мель","lat":51.3949793,"lon":45.8920962,"elevationM":null},{"id":"node:11688238659","kind":"peak","name":"Лопатина гора","lat":51.5281334,"lon":45.9410906,"elevationM":274},{"id":"node:11747490158","kind":"peak","name":"Танковая гора","lat":51.6048653,"lon":45.9955655,"elevationM":null},{"id":"node:11747490160","kind":"peak","name":"Раздельная вершина","lat":51.5390619,"lon":45.959056,"elevationM":null},{"id":"node:11747490161","kind":"peak","name":"Савельевские","lat":51.5735339,"lon":45.9123078,"elevationM":null},{"id":"node:11747490162","kind":"peak","name":"Вишневая","lat":51.5563087,"lon":45.9758198,"elevationM":null},{"id":"node:11747490163","kind":"peak","name":"Завокзальная","lat":51.5464912,"lon":45.9764426,"elevationM":null},{"id":"node:11747490164","kind":"peak","name":"Алтынная","lat":51.4906636,"lon":45.8746844,"elevationM":251},{"id":"node:11747490165","kind":"peak","name":"Увек","lat":51.4312771,"lon":45.9598906,"elevationM":140},{"id":"node:12213582030","kind":"peak","name":"Крутые Бедерки","lat":51.7357145,"lon":45.7246185,"elevationM":null},{"id":"node:13175166572","kind":"peak","name":"пик Пионеров","lat":51.5768605,"lon":45.9091596,"elevationM":null}]}