{"tileKey":"la_p52_lo_m4","version":"v1-1775891056926","entries":[{"id":"node:29216978","kind":"peak","name":"Moelwyn Bach","lat":52.9742179,"lon":-3.9965737,"elevationM":710},{"id":"node:29233097","kind":"peak","name":"Mynydd Bwlch-Y-Groes","lat":52.0068395,"lon":-3.6492005,"elevationM":442},{"id":"node:29267196","kind":"peak","name":"Esgair Ferchon","lat":52.0674181,"lon":-3.8739497,"elevationM":430},{"id":"node:29271036","kind":"peak","name":"Cusop Hill","lat":52.0599273,"lon":-3.087971,"elevationM":402},{"id":"node:29271039","kind":"peak","name":"Vagar Hill","lat":52.0419997,"lon":-3.0297205,"elevationM":434},{"id":"node:29271083","kind":"peak","name":"Blaen Cyrnog","lat":52.040756,"lon":-3.6122809,"elevationM":421},{"id":"node:29271124","kind":"peak","name":"Fforest","lat":52.0387208,"lon":-3.7834379,"elevationM":null},{"id":"node:29271238","kind":"peak","name":"Cae Caradog","lat":52.0951152,"lon":-3.9607833,"elevationM":null},{"id":"node:29271298","kind":"peak","name":"Esgair Dafydd","lat":52.1032118,"lon":-3.6932916,"elevationM":null},{"id":"node:29271311","kind":"peak","name":"Rhyd-Car","lat":52.068778,"lon":-3.517957,"elevationM":454},{"id":"node:29271314","kind":"peak","name":"Bryn Dû","lat":52.0680239,"lon":-3.5482775,"elevationM":462},{"id":"node:29271322","kind":"peak","name":"Mynydd Epynt","lat":52.0834451,"lon":-3.524059,"elevationM":456},{"id":"node:29271352","kind":"peak","name":"Drum Ddû","lat":52.0920819,"lon":-3.4899037,"elevationM":474},{"id":"node:29271413","kind":"peak","name":"The Begwns","lat":52.0912121,"lon":-3.235031,"elevationM":415},{"id":"node:29271423","kind":"peak","name":"Merbach Hill","lat":52.0964498,"lon":-3.018254,"elevationM":318},{"id":"node:29271450","kind":"peak","name":"Red Hill","lat":52.1415141,"lon":-3.2330743,"elevationM":null},{"id":"node:29271451","kind":"peak","name":"Llanbedr Hill","lat":52.1280101,"lon":-3.2592728,"elevationM":null},{"id":"node:29271747","kind":"peak","name":"Mynydd Trawsnant","lat":52.1275068,"lon":-3.6900815,"elevationM":null},{"id":"node:29271748","kind":"peak","name":"Cefn Fannog","lat":52.1478325,"lon":-3.724251,"elevationM":null},{"id":"node:29271749","kind":"peak","name":"Cefn Trybedd-Gwilym","lat":52.1129313,"lon":-3.7004712,"elevationM":null},{"id":"node:29271791","kind":"peak","name":"Cefn Ystrad-ffin","lat":52.1153648,"lon":-3.7358502,"elevationM":null},{"id":"node:29271836","kind":"peak","name":"Craig Clyngwyn","lat":52.1141256,"lon":-3.7851084,"elevationM":400},{"id":"node:29271931","kind":"peak","name":"Pen y Gurnos","lat":52.1463089,"lon":-3.7879156,"elevationM":null},{"id":"node:29271937","kind":"peak","name":"Cefn Gwenffrwd","lat":52.1251657,"lon":-3.8436337,"elevationM":null},{"id":"node:29271940","kind":"peak","name":"Carn Nant-yr-ast","lat":52.1285636,"lon":-3.8699549,"elevationM":null},{"id":"node:29271941","kind":"peak","name":"Pen-y-garfan","lat":52.1451604,"lon":-3.862115,"elevationM":null},{"id":"node:29271945","kind":"peak","name":"Banc Y Garth","lat":52.1137374,"lon":-3.8794994,"elevationM":null},{"id":"node:29271994","kind":"peak","name":"Lan Fawr","lat":52.1336303,"lon":-3.912833,"elevationM":429},{"id":"node:29272025","kind":"peak","name":"Bryn Mawr","lat":52.1315513,"lon":-3.9519014,"elevationM":474},{"id":"node:29272068","kind":"peak","name":"Bryn Brawd","lat":52.1501012,"lon":-3.9040673,"elevationM":484},{"id":"node:29272069","kind":"peak","name":"Crûg","lat":52.1600413,"lon":-3.9473,"elevationM":null},{"id":"node:29272070","kind":"peak","name":"Esgair Llethr","lat":52.1732658,"lon":-3.8634058,"elevationM":null},{"id":"node:29272071","kind":"peak","name":"Esgair Cerrig","lat":52.1931492,"lon":-3.8246752,"elevationM":null},{"id":"node:29272072","kind":"peak","name":"Esgair Gelli","lat":52.2052634,"lon":-3.7946138,"elevationM":null},{"id":"node:29272073","kind":"peak","name":"Esgair Gors","lat":52.1809625,"lon":-3.7747957,"elevationM":476},{"id":"node:29272080","kind":"peak","name":"Cefn Coch","lat":52.1723377,"lon":-3.7185475,"elevationM":null},{"id":"node:29272144","kind":"peak","name":"Cefn Waun-lwyd","lat":52.1589214,"lon":-3.6582486,"elevationM":null},{"id":"node:29272145","kind":"peak","name":"Bryn Mawr","lat":52.1686238,"lon":-3.6382548,"elevationM":null},{"id":"node:29272150","kind":"peak","name":"Carneddau","lat":52.1872035,"lon":-3.361945,"elevationM":null},{"id":"node:29272152","kind":"peak","name":"Aberedw Hill","lat":52.1475791,"lon":-3.3395612,"elevationM":null},{"id":"node:29272154","kind":"peak","name":"Cefn Wylfre","lat":52.1511533,"lon":-3.249866,"elevationM":489},{"id":"node:29272155","kind":"peak","name":"Little Hill","lat":52.1748959,"lon":-3.2560302,"elevationM":null},{"id":"node:29272156","kind":"peak","name":"Colva Hill","lat":52.1907851,"lon":-3.1800552,"elevationM":null},{"id":"node:29272324","kind":"peak","name":"Bradnor Hill","lat":52.2196171,"lon":-3.0518833,"elevationM":391},{"id":"node:29272325","kind":"peak","name":"Old Radnor Hill","lat":52.2242664,"lon":-3.0942735,"elevationM":null},{"id":"node:29272326","kind":"peak","name":"Hanter Hill","lat":52.207107,"lon":-3.0958272,"elevationM":null},{"id":"node:29272337","kind":"peak","name":"Caety Traylow","lat":52.1976028,"lon":-3.1743832,"elevationM":null},{"id":"node:29272381","kind":"peak","name":"Gilwern Hill","lat":52.2185525,"lon":-3.3285801,"elevationM":null},{"id":"node:29272382","kind":"peak","name":"Tyn Green Castle","lat":52.1963803,"lon":-3.3365804,"elevationM":null},{"id":"node:29272387","kind":"peak","name":"Drums Ddu","lat":52.2313263,"lon":-3.5104153,"elevationM":null},{"id":"node:29272389","kind":"peak","name":"Gorllwyn","lat":52.2189679,"lon":-3.5862373,"elevationM":612},{"id":"node:29272395","kind":"peak","name":"Drygarn Fawr","lat":52.2125827,"lon":-3.6632913,"elevationM":645},{"id":"node:29272446","kind":"peak","name":"Drum Yr Eira","lat":52.2126633,"lon":-3.6829666,"elevationM":null},{"id":"node:29272451","kind":"peak","name":"Cefn y Cnwc","lat":52.2145244,"lon":-3.7958069,"elevationM":null},{"id":"node:29272452","kind":"peak","name":"Garn Gron","lat":52.233296,"lon":-3.8469424,"elevationM":null},{"id":"node:29272536","kind":"peak","name":"Pen y Bwlch","lat":52.2576837,"lon":-3.7862975,"elevationM":null},{"id":"node:29272537","kind":"peak","name":"Esgair Llyn-Du","lat":52.2424172,"lon":-3.8016203,"elevationM":null},{"id":"node:29272543","kind":"peak","name":"Cafn Brwynog","lat":52.2777137,"lon":-3.7358562,"elevationM":null},{"id":"node:29272562","kind":"peak","name":"Dibyn Du","lat":52.2747174,"lon":-3.7729111,"elevationM":null},{"id":"node:29272564","kind":"peak","name":"Carreg-Wen Fawr","lat":52.2475342,"lon":-3.7288182,"elevationM":null},{"id":"node:29272586","kind":"peak","name":"Esgair Garthen","lat":52.2644524,"lon":-3.7229113,"elevationM":null},{"id":"node:29273710","kind":"peak","name":"Carn Gafallt","lat":52.2701438,"lon":-3.5546285,"elevationM":466},{"id":"node:29274561","kind":"peak","name":"Rhiw Gwraidd","lat":52.2633694,"lon":-3.43261,"elevationM":null},{"id":"node:29274634","kind":"peak","name":"Llandegley Rocks","lat":52.2475724,"lon":-3.2736471,"elevationM":null},{"id":"node:29274639","kind":"peak","name":"Nyth Grûg","lat":52.2379615,"lon":-3.2162193,"elevationM":null},{"id":"node:29274641","kind":"peak","name":"Rhos Fawr","lat":52.2670193,"lon":-3.199855,"elevationM":660},{"id":"node:29274652","kind":"peak","name":"Fron Hill","lat":52.2409457,"lon":-3.1829085,"elevationM":523},{"id":"node:29274666","kind":"peak","name":"Great Creigiau","lat":52.2641105,"lon":-3.1770022,"elevationM":640},{"id":"node:29274667","kind":"peak","name":"Bâch Hill","lat":52.2653916,"lon":-3.1533194,"elevationM":610},{"id":"node:29274676","kind":"peak","name":"Rushock Hill","lat":52.2279269,"lon":-3.0394297,"elevationM":null},{"id":"node:29274768","kind":"peak","name":"Camlo Hill","lat":52.3171419,"lon":-3.4051215,"elevationM":null},{"id":"node:29274780","kind":"peak","name":"Bryn Yr Hyrdded","lat":52.3032015,"lon":-3.7390826,"elevationM":null},{"id":"node:29274781","kind":"peak","name":"Cnapyn Drawsffos","lat":52.3217356,"lon":-3.7111674,"elevationM":null},{"id":"node:29274792","kind":"peak","name":"Bryn Garw","lat":52.3283442,"lon":-3.6918162,"elevationM":null},{"id":"node:29276019","kind":"peak","name":"Mynydd Bach","lat":52.3203051,"lon":-3.8944057,"elevationM":null},{"id":"node:29276145","kind":"peak","name":"Pool Hill","lat":52.3698592,"lon":-3.2106157,"elevationM":null},{"id":"node:29276146","kind":"peak","name":"Tulkey Hill","lat":52.3774668,"lon":-3.2618278,"elevationM":null},{"id":"node:29276185","kind":"peak","name":"Garn","lat":52.3503643,"lon":-3.4415884,"elevationM":null},{"id":"node:29337519","kind":"peak","name":"Garreg Lwyd","lat":52.348616,"lon":-3.5542824,"elevationM":null},{"id":"node:29338791","kind":"peak","name":"Bryn Titley","lat":52.3707692,"lon":-3.5678118,"elevationM":null},{"id":"node:29338861","kind":"peak","name":"Esgair Dernol","lat":52.3699668,"lon":-3.6112607,"elevationM":477},{"id":"node:29338863","kind":"peak","name":"Cerrig Cochion","lat":52.3365036,"lon":-3.5644858,"elevationM":522},{"id":"node:29338927","kind":"peak","name":"Blaen-Y-Clawdd-Du","lat":52.3633869,"lon":-3.6503838,"elevationM":517},{"id":"node:29338955","kind":"peak","name":"Glan Fedwen","lat":52.3700847,"lon":-3.6702582,"elevationM":null},{"id":"node:29339358","kind":"peak","name":"Geifas","lat":52.3407512,"lon":-3.7342115,"elevationM":null},{"id":"node:29339495","kind":"peak","name":"Banc Yr Wyn-Isaf","lat":52.3520204,"lon":-3.7358274,"elevationM":null},{"id":"node:29339496","kind":"peak","name":"Domen Milwyn","lat":52.3328956,"lon":-3.7498726,"elevationM":null},{"id":"node:29341237","kind":"peak","name":"Cyrnau Bach","lat":52.3587925,"lon":-3.8382194,"elevationM":null},{"id":"node:29441473","kind":"peak","name":"Drosgol","lat":52.4742629,"lon":-3.8276181,"elevationM":550},{"id":"node:29442012","kind":"peak","name":"Mynydd Bychan","lat":52.5142973,"lon":-3.8036442,"elevationM":481},{"id":"node:29442014","kind":"peak","name":"Bryn Moel","lat":52.5047427,"lon":-3.8093434,"elevationM":490},{"id":"node:29442019","kind":"peak","name":"Carn Hyddgen","lat":52.5018535,"lon":-3.7797919,"elevationM":564},{"id":"node:29442188","kind":"peak","name":"Banc Bugeilyn","lat":52.5173471,"lon":-3.7311244,"elevationM":551},{"id":"node:29442233","kind":"peak","name":"Foel Isaf","lat":52.5098436,"lon":-3.7555916,"elevationM":null},{"id":"node:29442240","kind":"peak","name":"Foel Uchaf","lat":52.5055264,"lon":-3.7652092,"elevationM":565},{"id":"node:29442507","kind":"peak","name":"Fedw Ddu","lat":52.5123126,"lon":-3.6847185,"elevationM":null},{"id":"node:29442634","kind":"peak","name":"Pumlumon Fawr","lat":52.4669157,"lon":-3.7830404,"elevationM":752},{"id":"node:29442636","kind":"peak","name":"Y Garn","lat":52.4505541,"lon":-3.8031085,"elevationM":684},{"id":"node:29442713","kind":"peak","name":"Bryn Glas","lat":52.4268677,"lon":-3.8111257,"elevationM":521},{"id":"node:29723695","kind":"peak","name":"Banc Craignant-Mawr","lat":52.4217453,"lon":-3.8603732,"elevationM":null},{"id":"node:29723835","kind":"peak","name":"Cefn Croes","lat":52.4048298,"lon":-3.7528686,"elevationM":null},{"id":"node:29723836","kind":"peak","name":"Esgair Ychion","lat":52.4059703,"lon":-3.6994016,"elevationM":null},{"id":"node:29723927","kind":"peak","name":"Oldchapel Hill","lat":52.4147609,"lon":-3.5069185,"elevationM":426},{"id":"node:29723950","kind":"peak","name":"Pegwyn Mawr","lat":52.4203885,"lon":-3.4366662,"elevationM":null},{"id":"node:29723996","kind":"peak","name":"Garn Fach","lat":52.4234651,"lon":-3.4104662,"elevationM":null},{"id":"node:29724440","kind":"peak","name":"Llanfair Hill","lat":52.4071685,"lon":-3.0969541,"elevationM":null},{"id":"node:29724441","kind":"peak","name":"Rock Hill","lat":52.4066701,"lon":-3.0611555,"elevationM":null},{"id":"node:29724666","kind":"peak","name":"Hergan","lat":52.4613014,"lon":-3.0863159,"elevationM":409},{"id":"node:29724670","kind":"peak","name":"Black Mountain","lat":52.4408581,"lon":-3.1902322,"elevationM":448},{"id":"node:29728124","kind":"peak","name":"Cilfaesty Hill","lat":52.4477071,"lon":-3.2842604,"elevationM":528},{"id":"node:29728137","kind":"peak","name":"Glog","lat":52.4593142,"lon":-3.330853,"elevationM":480},{"id":"node:29728217","kind":"peak","name":"Moelfre","lat":52.4349636,"lon":-3.4789675,"elevationM":null},{"id":"node:29728588","kind":"peak","name":"Y Foel","lat":52.4432835,"lon":-3.7109841,"elevationM":null},{"id":"node:29728589","kind":"peak","name":"Tor Du","lat":52.4564063,"lon":-3.7045708,"elevationM":null},{"id":"node:29728629","kind":"peak","name":"Gïas","lat":52.460943,"lon":-3.6734692,"elevationM":475},{"id":"node:29728642","kind":"peak","name":"Llechwedd Hirgoed","lat":52.4345924,"lon":-3.7350789,"elevationM":null},{"id":"node:29728787","kind":"peak","name":"Disgwylfa Fawr","lat":52.4459597,"lon":-3.8593103,"elevationM":506},{"id":"node:29729353","kind":"peak","name":"Bryn Gwyn","lat":52.4910956,"lon":-3.8693986,"elevationM":null},{"id":"node:29729453","kind":"peak","name":"Cefn Yr Esgair","lat":52.4896296,"lon":-3.8436485,"elevationM":null},{"id":"node:29729454","kind":"peak","name":"Banc Llechwedd Mawr","lat":52.4923747,"lon":-3.8057041,"elevationM":560},{"id":"node:29729474","kind":"peak","name":"Mynydd Y Groes","lat":52.4726551,"lon":-3.6641374,"elevationM":480},{"id":"node:29729493","kind":"peak","name":"Dinas","lat":52.4852583,"lon":-3.6163073,"elevationM":445},{"id":"node:29729494","kind":"peak","name":"Bryn-Y-Fan","lat":52.48391,"lon":-3.5754098,"elevationM":482},{"id":"node:29729638","kind":"peak","name":"Bedran","lat":52.4848251,"lon":-3.2205506,"elevationM":356},{"id":"node:29729647","kind":"peak","name":"Pant Hill","lat":52.501859,"lon":-3.1425292,"elevationM":418},{"id":"node:29729650","kind":"peak","name":"Colebatch Hill","lat":52.4803985,"lon":-3.043838,"elevationM":null},{"id":"node:29730535","kind":"peak","name":"Caeliber","lat":52.5325874,"lon":-3.1629048,"elevationM":null},{"id":"node:29730703","kind":"peak","name":"Foel y Belan","lat":52.5287566,"lon":-3.4859357,"elevationM":null},{"id":"node:29730704","kind":"peak","name":"Mynydd Garth","lat":52.5362214,"lon":-3.5042347,"elevationM":null},{"id":"node:29730710","kind":"peak","name":"Waen Garno","lat":52.5367869,"lon":-3.5385791,"elevationM":null},{"id":"node:29730711","kind":"peak","name":"Bryn Crugog","lat":52.518433,"lon":-3.5615189,"elevationM":null},{"id":"node:29730712","kind":"peak","name":"Bryn Yr Oerfa","lat":52.5342796,"lon":-3.6186971,"elevationM":null},{"id":"node:29730714","kind":"peak","name":"Y Ffridd","lat":52.5117345,"lon":-3.667618,"elevationM":null},{"id":"node:29730748","kind":"peak","name":"Llechwedd Diflas","lat":52.523038,"lon":-3.7946942,"elevationM":null},{"id":"node:29730776","kind":"peak","name":"Moel Y Lynn","lat":52.508101,"lon":-3.8991199,"elevationM":null},{"id":"node:29730794","kind":"peak","name":"Castell","lat":52.5012444,"lon":-3.8644074,"elevationM":null},{"id":"node:29731230","kind":"peak","name":"Mynydd Coronwen","lat":52.5245192,"lon":-3.9113853,"elevationM":null},{"id":"node:29731245","kind":"peak","name":"Moel Y Garn","lat":52.5026553,"lon":-3.928942,"elevationM":null},{"id":"node:29731246","kind":"peak","name":"Foel Goch","lat":52.5180291,"lon":-3.9245126,"elevationM":null},{"id":"node:29731452","kind":"peak","name":"Bryn-y-Fedwen","lat":52.5434165,"lon":-3.7105823,"elevationM":null},{"id":"node:29731453","kind":"peak","name":"Foel Fadian","lat":52.5438922,"lon":-3.7273536,"elevationM":null},{"id":"node:29731464","kind":"peak","name":"Mynydd Cil-cwm","lat":52.5540353,"lon":-3.6823203,"elevationM":null},{"id":"node:29731476","kind":"peak","name":"Bryn Amlwg","lat":52.5632457,"lon":-3.5936795,"elevationM":488},{"id":"node:29731727","kind":"peak","name":"Corndon Hill","lat":52.5657197,"lon":-3.0252701,"elevationM":513},{"id":"node:29731987","kind":"peak","name":"Y Glon","lat":52.5784293,"lon":-3.476635,"elevationM":461},{"id":"node:29731988","kind":"peak","name":"Y Foel","lat":52.6041657,"lon":-3.4602529,"elevationM":null},{"id":"node:29732043","kind":"peak","name":"Coryn Y Ffridd","lat":52.602039,"lon":-3.665022,"elevationM":null},{"id":"node:29732050","kind":"peak","name":"Mynydd Tyr Sais","lat":52.5892861,"lon":-3.6919374,"elevationM":null},{"id":"node:29732145","kind":"peak","name":"Trum Gelli","lat":52.5951594,"lon":-3.9854103,"elevationM":535},{"id":"node:29732146","kind":"peak","name":"Pen Trum-gŵr","lat":52.6075283,"lon":-3.9930808,"elevationM":512},{"id":"node:29738957","kind":"peak","name":"Tarrenhendre","lat":52.6191261,"lon":-3.9471121,"elevationM":634},{"id":"node:29739175","kind":"peak","name":"Penylau Y Gwynion","lat":52.6449012,"lon":-3.5751272,"elevationM":null},{"id":"node:29739180","kind":"peak","name":"Bryn Castell","lat":52.6323736,"lon":-3.5154525,"elevationM":null},{"id":"node:29739288","kind":"peak","name":"Long Mountain","lat":52.6700873,"lon":-3.070566,"elevationM":381},{"id":"node:29739463","kind":"peak","name":"Pen Coed","lat":52.6705764,"lon":-3.4976073,"elevationM":360},{"id":"node:29739471","kind":"peak","name":"Mynydd Llyn Coch-hwyad","lat":52.6794456,"lon":-3.6110439,"elevationM":503},{"id":"node:29739477","kind":"peak","name":"Esgair Ddu","lat":52.6817829,"lon":-3.6681705,"elevationM":464},{"id":"node:29739633","kind":"peak","name":"Mynydd Cwmcelli (Craig Goch)","lat":52.6740792,"lon":-3.7694247,"elevationM":469},{"id":"node:29739680","kind":"peak","name":"Mynydd Dol-Fanog","lat":52.6812022,"lon":-3.8576366,"elevationM":544},{"id":"node:29739682","kind":"peak","name":"Foel Caerberllan","lat":52.6553789,"lon":-3.95778,"elevationM":376},{"id":"node:29739735","kind":"peak","name":"Mynydd Pennant","lat":52.6757547,"lon":-3.9744001,"elevationM":467},{"id":"node:29747302","kind":"peak","name":"Mynydd Dolgoed","lat":52.707713,"lon":-3.7822207,"elevationM":576},{"id":"node:29747303","kind":"peak","name":"Maesglase (Craig Rhiw-erch)","lat":52.7200006,"lon":-3.7524667,"elevationM":678},{"id":"node:29747500","kind":"peak","name":"Broniarth Hill","lat":52.7062127,"lon":-3.2309058,"elevationM":265},{"id":"node:29747504","kind":"peak","name":"Middletown Hill","lat":52.7139557,"lon":-3.0297961,"elevationM":367},{"id":"node:29748153","kind":"peak","name":"Moel Y Llyn","lat":52.7247775,"lon":-3.5659574,"elevationM":443},{"id":"node:29748154","kind":"peak","name":"Pen-y-ffridd Cownwy","lat":52.7468944,"lon":-3.518516,"elevationM":497},{"id":"node:29748159","kind":"peak","name":"Pen Y Waun Ffraith","lat":52.7488855,"lon":-3.5384412,"elevationM":486},{"id":"node:29748263","kind":"peak","name":"Foel Lluestbadlon","lat":52.7395396,"lon":-3.6019234,"elevationM":514},{"id":"node:29748264","kind":"peak","name":"Mynydd Coch","lat":52.7642939,"lon":-3.5741379,"elevationM":569},{"id":"node:29748279","kind":"peak","name":"Maenaidd","lat":52.7614887,"lon":-3.6655816,"elevationM":585},{"id":"node:29748287","kind":"peak","name":"Foel Benddin","lat":52.7318561,"lon":-3.6941773,"elevationM":543},{"id":"node:29748306","kind":"peak","name":"Glasgwm","lat":52.7601254,"lon":-3.7252504,"elevationM":779},{"id":"node:29749333","kind":"peak","name":"Y Garn","lat":52.7891886,"lon":-3.9251693,"elevationM":629},{"id":"node:29749785","kind":"peak","name":"Mynydd Cwm-mynach","lat":52.7816695,"lon":-3.9642486,"elevationM":387},{"id":"node:29750066","kind":"peak","name":"Foel Hafod-fynydd","lat":52.7903076,"lon":-3.6660322,"elevationM":689},{"id":"node:29750067","kind":"peak","name":"Cefn Glas","lat":52.7847433,"lon":-3.7129904,"elevationM":617},{"id":"node:29750079","kind":"peak","name":"Aran Fawddwy","lat":52.7870024,"lon":-3.6878778,"elevationM":905},{"id":"node:29750143","kind":"peak","name":"Mynydd St John","lat":52.7710119,"lon":-3.5227081,"elevationM":513},{"id":"node:29750144","kind":"peak","name":"Allt yr Eryr","lat":52.7973917,"lon":-3.546175,"elevationM":544},{"id":"node:29750145","kind":"peak","name":"Bryn Mawr","lat":52.7855218,"lon":-3.5573795,"elevationM":534},{"id":"node:29750176","kind":"peak","name":"Ffridd Fach","lat":52.7913518,"lon":-3.4464322,"elevationM":457},{"id":"node:29750177","kind":"peak","name":"Rhialgwm","lat":52.7798498,"lon":-3.4024499,"elevationM":540},{"id":"node:29750210","kind":"peak","name":"Y Glog","lat":52.7767183,"lon":-3.3484351,"elevationM":408},{"id":"node:29750241","kind":"peak","name":"Mynydd y Glyn","lat":52.7910275,"lon":-3.2567961,"elevationM":389},{"id":"node:29750279","kind":"peak","name":"Mynydd y Bryn","lat":52.8335391,"lon":-3.1645896,"elevationM":335},{"id":"node:29750653","kind":"peak","name":"Moel Hen-fache","lat":52.8437234,"lon":-3.323551,"elevationM":521},{"id":"node:29750661","kind":"peak","name":"Glan-hafon","lat":52.8350766,"lon":-3.3678516,"elevationM":608},{"id":"node:29750695","kind":"peak","name":"Cyrniau","lat":52.8160003,"lon":-3.3916356,"elevationM":488},{"id":"node:29750696","kind":"peak","name":"Bryn Gwyn","lat":52.8056951,"lon":-3.4348009,"elevationM":539},{"id":"node:29750697","kind":"peak","name":"Cyrniau Achlas","lat":52.8279671,"lon":-3.4936768,"elevationM":611},{"id":"node:29750698","kind":"peak","name":"Rhwng y Ddwynant","lat":52.8107122,"lon":-3.5179678,"elevationM":588},{"id":"node:29750699","kind":"peak","name":"Garreg Wen","lat":52.8201536,"lon":-3.5197658,"elevationM":599},{"id":"node:29750700","kind":"peak","name":"Stac Rhos","lat":52.838327,"lon":-3.531686,"elevationM":630},{"id":"node:29750750","kind":"peak","name":"Foel Tyn-y-fron (Moel y Pawl)","lat":52.8182245,"lon":-3.6061526,"elevationM":605},{"id":"node:29750752","kind":"peak","name":"Foel Rhudd","lat":52.8021951,"lon":-3.6384363,"elevationM":659},{"id":"node:29751008","kind":"peak","name":"Aran Benllyn","lat":52.8044652,"lon":-3.6818188,"elevationM":884},{"id":"node:29751103","kind":"peak","name":"Foel Ddu","lat":52.8052877,"lon":-3.7541507,"elevationM":465},{"id":"node:29751104","kind":"peak","name":"Dduallt","lat":52.8306942,"lon":-3.7670037,"elevationM":654},{"id":"node:29751113","kind":"peak","name":"Craig Aberserw","lat":52.8214488,"lon":-3.9370651,"elevationM":442},{"id":"node:29759793","kind":"peak","name":"Diffwys","lat":52.791726,"lon":-3.9869756,"elevationM":750},{"id":"node:29759802","kind":"peak","name":"Y Llethr","lat":52.8128706,"lon":-3.9876944,"elevationM":750},{"id":"node:29759809","kind":"peak","name":"Rhobell Fawr","lat":52.8148436,"lon":-3.8015891,"elevationM":734},{"id":"node:29760638","kind":"peak","name":"Gyrn Moelfre","lat":52.8563922,"lon":-3.2128356,"elevationM":523},{"id":"node:29760745","kind":"peak","name":"Bryn Llangadwaladr","lat":52.8627505,"lon":-3.2447417,"elevationM":432},{"id":"node:29760977","kind":"peak","name":"Pen-y-ffridd","lat":52.8549326,"lon":-3.3153541,"elevationM":450},{"id":"node:29760991","kind":"peak","name":"Moel Poethion","lat":52.86608,"lon":-3.364208,"elevationM":682},{"id":"node:29760992","kind":"peak","name":"Y Clogydd","lat":52.8447643,"lon":-3.388716,"elevationM":596},{"id":"node:29761004","kind":"peak","name":"Cadair Berwyn North Top","lat":52.883945,"lon":-3.3802361,"elevationM":827},{"id":"node:29761096","kind":"peak","name":"Foel Figenau","lat":52.8425295,"lon":-3.6104851,"elevationM":590},{"id":"node:29761666","kind":"peak","name":"Mynydd Bryn-llech","lat":52.8668665,"lon":-3.7750457,"elevationM":540},{"id":"node:29761699","kind":"peak","name":"Pen y Cwn","lat":52.8525518,"lon":-3.8366846,"elevationM":480},{"id":"node:29761733","kind":"peak","name":"Moel Ddu","lat":52.876972,"lon":-3.8892285,"elevationM":430},{"id":"node:29761734","kind":"peak","name":"Moel Gwyn-Fynydd","lat":52.8427867,"lon":-3.8769339,"elevationM":384},{"id":"node:29761735","kind":"peak","name":"Craig Y Penmaen","lat":52.8511475,"lon":-3.8952963,"elevationM":420},{"id":"node:29761763","kind":"peak","name":"Rhinog Fawr","lat":52.8418882,"lon":-3.995566,"elevationM":715},{"id":"node:29761888","kind":"peak","name":"Moel Ysgyfarnogod","lat":52.8920067,"lon":-3.9956166,"elevationM":623},{"id":"node:29761901","kind":"peak","name":"Moel Y Gyrafolen","lat":52.8985527,"lon":-3.9755394,"elevationM":535},{"id":"node:29761910","kind":"peak","name":"Moel Oernant","lat":52.8895107,"lon":-3.8695579,"elevationM":503},{"id":"node:29762005","kind":"peak","name":"Gallt-Y-Daren","lat":52.8937857,"lon":-3.8171109,"elevationM":619},{"id":"node:29762082","kind":"peak","name":"Craig y Bychau","lat":52.9031157,"lon":-3.7475904,"elevationM":695},{"id":"node:29762083","kind":"peak","name":"Moel Llyfnant","lat":52.9008811,"lon":-3.7732076,"elevationM":751},{"id":"node:29762086","kind":"peak","name":"Moel Ymenyn","lat":52.8963548,"lon":-3.7262987,"elevationM":550},{"id":"node:29762134","kind":"peak","name":"Y Graig","lat":52.8913465,"lon":-3.54142,"elevationM":469},{"id":"node:29762135","kind":"peak","name":"Foel Cwm-Sian Llwyd","lat":52.8705197,"lon":-3.4931537,"elevationM":648},{"id":"node:29762146","kind":"peak","name":"Carnedd Y Ci","lat":52.8959191,"lon":-3.395915,"elevationM":648},{"id":"node:29762187","kind":"peak","name":"Pen-yr-eryr","lat":52.9055889,"lon":-3.3138911,"elevationM":590},{"id":"node:29762234","kind":"peak","name":"Blaen-tri-nant","lat":52.8794431,"lon":-3.2302409,"elevationM":442},{"id":"node:29762255","kind":"peak","name":"Foel Wylfa","lat":52.8899448,"lon":-3.2020003,"elevationM":450},{"id":"node:29762258","kind":"peak","name":"Foel Rhiwlas","lat":52.8859015,"lon":-3.1892854,"elevationM":454},{"id":"node:29762259","kind":"peak","name":"Craig-yr-Hwch","lat":52.8830695,"lon":-3.1703045,"elevationM":448},{"id":"node:29763076","kind":"peak","name":"Vivod Mountain","lat":52.9509464,"lon":-3.2372917,"elevationM":559},{"id":"node:29763100","kind":"peak","name":"Moel Fferna","lat":52.9482869,"lon":-3.3158756,"elevationM":630},{"id":"node:29763101","kind":"peak","name":"Moel yr Henfaes","lat":52.936961,"lon":-3.3741185,"elevationM":584},{"id":"node:29763182","kind":"peak","name":"Mynydd Mynyllod","lat":52.9438094,"lon":-3.486157,"elevationM":395},{"id":"node:29763191","kind":"peak","name":"Garw Fynydd","lat":52.9487134,"lon":-3.5712042,"elevationM":490},{"id":"node:29763536","kind":"peak","name":"Mynydd Nodol","lat":52.93943,"lon":-3.6901872,"elevationM":539},{"id":"node:29763583","kind":"peak","name":"Craig Wen","lat":52.9377727,"lon":-3.8776027,"elevationM":550},{"id":"node:29778704","kind":"peak","name":"Moel Ystradau","lat":52.9758285,"lon":-3.9601229,"elevationM":296},{"id":"node:29778730","kind":"peak","name":"Manod Bach","lat":52.9847195,"lon":-3.9169541,"elevationM":511},{"id":"node:29778747","kind":"peak","name":"Bryn Mawr","lat":52.9821154,"lon":-3.7851136,"elevationM":511},{"id":"node:29778748","kind":"peak","name":"Moel Trwyn-Swch","lat":52.9864328,"lon":-3.7750349,"elevationM":483},{"id":"node:29778763","kind":"peak","name":"Cefn Gwyn","lat":52.990248,"lon":-3.7481443,"elevationM":421},{"id":"node:29778775","kind":"peak","name":"Gylchedd","lat":52.9919094,"lon":-3.7005237,"elevationM":624},{"id":"node:29778776","kind":"peak","name":"Carnedd y Filiast","lat":52.986804,"lon":-3.683006,"elevationM":669},{"id":"node:29778782","kind":"peak","name":"Graig Ddu","lat":52.971768,"lon":-3.656607,"elevationM":537},{"id":"node:29778902","kind":"peak","name":"Foel Goch","lat":52.9677209,"lon":-3.5592337,"elevationM":611},{"id":"node:29778903","kind":"peak","name":"Garnedd Fawr","lat":52.9675494,"lon":-3.5829726,"elevationM":569},{"id":"node:29872444","kind":"peak","name":"Tal Cefn","lat":52.708305,"lon":-3.57881,"elevationM":340},{"id":"node:51245392","kind":"peak","name":"Moel-yr-hydd","lat":52.9896699,"lon":-3.9796815,"elevationM":648},{"id":"node:255372418","kind":"peak","name":"Foel Ddu","lat":52.6680075,"lon":-3.9277486,"elevationM":448},{"id":"node:255372454","kind":"peak","name":"Graig Goch","lat":52.6583502,"lon":-3.9026071,"elevationM":586},{"id":"node:264464487","kind":"peak","name":"Hen Gerrig","lat":52.7558338,"lon":-3.5562081,"elevationM":517},{"id":"node:264491045","kind":"peak","name":"Craig Cae-Rhedyn","lat":52.5548387,"lon":-3.904366,"elevationM":null},{"id":"node:264491075","kind":"peak","name":"Bwlch Corog","lat":52.535787,"lon":-3.8713212,"elevationM":null},{"id":"node:264491215","kind":"peak","name":"Bryn Llychese","lat":52.4126652,"lon":-3.7288423,"elevationM":null},{"id":"node:264491335","kind":"peak","name":"Pen y Ddinas","lat":52.1192972,"lon":-3.6667867,"elevationM":null},{"id":"node:264768809","kind":"peak","name":"Mynydd Tŷ-mawr","lat":52.6519376,"lon":-3.8198391,"elevationM":390},{"id":"node:264768869","kind":"peak","name":"Mynydd Fron-felen","lat":52.6511004,"lon":-3.8272086,"elevationM":385},{"id":"node:264768874","kind":"peak","name":"Mynydd Pen-Lan","lat":52.6651114,"lon":-3.7999551,"elevationM":375},{"id":"node:266346616","kind":"peak","name":"Pyllau Clais","lat":52.3505121,"lon":-3.5241312,"elevationM":null},{"id":"node:268647835","kind":"peak","name":"Craig Y Ganllwyd","lat":52.8144609,"lon":-3.9180619,"elevationM":427},{"id":"node:268647895","kind":"peak","name":"Mynydd Glan-Llyn-y-Forwyn","lat":52.7955999,"lon":-3.9494545,"elevationM":375},{"id":"node:271410204","kind":"peak","name":"Sugar Loaf","lat":52.0707399,"lon":-3.7023044,"elevationM":null},{"id":"node:274115601","kind":"peak","name":"Foel Fawr","lat":52.800714,"lon":-3.7049082,"elevationM":670},{"id":"node:297469330","kind":"peak","name":"Knowl Hill","lat":52.248258,"lon":-3.1529809,"elevationM":386},{"id":"node:297469331","kind":"peak","name":"The Smatcher","lat":52.2313951,"lon":-3.1520938,"elevationM":425},{"id":"node:301111643","kind":"peak","name":"Glôg Hill","lat":52.3143842,"lon":-3.1419461,"elevationM":null},{"id":"node:301631561","kind":"peak","name":"Moel Heulen","lat":52.657136,"lon":-3.810229,"elevationM":404},{"id":"node:301631648","kind":"peak","name":"Ffridd Coed","lat":52.6839405,"lon":-3.7956915,"elevationM":325},{"id":"node:303397069","kind":"peak","name":"Mynydd Tan-y-coed","lat":52.6248244,"lon":-3.9697223,"elevationM":491},{"id":"node:307548884","kind":"peak","name":"Moel Eunant","lat":52.8018248,"lon":-3.563973,"elevationM":568},{"id":"node:313891492","kind":"peak","name":"Twmpa","lat":52.0085511,"lon":-3.1307734,"elevationM":690},{"id":"node:324163642","kind":"peak","name":"Rhinog Fach","lat":52.8241534,"lon":-3.9829519,"elevationM":706},{"id":"node:351943308","kind":"peak","name":"Llethr Llwyd","lat":52.1624184,"lon":-3.8477419,"elevationM":null},{"id":"node:371068949","kind":"peak","name":"Twyn Y Post","lat":52.0581988,"lon":-3.4185562,"elevationM":421},{"id":"node:371778081","kind":"peak","name":"Arenig Fach","lat":52.9587261,"lon":-3.7576796,"elevationM":689},{"id":"node:390593175","kind":"peak","name":"Pen Plaenau","lat":52.92147,"lon":-3.3131,"elevationM":537},{"id":"node:395742924","kind":"peak","name":"Herrock Hill","lat":52.2299408,"lon":-3.0587283,"elevationM":null},{"id":"node:412534419","kind":"peak","name":"Black Hill","lat":52.0069814,"lon":-3.0578833,"elevationM":640},{"id":"node:417652996","kind":"peak","name":"Breidden Hill","lat":52.7227939,"lon":-3.045087,"elevationM":366},{"id":"node:417653092","kind":"peak","name":"Moel y Golfa","lat":52.705447,"lon":-3.0513627,"elevationM":403},{"id":"node:421991377","kind":"peak","name":"Velvet Hill","lat":52.9862097,"lon":-3.1927936,"elevationM":230},{"id":"node:423266141","kind":"peak","name":"Fron Fawr","lat":52.9969533,"lon":-3.181351,"elevationM":378},{"id":"node:426748203","kind":"peak","name":"Bryn Du (Y Fawnen)","lat":52.9147846,"lon":-3.2709159,"elevationM":563},{"id":"node:427711279","kind":"peak","name":"Pen-y-Bylchau","lat":52.7673493,"lon":-3.4063914,"elevationM":444},{"id":"node:427711280","kind":"peak","name":"Boncyn Cammen","lat":52.771971,"lon":-3.3786681,"elevationM":414},{"id":"node:427715790","kind":"peak","name":"Cefn Tre-ysbyty","lat":52.7677388,"lon":-3.5321334,"elevationM":506},{"id":"node:427717474","kind":"peak","name":"Pyllau Mawn","lat":52.7650591,"lon":-3.5069146,"elevationM":453},{"id":"node:428158969","kind":"peak","name":"Bryn Gwyn","lat":52.7913565,"lon":-3.5062519,"elevationM":505},{"id":"node:428167270","kind":"peak","name":"Braich-yr-Owen","lat":52.8134929,"lon":-3.550055,"elevationM":500},{"id":"node:428169900","kind":"peak","name":"Moel Y Nant","lat":52.8017619,"lon":-3.5116593,"elevationM":560},{"id":"node:442852358","kind":"peak","name":"Bryn Hill","lat":52.4693768,"lon":-3.0380198,"elevationM":407},{"id":"node:448593097","kind":"peak","name":"Disgwylfa Fâch","lat":52.4382234,"lon":-3.8600321,"elevationM":414},{"id":"node:448593550","kind":"peak","name":"Esgair Gorlan","lat":52.4281238,"lon":-3.8777132,"elevationM":410},{"id":"node:448595532","kind":"peak","name":"Dinas","lat":52.4331357,"lon":-3.8499489,"elevationM":385},{"id":"node:450911304","kind":"peak","name":"Crug Gynon","lat":52.2592046,"lon":-3.7567536,"elevationM":525},{"id":"node:461977419","kind":"peak","name":"Town Hill","lat":52.5535422,"lon":-3.1579148,"elevationM":320},{"id":"node:536730223","kind":"peak","name":"Allt Tair Ffynnon","lat":52.8030676,"lon":-3.2733615,"elevationM":351},{"id":"node:537640516","kind":"peak","name":"Craig Y Pistyll","lat":52.4559513,"lon":-3.8934666,"elevationM":454},{"id":"node:563017123","kind":"peak","name":"Y Gamrhiw","lat":52.238741,"lon":-3.5478812,"elevationM":null},{"id":"node:602085814","kind":"peak","name":"Whimble","lat":52.2561678,"lon":-3.1660319,"elevationM":599},{"id":"node:604124707","kind":"peak","name":"Allt y Fran","lat":52.0373034,"lon":-3.1953789,"elevationM":170},{"id":"node:604129041","kind":"peak","name":"Little Mountain","lat":52.0782992,"lon":-3.0507839,"elevationM":303},{"id":"node:666303693","kind":"peak","name":"Godor","lat":52.8666196,"lon":-3.3468386,"elevationM":679},{"id":"node:669244242","kind":"peak","name":"Cefn Fron Hill","lat":52.4462996,"lon":-3.2289309,"elevationM":413},{"id":"node:691770168","kind":"peak","name":"Tarren y Gesail","lat":52.6354609,"lon":-3.9069245,"elevationM":667},{"id":"node:902506204","kind":"peak","name":"Stapeley Hill","lat":52.5859813,"lon":-3.0146262,"elevationM":405},{"id":"node:988922784","kind":"peak","name":"Rhulen Hill","lat":52.1310104,"lon":-3.26791,"elevationM":null},{"id":"node:1004173147","kind":"peak","name":"Hergest Ridge","lat":52.199381,"lon":-3.0906721,"elevationM":425},{"id":"node:1597801266","kind":"peak","name":"Post Gwyn","lat":52.8533691,"lon":-3.414324,"elevationM":665},{"id":"node:1687452283","kind":"peak","name":"Pen Pumlumon Arwystli","lat":52.4749897,"lon":-3.7460508,"elevationM":741},{"id":"node:1707726324","kind":"peak","name":"Broomhill","lat":52.6647823,"lon":-3.0087871,"elevationM":307},{"id":"node:1744719538","kind":"peak","name":"Cwm-Sanaham Hill","lat":52.3725578,"lon":-3.0730922,"elevationM":406},{"id":"node:1829074116","kind":"peak","name":"Pen y Garn","lat":52.3785456,"lon":-3.7666597,"elevationM":610},{"id":"node:1860837217","kind":"peak","name":"Y Foel","lat":52.9431238,"lon":-3.2095359,"elevationM":522},{"id":"node:1941488852","kind":"peak","name":"Foel Dinas","lat":52.7137185,"lon":-3.7151159,"elevationM":489},{"id":"node:1961816901","kind":"peak","name":"Bryn Glas","lat":52.3081644,"lon":-3.0980147,"elevationM":null},{"id":"node:1961817083","kind":"peak","name":"Graig Hill","lat":52.3123887,"lon":-3.0896033,"elevationM":null},{"id":"node:1969122327","kind":"peak","name":"Cwmgilla Hill","lat":52.3339514,"lon":-3.0882338,"elevationM":380},{"id":"node:1969122353","kind":"peak","name":"Waun Sidan","lat":52.3469263,"lon":-3.1016234,"elevationM":406},{"id":"node:1969122415","kind":"peak","name":"Black Hill","lat":52.3166928,"lon":-3.1049279,"elevationM":null},{"id":"node:1969157761","kind":"peak","name":"Fridd","lat":52.3352344,"lon":-3.051303,"elevationM":null},{"id":"node:1981956395","kind":"peak","name":"Llan-Wen Hill","lat":52.3182914,"lon":-3.0346738,"elevationM":null},{"id":"node:1981960414","kind":"peak","name":"Cwm-Whitton Hill","lat":52.3123643,"lon":-3.0559588,"elevationM":null},{"id":"node:2058286089","kind":"peak","name":"Newchurch Hill","lat":52.1476728,"lon":-3.166926,"elevationM":434},{"id":"node:2128921135","kind":"peak","name":"Craig Portas","lat":52.7114806,"lon":-3.7754268,"elevationM":605},{"id":"node:2128921136","kind":"peak","name":"Waun-oer","lat":52.7169924,"lon":-3.7994338,"elevationM":670},{"id":"node:2161110202","kind":"peak","name":"Foel Wen","lat":52.8905893,"lon":-3.3401442,"elevationM":691},{"id":"node:2161110203","kind":"peak","name":"Moel Sych","lat":52.876088,"lon":-3.388774,"elevationM":827},{"id":"node:2161110204","kind":"peak","name":"Mynydd Tarw","lat":52.8821337,"lon":-3.3200501,"elevationM":681},{"id":"node:2161110205","kind":"peak","name":"Rhos","lat":52.881926,"lon":-3.302035,"elevationM":619},{"id":"node:2161248906","kind":"peak","name":"Moel y Cerrig Duon","lat":52.804113,"lon":-3.598294,"elevationM":625},{"id":"node:2189485308","kind":"peak","name":"Cadair Bronwen","lat":52.9014613,"lon":-3.3729425,"elevationM":784},{"id":"node:2189485309","kind":"peak","name":"Cerrig Coediog","lat":52.9376081,"lon":-3.3201081,"elevationM":593},{"id":"node:2250722861","kind":"peak","name":"Llanymynech Hill","lat":52.7882604,"lon":-3.0973221,"elevationM":225},{"id":"node:2290400610","kind":"peak","name":"Moelydd","lat":52.8207186,"lon":-3.1225541,"elevationM":285},{"id":"node:2290400611","kind":"peak","name":"Hen Craig","lat":52.8695468,"lon":-3.224495,"elevationM":433},{"id":"node:2308127719","kind":"peak","name":"Worsell Wood","lat":52.2130781,"lon":-3.0872829,"elevationM":null},{"id":"node:2311665754","kind":"peak","name":"Drum Ddu","lat":52.7382009,"lon":-3.5838976,"elevationM":538},{"id":"node:2323297665","kind":"peak","name":"Hay Bluff","lat":52.0229117,"lon":-3.1027414,"elevationM":677},{"id":"node:2473306946","kind":"peak","name":"Arenig Fawr","lat":52.9171069,"lon":-3.7459656,"elevationM":854},{"id":"node:2477492232","kind":"peak","name":"Pen Tyrau","lat":52.9290282,"lon":-3.7309329,"elevationM":697},{"id":"node:2512990649","kind":"peak","name":"Carnedd Das Eithin","lat":52.8040088,"lon":-3.4086797,"elevationM":521},{"id":"node:2610365456","kind":"peak","name":"Gro Hill","lat":52.2493855,"lon":-3.5807558,"elevationM":437},{"id":"node:2693314520","kind":"peak","name":"Waen Llestri","lat":52.8029118,"lon":-3.4587911,"elevationM":495},{"id":"node:2773811764","kind":"peak","name":"Tatham Camp","lat":52.9961531,"lon":-3.0489998,"elevationM":179},{"id":"node:2777056691","kind":"peak","name":"Drysgol","lat":52.7768945,"lon":-3.6743398,"elevationM":731},{"id":"node:2777095753","kind":"peak","name":"Clipiau Duon","lat":52.7921901,"lon":-3.6187628,"elevationM":580},{"id":"node:2777227060","kind":"peak","name":"Foel y Graig","lat":52.8505841,"lon":-3.7176181,"elevationM":470},{"id":"node:2848416894","kind":"peak","name":"Mochowgryn","lat":52.9505894,"lon":-3.7785003,"elevationM":492},{"id":"node:2919298471","kind":"peak","name":"Graig Wion","lat":52.8682589,"lon":-3.9859144,"elevationM":566},{"id":"node:3001380616","kind":"peak","name":"Graig Fach","lat":52.523003,"lon":-3.7401305,"elevationM":null},{"id":"node:3102364943","kind":"peak","name":"Carnedd Wen","lat":52.676217,"lon":-3.5928042,"elevationM":523},{"id":"node:3235262861","kind":"peak","name":"Yr Oerfa","lat":52.959359,"lon":-3.6988381,"elevationM":463},{"id":"node:3287592891","kind":"peak","name":"Moel y Garnedd","lat":52.905716,"lon":-3.6424293,"elevationM":360},{"id":"node:3287597967","kind":"peak","name":"Moel Emoel","lat":52.9487324,"lon":-3.5821172,"elevationM":549},{"id":"node:3287605497","kind":"peak","name":"Y Gesail","lat":52.980048,"lon":-3.6004334,"elevationM":486},{"id":"node:3287605950","kind":"peak","name":"Pen Y Gop","lat":52.991519,"lon":-3.578332,"elevationM":419},{"id":"node:3287608366","kind":"peak","name":"Moel y Gydros","lat":52.9947393,"lon":-3.6190963,"elevationM":522},{"id":"node:3287613294","kind":"peak","name":"Bryn Cerbyd","lat":52.9915061,"lon":-3.7132793,"elevationM":578},{"id":"node:3287711623","kind":"peak","name":"Pen y Cerrig-serth","lat":52.9738382,"lon":-3.5345261,"elevationM":522},{"id":"node:3287712098","kind":"peak","name":"Moel Darren","lat":52.9595525,"lon":-3.5614534,"elevationM":509},{"id":"node:3295175705","kind":"peak","name":"Cerrig yr Iwrch","lat":52.8462647,"lon":-3.7459441,"elevationM":472},{"id":"node:3295178826","kind":"peak","name":"Ffridd Trawsgoed","lat":52.8805128,"lon":-3.7289175,"elevationM":424},{"id":"node:3295183179","kind":"peak","name":"Carndochan","lat":52.8610255,"lon":-3.7139882,"elevationM":346},{"id":"node:3295188514","kind":"peak","name":"Y Lordship","lat":52.87588,"lon":-3.7023206,"elevationM":337},{"id":"node:3295189511","kind":"peak","name":"Moel Hafod-yr-wyn","lat":52.8751029,"lon":-3.7219115,"elevationM":389},{"id":"node:3295197262","kind":"peak","name":"Pennant-Lliw","lat":52.8700259,"lon":-3.7508579,"elevationM":519},{"id":"node:3295206403","kind":"peak","name":"Garth Fawr","lat":52.8413,"lon":-3.670768,"elevationM":332},{"id":"node:3295207982","kind":"peak","name":"Moel Maes-y-llech","lat":52.8324996,"lon":-3.6388488,"elevationM":430},{"id":"node:3295217696","kind":"peak","name":"Lledwyn Mawr","lat":52.8451891,"lon":-3.6281415,"elevationM":527},{"id":"node:3295226019","kind":"peak","name":"Cefn Gwyn","lat":52.8644005,"lon":-3.6248333,"elevationM":436},{"id":"node:3295226361","kind":"peak","name":"Foel Cae'r-hafotty","lat":52.85987,"lon":-3.6062976,"elevationM":483},{"id":"node:3295227793","kind":"peak","name":"Twr Glanllyn","lat":52.8752585,"lon":-3.6599193,"elevationM":240},{"id":"node:3295230155","kind":"peak","name":"Bryn-moel-uchaf","lat":52.8954845,"lon":-3.6314114,"elevationM":299},{"id":"node:3295233262","kind":"peak","name":"Bryn-Coch","lat":52.8786806,"lon":-3.6759939,"elevationM":293},{"id":"node:3295234739","kind":"peak","name":"Bronydd Fron-Feuno","lat":52.9089453,"lon":-3.6162988,"elevationM":298},{"id":"node:3295236239","kind":"peak","name":"Pen Ty-Nant","lat":52.9174518,"lon":-3.6344624,"elevationM":332},{"id":"node:3295258204","kind":"peak","name":"Craig yr Hafod","lat":52.979489,"lon":-3.656564,"elevationM":534},{"id":"node:3295372184","kind":"peak","name":"Ffridd Maes-Y-Tail","lat":52.9495909,"lon":-3.7330597,"elevationM":449},{"id":"node:3295372733","kind":"peak","name":"Foel Bodrenig","lat":52.9418388,"lon":-3.7277307,"elevationM":380},{"id":"node:3295380168","kind":"peak","name":"Carnedd Iago","lat":52.9491642,"lon":-3.8133757,"elevationM":530},{"id":"node:3295390687","kind":"peak","name":"Cerrig Yr Ieirch","lat":52.9669376,"lon":-3.8505404,"elevationM":513},{"id":"node:3295399474","kind":"peak","name":"Craig Y Garreg-Lwyd","lat":52.9668318,"lon":-3.8916012,"elevationM":470},{"id":"node:3295431923","kind":"peak","name":"Ffridd Ddu","lat":52.9198578,"lon":-3.5335248,"elevationM":304},{"id":"node:3295438628","kind":"peak","name":"Garth Goch","lat":52.9093124,"lon":-3.5588448,"elevationM":220},{"id":"node:3295443723","kind":"peak","name":"Garth Rhiwaedog","lat":52.9020133,"lon":-3.5607116,"elevationM":250},{"id":"node:3295446820","kind":"peak","name":"Moel Heulog","lat":52.9066077,"lon":-3.5070031,"elevationM":376},{"id":"node:3295461065","kind":"peak","name":"Craig Rhiwarth","lat":52.8330249,"lon":-3.4044354,"elevationM":532},{"id":"node:3295474233","kind":"peak","name":"Mynydd Mawr","lat":52.8480858,"lon":-3.289079,"elevationM":534},{"id":"node:3295501247","kind":"peak","name":"Creigiau'r Hyrddod","lat":52.9315905,"lon":-3.2827919,"elevationM":548},{"id":"node:3295506300","kind":"peak","name":"Pen-y-Vivod","lat":52.9752853,"lon":-3.2127326,"elevationM":335},{"id":"node:3295506461","kind":"peak","name":"Barber's Hill","lat":52.9706982,"lon":-3.1875198,"elevationM":340},{"id":"node:3295508167","kind":"peak","name":"Bryn Dol Fawr","lat":52.985285,"lon":-3.2212727,"elevationM":259},{"id":"node:3295509205","kind":"peak","name":"Graig-Ddu","lat":52.9904002,"lon":-3.245198,"elevationM":365},{"id":"node:3295510867","kind":"peak","name":"Pen-y-Coed","lat":52.9648827,"lon":-3.1544965,"elevationM":218},{"id":"node:3295514036","kind":"peak","name":"Castell Dinas Brân","lat":52.9791485,"lon":-3.159775,"elevationM":320},{"id":"node:3295515115","kind":"peak","name":"Llwyn Twr","lat":52.9812932,"lon":-3.1756108,"elevationM":200},{"id":"node:3295543114","kind":"peak","name":"Chirk Green Hill","lat":52.9432424,"lon":-3.0471652,"elevationM":140},{"id":"node:3295694518","kind":"peak","name":"Moel y Belan","lat":52.7713732,"lon":-3.4637364,"elevationM":359},{"id":"node:3295695861","kind":"peak","name":"Dwyffrwd","lat":52.7812926,"lon":-3.4604612,"elevationM":431},{"id":"node:3295704943","kind":"peak","name":"Bryn-llus","lat":52.9575469,"lon":-3.3625347,"elevationM":549},{"id":"node:3295705105","kind":"peak","name":"Pen Creigiau'r Barcut","lat":52.9505936,"lon":-3.3446249,"elevationM":553},{"id":"node:3295709262","kind":"peak","name":"Pen Coed Mawr","lat":52.9895937,"lon":-3.3549246,"elevationM":314},{"id":"node:3299572761","kind":"peak","name":"Foel Y Geifr","lat":52.8347662,"lon":-3.5792469,"elevationM":626},{"id":"node:3299580599","kind":"peak","name":"Lledwyn Bach","lat":52.8359815,"lon":-3.6266627,"elevationM":440},{"id":"node:3299584405","kind":"peak","name":"Yr Eithin","lat":52.8242296,"lon":-3.5434934,"elevationM":571},{"id":"node:3299585329","kind":"peak","name":"Bwlan","lat":52.817181,"lon":-3.5639581,"elevationM":528},{"id":"node:3299585503","kind":"peak","name":"Foel Y Garnedd","lat":52.8280333,"lon":-3.5706038,"elevationM":532},{"id":"node:3299586229","kind":"peak","name":"Moel y Feidiog","lat":52.8755147,"lon":-3.8118168,"elevationM":577},{"id":"node:3299589254","kind":"peak","name":"Moel Y Slates","lat":52.9114811,"lon":-3.8082202,"elevationM":548},{"id":"node:3299590115","kind":"peak","name":"Moel Hafodowen","lat":52.8230367,"lon":-3.8500806,"elevationM":435},{"id":"node:3299590151","kind":"peak","name":"Foel Cynwch","lat":52.7727498,"lon":-3.8749071,"elevationM":320},{"id":"node:3299590273","kind":"peak","name":"Foel Offrwm","lat":52.7719781,"lon":-3.8545659,"elevationM":405},{"id":"node:3299593582","kind":"peak","name":"Rhiwaedog-uwch-afon","lat":52.8682141,"lon":-3.5785337,"elevationM":539},{"id":"node:3299597223","kind":"peak","name":"Foel Goch","lat":52.889128,"lon":-3.2882329,"elevationM":544},{"id":"node:3299597955","kind":"peak","name":"Maengwyn","lat":52.8829261,"lon":-3.2727834,"elevationM":501},{"id":"node:3299600063","kind":"peak","name":"Cefn Caer Euni","lat":52.9507751,"lon":-3.5112854,"elevationM":369},{"id":"node:3299600661","kind":"peak","name":"Orddu","lat":52.9683582,"lon":-3.5449467,"elevationM":555},{"id":"node:3299600701","kind":"peak","name":"Moel Cae'r-ceiliog","lat":52.971295,"lon":-3.527843,"elevationM":469},{"id":"node:3299600822","kind":"peak","name":"Foel Fach","lat":52.9596947,"lon":-3.5776754,"elevationM":457},{"id":"node:3299600824","kind":"peak","name":"Pen y Bwlch Gwyn","lat":52.9579756,"lon":-3.59055,"elevationM":502},{"id":"node:3299600924","kind":"peak","name":"Garneddwen","lat":52.958045,"lon":-3.6855887,"elevationM":479},{"id":"node:3299600925","kind":"peak","name":"Moel Phylip","lat":52.9544337,"lon":-3.6722394,"elevationM":417},{"id":"node:3299603084","kind":"peak","name":"Eglwys-Anne Warren Ffridd","lat":52.9539295,"lon":-3.5978242,"elevationM":463},{"id":"node:3299603212","kind":"peak","name":"Carnedd Llechwedd-llyfn","lat":52.9853189,"lon":-3.7028366,"elevationM":643},{"id":"node:3299604306","kind":"peak","name":"Llechwedd-llyfn","lat":52.9827785,"lon":-3.6995215,"elevationM":640},{"id":"node:3299604861","kind":"peak","name":"Foel-boeth","lat":52.9730352,"lon":-3.6921475,"elevationM":596},{"id":"node:3299605061","kind":"peak","name":"Craig Y Garn","lat":52.9568768,"lon":-3.6478206,"elevationM":461},{"id":"node:3299605423","kind":"peak","name":"Waun Garnedd-y-filiast","lat":52.9927076,"lon":-3.6790082,"elevationM":650},{"id":"node:3299605705","kind":"peak","name":"Trum Nant-Fach","lat":52.998015,"lon":-3.656741,"elevationM":560},{"id":"node:3299605900","kind":"peak","name":"Bryn Garthmeilio","lat":52.9935594,"lon":-3.5597583,"elevationM":360},{"id":"node:3300356567","kind":"peak","name":"Selattyn Hill","lat":52.89923,"lon":-3.1072316,"elevationM":372},{"id":"node:3300450056","kind":"peak","name":"Creigiau Llangar","lat":52.9709909,"lon":-3.377669,"elevationM":360},{"id":"node:3300828926","kind":"peak","name":"Y Foel","lat":52.9410074,"lon":-3.6127165,"elevationM":407},{"id":"node:3300831096","kind":"peak","name":"Maen Bras","lat":52.9425591,"lon":-3.6062363,"elevationM":404},{"id":"node:3300900794","kind":"peak","name":"Foel Tyn-y-ddol","lat":52.9648589,"lon":-3.5922244,"elevationM":470},{"id":"node:3300914075","kind":"peak","name":"Pen y Ffordd-goch","lat":52.9710103,"lon":-3.6096695,"elevationM":455},{"id":"node:3300917375","kind":"peak","name":"Cerrig y Gordref","lat":52.9722023,"lon":-3.5939035,"elevationM":497},{"id":"node:3300926986","kind":"peak","name":"Moel Cwm-Main","lat":52.9993653,"lon":-3.6174801,"elevationM":466},{"id":"node:3300936935","kind":"peak","name":"Cadair Benllyn","lat":52.9944578,"lon":-3.6332086,"elevationM":410},{"id":"node:3305109461","kind":"peak","name":"Moel Caws","lat":52.8356596,"lon":-3.7151644,"elevationM":367},{"id":"node:3305109922","kind":"peak","name":"Moel Ddu","lat":52.830949,"lon":-3.67326,"elevationM":474},{"id":"node:3305111808","kind":"peak","name":"Foel Fawr","lat":52.9375617,"lon":-3.8968186,"elevationM":528},{"id":"node:3306212002","kind":"peak","name":"Craig Nyth-y-Gigfran (Y Blaen Llym)","lat":52.9988241,"lon":-3.9604888,"elevationM":554},{"id":"node:3317397161","kind":"peak","name":"Craig Y Dinas","lat":52.8511441,"lon":-3.8149092,"elevationM":457},{"id":"node:3317397163","kind":"peak","name":"Bryn-pig","lat":52.85908,"lon":-3.8328947,"elevationM":523},{"id":"node:3319759162","kind":"peak","name":"Cefn Y Griafolen","lat":52.854573,"lon":-3.7733411,"elevationM":479},{"id":"node:3319985577","kind":"peak","name":"Ffridd Yr Allt-Lwyd","lat":52.8504289,"lon":-3.7876556,"elevationM":497},{"id":"node:3320579458","kind":"peak","name":"Waun Drawsfan","lat":52.7909335,"lon":-3.5924866,"elevationM":544},{"id":"node:3320585081","kind":"peak","name":"Cefn Glas","lat":52.7741004,"lon":-3.5717371,"elevationM":520},{"id":"node:3320598930","kind":"peak","name":"Moel Llygoed","lat":52.7609616,"lon":-3.5944392,"elevationM":598},{"id":"node:3320601624","kind":"peak","name":"Carreg y Big","lat":52.7680621,"lon":-3.5915049,"elevationM":589},{"id":"node:3320611519","kind":"peak","name":"Craig Garth-bwlch","lat":52.7528712,"lon":-3.453634,"elevationM":394},{"id":"node:3320615514","kind":"peak","name":"Craig Y Geifr","lat":52.8264921,"lon":-3.674287,"elevationM":520},{"id":"node:3320616580","kind":"peak","name":"Foel Fach","lat":52.8063722,"lon":-3.7191727,"elevationM":455},{"id":"node:3320621061","kind":"peak","name":"Penmaen","lat":52.824269,"lon":-3.7171557,"elevationM":397},{"id":"node:3320657168","kind":"peak","name":"Y Figra","lat":52.7555137,"lon":-3.9915348,"elevationM":320},{"id":"node:3320660440","kind":"peak","name":"Clogau","lat":52.7626038,"lon":-3.9611292,"elevationM":308},{"id":"node:3320660724","kind":"peak","name":"Farchynys","lat":52.7424498,"lon":-3.9838958,"elevationM":70},{"id":"node:3320679804","kind":"peak","name":"Pen Erw-Goed","lat":52.7356008,"lon":-3.9762569,"elevationM":90},{"id":"node:3320685940","kind":"peak","name":"Pared Y Cefn-Hir","lat":52.7149786,"lon":-3.9822969,"elevationM":383},{"id":"node:3320687549","kind":"peak","name":"Coed Y Gribin","lat":52.7330542,"lon":-3.9617086,"elevationM":210},{"id":"node:3320687550","kind":"peak","name":"Twr Glas","lat":52.729299,"lon":-3.9676417,"elevationM":220},{"id":"node:3320690482","kind":"peak","name":"Bryn Brith","lat":52.7193181,"lon":-3.9787138,"elevationM":383},{"id":"node:3320705081","kind":"peak","name":"Cefn-yr-Owen","lat":52.7140149,"lon":-3.9640582,"elevationM":312},{"id":"node:3320705082","kind":"peak","name":"Bryn y Gregennen","lat":52.7064294,"lon":-3.9764393,"elevationM":280},{"id":"node:3320705083","kind":"peak","name":"Pen Llynnau Cregennen","lat":52.7069267,"lon":-3.9836276,"elevationM":279},{"id":"node:3320729732","kind":"peak","name":"Banc Ty-Hen","lat":52.4861983,"lon":-3.9909018,"elevationM":null},{"id":"node:3320729733","kind":"peak","name":"Ynys Llancynfelyn","lat":52.5083277,"lon":-3.9937771,"elevationM":null},{"id":"node:3320738418","kind":"peak","name":"Disgwylfa","lat":52.4866883,"lon":-3.9412058,"elevationM":null},{"id":"node:3320738565","kind":"peak","name":"Cefn-Erglodd","lat":52.503247,"lon":-3.9691437,"elevationM":null},{"id":"node:3320738566","kind":"peak","name":"Pen-Y-Sarn-Ddu","lat":52.4999096,"lon":-3.9558828,"elevationM":null},{"id":"node:3320754862","kind":"peak","name":"Moel Fferm","lat":52.4879034,"lon":-3.9058865,"elevationM":null},{"id":"node:3320754863","kind":"peak","name":"Moel Golomen","lat":52.4719206,"lon":-3.915006,"elevationM":null},{"id":"node:3320756902","kind":"peak","name":"Banc Mynyddgorddu","lat":52.4617371,"lon":-3.9645947,"elevationM":312},{"id":"node:3325330960","kind":"peak","name":"Foel Faner","lat":52.766521,"lon":-3.87979,"elevationM":290},{"id":"node:3326730991","kind":"peak","name":"Manod Mawr North Top","lat":52.9948004,"lon":-3.8974782,"elevationM":658},{"id":"node:3327780462","kind":"peak","name":"Y Gribin","lat":52.744598,"lon":-3.7147591,"elevationM":602},{"id":"node:3327782993","kind":"peak","name":"Bryn Mawr","lat":52.7692047,"lon":-3.7457551,"elevationM":510},{"id":"node:3327783653","kind":"peak","name":"Gwaun y Llwyni","lat":52.7698725,"lon":-3.6953617,"elevationM":685},{"id":"node:3327799178","kind":"peak","name":"Bryn Mawr","lat":52.7496357,"lon":-3.6194767,"elevationM":470},{"id":"node:3327804272","kind":"peak","name":"Y Gadfa","lat":52.7788496,"lon":-3.7290396,"elevationM":512},{"id":"node:3327804273","kind":"peak","name":"Waun Camddwr","lat":52.7709054,"lon":-3.710071,"elevationM":620},{"id":"node:3327804274","kind":"peak","name":"Craig Cywarch","lat":52.7533372,"lon":-3.7221946,"elevationM":700},{"id":"node:3327804275","kind":"peak","name":"Pen Yr Allt Isaf","lat":52.7471549,"lon":-3.672048,"elevationM":557},{"id":"node:3327804276","kind":"peak","name":"Pen yr Allt Uchaf","lat":52.7627189,"lon":-3.6746686,"elevationM":620},{"id":"node:3327804277","kind":"peak","name":"Waun Goch","lat":52.767468,"lon":-3.668311,"elevationM":605},{"id":"node:3327807747","kind":"peak","name":"Foel Clochydd","lat":52.7689451,"lon":-3.6376943,"elevationM":460},{"id":"node:3327807748","kind":"peak","name":"Pen Foel-y-ffridd","lat":52.7554541,"lon":-3.6441959,"elevationM":514},{"id":"node:3327807749","kind":"peak","name":"Y Foel","lat":52.7319291,"lon":-3.6269011,"elevationM":475},{"id":"node:3327807750","kind":"peak","name":"Y Gribin","lat":52.7420953,"lon":-3.6274321,"elevationM":485},{"id":"node:3327808876","kind":"peak","name":"Llannerchfydaf","lat":52.7451586,"lon":-3.6224877,"elevationM":485},{"id":"node:3327812591","kind":"peak","name":"Llechwedd Llwyd","lat":52.7453104,"lon":-3.5664762,"elevationM":460},{"id":"node:3327813193","kind":"peak","name":"Carreg y Fran","lat":52.7507072,"lon":-3.5931696,"elevationM":560},{"id":"node:3327825495","kind":"peak","name":"Foel Y Bryn","lat":52.7661537,"lon":-3.6090054,"elevationM":515},{"id":"node:3327828605","kind":"peak","name":"Foel y Gordd","lat":52.7778502,"lon":-3.6102714,"elevationM":520},{"id":"node:3327828606","kind":"peak","name":"Gallt Ceiniogau","lat":52.780528,"lon":-3.6076819,"elevationM":542},{"id":"node:3327828607","kind":"peak","name":"Craig Y Pant","lat":52.7864161,"lon":-3.6074389,"elevationM":535},{"id":"node:3327829863","kind":"peak","name":"Bryn Glas","lat":52.7800437,"lon":-3.5994781,"elevationM":558},{"id":"node:3327834699","kind":"peak","name":"Llechwedd Du","lat":52.7877592,"lon":-3.6414641,"elevationM":614},{"id":"node:3327838800","kind":"peak","name":"Moel y Gadfa","lat":52.7947078,"lon":-3.5804881,"elevationM":510},{"id":"node:3327839841","kind":"peak","name":"Foel Y Groes","lat":52.7975922,"lon":-3.6079823,"elevationM":582},{"id":"node:3327839844","kind":"peak","name":"Esgeiriau Gwynion","lat":52.7986909,"lon":-3.6485518,"elevationM":671},{"id":"node:3327852635","kind":"peak","name":"Erw Y Ddafad-Ddu","lat":52.796096,"lon":-3.685094,"elevationM":872},{"id":"node:3327852636","kind":"peak","name":"Moel Ffenigl","lat":52.8205543,"lon":-3.6748418,"elevationM":603},{"id":"node:3327855710","kind":"peak","name":"Garth Fach","lat":52.8461593,"lon":-3.6692841,"elevationM":290},{"id":"node:3329864104","kind":"peak","name":"Mynydd Cefn-Ddwy-Graig","lat":52.8924177,"lon":-3.5846976,"elevationM":340},{"id":"node:3329870582","kind":"peak","name":"Pen Parc y Derwgoed","lat":52.9343908,"lon":-3.5236701,"elevationM":315},{"id":"node:3329871452","kind":"peak","name":"Garth","lat":52.9411414,"lon":-3.5182199,"elevationM":300},{"id":"node:3329876959","kind":"peak","name":"Pen Ty'n-y-coed","lat":52.9421112,"lon":-3.4161243,"elevationM":220},{"id":"node:3329878030","kind":"peak","name":"Caer Eini","lat":52.9597712,"lon":-3.4894451,"elevationM":365},{"id":"node:3329892803","kind":"peak","name":"Ffridd-Y-Fedw","lat":52.9988731,"lon":-3.7442224,"elevationM":432},{"id":"node:3330007098","kind":"peak","name":"Garreg Ddu","lat":52.9960707,"lon":-3.9360326,"elevationM":290},{"id":"node:3330017491","kind":"peak","name":"Moel y Garth","lat":52.9378894,"lon":-3.719353,"elevationM":420},{"id":"node:3330052523","kind":"peak","name":"Maes-Y-Fedw","lat":52.9331043,"lon":-3.576874,"elevationM":351},{"id":"node:3330061035","kind":"peak","name":"Rhos Dawel","lat":52.9398033,"lon":-3.5613816,"elevationM":374},{"id":"node:3334096485","kind":"peak","name":"Lily's Wood Hill","lat":52.9263255,"lon":-3.5368429,"elevationM":329},{"id":"node:3368321806","kind":"peak","name":"Brottos","lat":52.9794921,"lon":-3.6807335,"elevationM":626},{"id":"node:3368327388","kind":"peak","name":"Talcen Eithin","lat":52.9791395,"lon":-3.7267475,"elevationM":453},{"id":"node:3368338121","kind":"peak","name":"Cerrig Chwibanog","lat":52.8579855,"lon":-3.7390102,"elevationM":495},{"id":"node:3370204350","kind":"peak","name":"Foel Ystrodur Fawr","lat":52.8910284,"lon":-3.7634927,"elevationM":518},{"id":"node:3370204351","kind":"peak","name":"Foel Ystrodur Bach","lat":52.8901999,"lon":-3.7662822,"elevationM":500},{"id":"node:3370204352","kind":"peak","name":"Bryn Cau","lat":52.8851171,"lon":-3.7603505,"elevationM":463},{"id":"node:3370213356","kind":"peak","name":"Y Ddau Faen Llwyd","lat":52.8639626,"lon":-3.7770325,"elevationM":530},{"id":"node:3370257493","kind":"peak","name":"Clogwyn Carreg yr Hollt","lat":52.8724338,"lon":-3.7593514,"elevationM":430},{"id":"node:3370258978","kind":"peak","name":"Wenallt","lat":52.8679318,"lon":-3.7158399,"elevationM":322},{"id":"node:3370259904","kind":"peak","name":"Bryn Bras","lat":52.8631741,"lon":-3.724309,"elevationM":370},{"id":"node:3370262798","kind":"peak","name":"Banc y Merddwr","lat":52.9046068,"lon":-3.7336478,"elevationM":548},{"id":"node:3370283250","kind":"peak","name":"Carreg y Diocyn","lat":52.9115577,"lon":-3.7399698,"elevationM":673},{"id":"node:3370444860","kind":"peak","name":"Llechwedd Du","lat":52.98772,"lon":-3.649504,"elevationM":509},{"id":"node:3370504348","kind":"peak","name":"Pen Bwlch y Greigwen","lat":52.9712235,"lon":-3.5917831,"elevationM":469},{"id":"node:3370510035","kind":"peak","name":"Pen Coed Y Bedo","lat":52.9495347,"lon":-3.5469579,"elevationM":369},{"id":"node:3370511844","kind":"peak","name":"Y Foel","lat":52.9552617,"lon":-3.452115,"elevationM":392},{"id":"node:3370515509","kind":"peak","name":"Craig yr Ychain","lat":52.9186242,"lon":-3.4519863,"elevationM":270},{"id":"node:3370517448","kind":"peak","name":"Craig yr Arian","lat":52.9118831,"lon":-3.4662986,"elevationM":380},{"id":"node:3370520631","kind":"peak","name":"Carnedd Wen","lat":52.9046491,"lon":-3.4874987,"elevationM":439},{"id":"node:3370538855","kind":"peak","name":"Moel Cae-Howel","lat":52.8858531,"lon":-3.519535,"elevationM":508},{"id":"node:3370538856","kind":"peak","name":"Rhiwaedog-is-afon","lat":52.882901,"lon":-3.5201144,"elevationM":504},{"id":"node:3370540079","kind":"peak","name":"Foel y Ddinas","lat":52.8609987,"lon":-3.5579721,"elevationM":489},{"id":"node:3370551450","kind":"peak","name":"Foel y Geifr","lat":52.8620448,"lon":-3.5353718,"elevationM":504},{"id":"node:3370572092","kind":"peak","name":"Bryn Ronwydd","lat":52.8617213,"lon":-3.5770163,"elevationM":525},{"id":"node:3370574182","kind":"peak","name":"Foel Goch","lat":52.8487991,"lon":-3.570471,"elevationM":613},{"id":"node:3370580925","kind":"peak","name":"Trum y Gwragedd","lat":52.8428262,"lon":-3.5735494,"elevationM":612},{"id":"node:3370586074","kind":"peak","name":"Pen y Cerrig Duon","lat":52.840459,"lon":-3.555804,"elevationM":611},{"id":"node:3370586075","kind":"peak","name":"Pen Y Boncyn Trefeilw","lat":52.842686,"lon":-3.5416311,"elevationM":646},{"id":"node:3370629561","kind":"peak","name":"Foel Cedig","lat":52.842852,"lon":-3.513324,"elevationM":666},{"id":"node:3370636524","kind":"peak","name":"Y Groes Fagl","lat":52.8490431,"lon":-3.5034759,"elevationM":659},{"id":"node:3370641097","kind":"peak","name":"Bryn Ysbio","lat":52.84748,"lon":-3.4819433,"elevationM":586},{"id":"node:3370663715","kind":"peak","name":"Trum y Sarn","lat":52.859393,"lon":-3.4994601,"elevationM":614},{"id":"node:3371184611","kind":"peak","name":"Mynydd Bach","lat":52.8975205,"lon":-3.2653369,"elevationM":482},{"id":"node:3371186705","kind":"peak","name":"Pen-y-Gwely","lat":52.8951387,"lon":-3.1732084,"elevationM":444},{"id":"node:3371189191","kind":"peak","name":"Tomen y Meirw","lat":52.9340142,"lon":-3.2540395,"elevationM":447},{"id":"node:3371190548","kind":"peak","name":"Cerrig-duon","lat":52.9368012,"lon":-3.2985641,"elevationM":551},{"id":"node:3371191686","kind":"peak","name":"Craig-y-dduallt","lat":52.950669,"lon":-3.1436183,"elevationM":395},{"id":"node:3373531253","kind":"peak","name":"Bryniau Glo","lat":52.7745622,"lon":-3.8965858,"elevationM":319},{"id":"node:3373534087","kind":"peak","name":"Foel Ispri","lat":52.7635589,"lon":-3.9245699,"elevationM":328},{"id":"node:3373546723","kind":"peak","name":"Garn Fach","lat":52.7867591,"lon":-3.9323318,"elevationM":550},{"id":"node:3390329121","kind":"peak","name":"Pumlumon Fach","lat":52.4713306,"lon":-3.786884,"elevationM":664},{"id":"node:3390367880","kind":"peak","name":"Cader Dinmael","lat":52.9992794,"lon":-3.4955694,"elevationM":450},{"id":"node:3390369330","kind":"peak","name":"Craig Arthbry","lat":52.9992665,"lon":-3.4445216,"elevationM":317},{"id":"node:3390369751","kind":"peak","name":"Pen-Y-Bryn","lat":52.9728756,"lon":-3.4723308,"elevationM":309},{"id":"node:3402168245","kind":"peak","name":"Mynydd Fforest","lat":52.0467631,"lon":-3.3210658,"elevationM":390},{"id":"node:3426665585","kind":"peak","name":"Hodre Hill","lat":52.3857453,"lon":-3.0041781,"elevationM":395},{"id":"node:3426671925","kind":"peak","name":"Stow Hill","lat":52.3645762,"lon":-3.0036632,"elevationM":430},{"id":"node:3426679927","kind":"peak","name":"Pen-Y-Wern Hill","lat":52.4030162,"lon":-3.0119244,"elevationM":383},{"id":"node:3426682093","kind":"peak","name":"Clun Hill","lat":52.4037755,"lon":-3.0277387,"elevationM":null},{"id":"node:3426684911","kind":"peak","name":"Cefn Hepreas","lat":52.4021653,"lon":-3.079044,"elevationM":null},{"id":"node:3428608092","kind":"peak","name":"Craig Berwyn","lat":52.891075,"lon":-3.373238,"elevationM":794},{"id":"node:3437701089","kind":"peak","name":"Mynydd Moel","lat":52.7057519,"lon":-3.8848226,"elevationM":863},{"id":"node:3437716013","kind":"peak","name":"Gau Graig","lat":52.7096822,"lon":-3.8604591,"elevationM":683},{"id":"node:3437719972","kind":"peak","name":"Craig Cwm Amarch","lat":52.6914963,"lon":-3.9092124,"elevationM":791},{"id":"node:3437726525","kind":"peak","name":"Tyrrau Mawr","lat":52.7034485,"lon":-3.9594637,"elevationM":661},{"id":"node:3439292409","kind":"peak","name":"Cefn Coch","lat":52.8267284,"lon":-3.5996417,"elevationM":594},{"id":"node:3439295571","kind":"peak","name":"Mynydd Carnedd Hywel","lat":52.8327133,"lon":-3.5945161,"elevationM":570},{"id":"node:3439310492","kind":"peak","name":"Bryn Mawr","lat":52.9513487,"lon":-3.6394914,"elevationM":337},{"id":"node:3439375096","kind":"peak","name":"Ffridd Gelli-Grin","lat":52.8848811,"lon":-3.5682803,"elevationM":419},{"id":"node:3439375474","kind":"peak","name":"Pen y Gyrn","lat":52.8490134,"lon":-3.6487466,"elevationM":366},{"id":"node:3439389405","kind":"peak","name":"Carreg Y Foel-Gron","lat":52.967437,"lon":-3.8705456,"elevationM":484},{"id":"node:3439962992","kind":"peak","name":"Gorn Hill","lat":52.4507501,"lon":-3.5078556,"elevationM":null},{"id":"node:3439993391","kind":"peak","name":"Garth Hill","lat":52.4714988,"lon":-3.5572941,"elevationM":248},{"id":"node:3440008367","kind":"peak","name":"Bryn Y Tail","lat":52.4742959,"lon":-3.5962612,"elevationM":403},{"id":"node:3440011643","kind":"peak","name":"Penwar","lat":52.470257,"lon":-3.5804684,"elevationM":350},{"id":"node:3440014757","kind":"peak","name":"Bryn Bras","lat":52.964713,"lon":-3.5409671,"elevationM":536},{"id":"node:3440017326","kind":"peak","name":"Pen Y Banc","lat":52.4487754,"lon":-3.5617143,"elevationM":310},{"id":"node:3440022758","kind":"peak","name":"Cefn Penarth","lat":52.4557192,"lon":-3.5838158,"elevationM":317},{"id":"node:3440031618","kind":"peak","name":"Maenhinon","lat":52.456726,"lon":-3.6208517,"elevationM":350},{"id":"node:3440033730","kind":"peak","name":"Deildre Hill","lat":52.4682832,"lon":-3.6290271,"elevationM":401},{"id":"node:3440040748","kind":"peak","name":"Moel y Calch","lat":52.9262726,"lon":-3.5108191,"elevationM":270},{"id":"node:3440047116","kind":"peak","name":"Moel Y Llan","lat":52.9209299,"lon":-3.5740977,"elevationM":241},{"id":"node:3440048377","kind":"peak","name":"Foel Dryll","lat":52.9286139,"lon":-3.574484,"elevationM":345},{"id":"node:3440048503","kind":"peak","name":"Ffridd Bodweni","lat":52.9149136,"lon":-3.5338646,"elevationM":260},{"id":"node:3440049814","kind":"peak","name":"Ffridd Yr Henblas","lat":52.9339168,"lon":-3.5041457,"elevationM":330},{"id":"node:3469954340","kind":"peak","name":"Mynydd Tyddynbriddell","lat":52.5659842,"lon":-3.9941088,"elevationM":null},{"id":"node:3469962747","kind":"peak","name":"Mynydd y Llyn","lat":52.5694439,"lon":-3.982609,"elevationM":256},{"id":"node:3469965000","kind":"peak","name":"Bryn Penmaen-Dyfi","lat":52.576976,"lon":-3.935285,"elevationM":96},{"id":"node:3469974062","kind":"peak","name":"Tarren Cwm-ffernol","lat":52.6025817,"lon":-3.9809689,"elevationM":548},{"id":"node:3469975476","kind":"peak","name":"Gelli Graian","lat":52.6039587,"lon":-3.9676806,"elevationM":542},{"id":"node:3469976883","kind":"peak","name":"Ffridd Rhosfarch","lat":52.6048357,"lon":-3.9411147,"elevationM":350},{"id":"node:3469979893","kind":"peak","name":"Ffridd Esgairweddan","lat":52.5985793,"lon":-3.946574,"elevationM":326},{"id":"node:3469981611","kind":"peak","name":"Mynydd Esgair Weddan","lat":52.6075079,"lon":-3.9531427,"elevationM":512},{"id":"node:3469985537","kind":"peak","name":"Foel Fawr","lat":52.6342851,"lon":-3.9525459,"elevationM":348},{"id":"node:3469987378","kind":"peak","name":"Foel Fach","lat":52.6359065,"lon":-3.9599321,"elevationM":278},{"id":"node:3469988216","kind":"peak","name":"Foel Pandy (Graig Wen)","lat":52.6432127,"lon":-3.9316345,"elevationM":454},{"id":"node:3470001142","kind":"peak","name":"Gamallt","lat":52.642141,"lon":-3.9737395,"elevationM":288},{"id":"node:3470446991","kind":"peak","name":"Bwlch-y-clawdd","lat":52.9452775,"lon":-3.2576974,"elevationM":486},{"id":"node:3470450372","kind":"peak","name":"Creigiau Eglwyseg","lat":52.9962043,"lon":-3.1605156,"elevationM":445},{"id":"node:3470457822","kind":"peak","name":"Tomen y Gwyddel","lat":52.910715,"lon":-3.2280214,"elevationM":460},{"id":"node:3470462537","kind":"peak","name":"Craig Ysgwennant","lat":52.8714495,"lon":-3.2029374,"elevationM":404},{"id":"node:3470465398","kind":"peak","name":"Moel Yr Ewig","lat":52.8755852,"lon":-3.3672734,"elevationM":695},{"id":"node:3470465762","kind":"peak","name":"Cefn-Hir-fynydd","lat":52.8714236,"lon":-3.2540496,"elevationM":464},{"id":"node:3470467930","kind":"peak","name":"Allt Goch","lat":52.818865,"lon":-3.1743128,"elevationM":230},{"id":"node:3470471640","kind":"peak","name":"Ffridd Llannerch","lat":52.7925716,"lon":-3.2629116,"elevationM":370},{"id":"node:3470473068","kind":"peak","name":"Trum Felen","lat":52.8673725,"lon":-3.3861584,"elevationM":691},{"id":"node:3470473439","kind":"peak","name":"Pendomen","lat":52.8191503,"lon":-3.2643063,"elevationM":190},{"id":"node:3470474045","kind":"peak","name":"Moel Mawn","lat":52.8509726,"lon":-3.3876598,"elevationM":574},{"id":"node:3470474906","kind":"peak","name":"Cefn Briw","lat":52.816051,"lon":-3.3224995,"elevationM":208},{"id":"node:3470475648","kind":"peak","name":"Mynydd-Y-Briw","lat":52.8256855,"lon":-3.2265623,"elevationM":341},{"id":"node:3470475895","kind":"peak","name":"Craig Orllwyn","lat":52.8269172,"lon":-3.234051,"elevationM":314},{"id":"node:3470476489","kind":"peak","name":"Llwyn Bryn-Dinas","lat":52.8138333,"lon":-3.2299526,"elevationM":null},{"id":"node:3470478304","kind":"peak","name":"Cefn Y Coed","lat":52.8124326,"lon":-3.1859214,"elevationM":227},{"id":"node:3470478307","kind":"peak","name":"The Warren","lat":52.8150135,"lon":-3.2020362,"elevationM":232},{"id":"node:3470478584","kind":"peak","name":"Wern-Las","lat":52.8182037,"lon":-3.232785,"elevationM":186},{"id":"node:3470479158","kind":"peak","name":"Mynydd Jaram","lat":52.7889903,"lon":-3.2109411,"elevationM":336},{"id":"node:3470479810","kind":"peak","name":"Grave Hill","lat":52.7752978,"lon":-3.2523544,"elevationM":284},{"id":"node:3470479811","kind":"peak","name":"Jericho Hill","lat":52.7731819,"lon":-3.2425697,"elevationM":293},{"id":"node:3470479812","kind":"peak","name":"Domen-Gastell Hill","lat":52.7707414,"lon":-3.2395656,"elevationM":290},{"id":"node:3470480028","kind":"peak","name":"Hen Allt","lat":52.78912,"lon":-3.2414754,"elevationM":376},{"id":"node:3470480693","kind":"peak","name":"Llys Hill","lat":52.7910535,"lon":-3.2243951,"elevationM":345},{"id":"node:3470481079","kind":"peak","name":"Domen Yr Allt","lat":52.7805676,"lon":-3.2960851,"elevationM":250},{"id":"node:3470481277","kind":"peak","name":"Coll Melyn","lat":52.7846559,"lon":-3.2797558,"elevationM":367},{"id":"node:3470481611","kind":"peak","name":"Y Ffridd","lat":52.7696119,"lon":-3.3409317,"elevationM":391},{"id":"node:3470482820","kind":"peak","name":"Mynydd Du","lat":52.7830076,"lon":-3.2684477,"elevationM":342},{"id":"node:3470482821","kind":"peak","name":"Mynydd Pen-Y-Ffridd","lat":52.7825534,"lon":-3.2744987,"elevationM":340},{"id":"node:3470482822","kind":"peak","name":"Cefn Bran","lat":52.7691445,"lon":-3.3270271,"elevationM":370},{"id":"node:3470485308","kind":"peak","name":"Yr Oerfa","lat":52.7627437,"lon":-3.3330567,"elevationM":377},{"id":"node:3470487999","kind":"peak","name":"Long Hill","lat":52.7632371,"lon":-3.1835611,"elevationM":197},{"id":"node:3470489241","kind":"peak","name":"Mynydd Yr Esgyrn","lat":52.7619906,"lon":-3.3551152,"elevationM":340},{"id":"node:3470490894","kind":"peak","name":"Y Foel","lat":52.7552641,"lon":-3.3402236,"elevationM":306},{"id":"node:3470492715","kind":"peak","name":"Rhiw-Fawr","lat":52.7503938,"lon":-3.3209546,"elevationM":354},{"id":"node:3470494372","kind":"peak","name":"Bryn Coch","lat":52.7689109,"lon":-3.176523,"elevationM":184},{"id":"node:3470494374","kind":"peak","name":"Llynclys Hill","lat":52.8060252,"lon":-3.0787833,"elevationM":180},{"id":"node:3470494760","kind":"peak","name":"Moel Y Fronllwyd","lat":52.7493288,"lon":-3.3048828,"elevationM":390},{"id":"node:3470496061","kind":"peak","name":"Allt Y Gadair","lat":52.7498743,"lon":-3.262418,"elevationM":334},{"id":"node:3470496076","kind":"peak","name":"Bryn-Elltyn","lat":52.7667038,"lon":-3.2549293,"elevationM":270},{"id":"node:3470496630","kind":"peak","name":"Moel Y Main","lat":52.7346754,"lon":-3.2238157,"elevationM":305},{"id":"node:3470496631","kind":"peak","name":"Allt Y Main","lat":52.7273988,"lon":-3.2422693,"elevationM":356},{"id":"node:3470496689","kind":"peak","name":"Bryn Rhosfawr","lat":52.7227854,"lon":-3.2881458,"elevationM":311},{"id":"node:3470499000","kind":"peak","name":"Bwlch-Y-Cocsydd","lat":52.7686902,"lon":-3.2609589,"elevationM":190},{"id":"node:3470503715","kind":"peak","name":"Llanfyllin Lonely Tree","lat":52.762471,"lon":-3.25332,"elevationM":195},{"id":"node:3470504321","kind":"peak","name":"Gaer-Fawr Hill","lat":52.7089421,"lon":-3.1501515,"elevationM":219},{"id":"node:3470507403","kind":"peak","name":"Pen Y Berth","lat":52.7044307,"lon":-3.3613808,"elevationM":280},{"id":"node:3470507719","kind":"peak","name":"Gallt-Yr-Ancr","lat":52.7083181,"lon":-3.2655294,"elevationM":224},{"id":"node:3470509332","kind":"peak","name":"Bryngwyn","lat":52.7541342,"lon":-3.2069071,"elevationM":251},{"id":"node:3470509435","kind":"peak","name":"Winllan Hill","lat":52.785162,"lon":-3.1620605,"elevationM":216},{"id":"node:3470509476","kind":"peak","name":"Llwyn Dafydd-Goch","lat":52.8110708,"lon":-3.1426628,"elevationM":190},{"id":"node:3470510416","kind":"peak","name":"Foel Hill","lat":52.777128,"lon":-3.1663091,"elevationM":180},{"id":"node:3470510515","kind":"peak","name":"Y Ffridd","lat":52.7723641,"lon":-3.1822307,"elevationM":195},{"id":"node:3470518059","kind":"peak","name":"Mynydd Lledrod","lat":52.8700442,"lon":-3.1660946,"elevationM":402},{"id":"node:3470519534","kind":"peak","name":"Mynydd Myfyr","lat":52.8393491,"lon":-3.1230076,"elevationM":341},{"id":"node:3470519983","kind":"peak","name":"Bryn Llansilin","lat":52.8418247,"lon":-3.1797631,"elevationM":196},{"id":"node:3470520937","kind":"peak","name":"Coed Y Bwlch","lat":52.8663008,"lon":-3.1532629,"elevationM":414},{"id":"node:3470520942","kind":"peak","name":"Bakers Hill","lat":52.8766263,"lon":-3.1084773,"elevationM":352},{"id":"node:3470521525","kind":"peak","name":"Pritchards Hill","lat":52.7259174,"lon":-3.0147751,"elevationM":172},{"id":"node:3470522899","kind":"peak","name":"Old Oswestry","lat":52.8718704,"lon":-3.0479701,"elevationM":150},{"id":"node:3470522935","kind":"peak","name":"Sweeney Mountain","lat":52.8231312,"lon":-3.0711444,"elevationM":189},{"id":"node:3470523772","kind":"peak","name":"Kempsters Hill","lat":52.7223825,"lon":-3.010741,"elevationM":245},{"id":"node:3470523929","kind":"peak","name":"Bausley Hill","lat":52.7258784,"lon":-3.0013211,"elevationM":185},{"id":"node:3470525461","kind":"peak","name":"Aston Hill","lat":52.6539807,"lon":-3.0019005,"elevationM":null},{"id":"node:3470525976","kind":"peak","name":"Hargrave Bank","lat":52.6789138,"lon":-3.0176075,"elevationM":324},{"id":"node:3486900110","kind":"peak","name":"Allt Boeth","lat":52.7462886,"lon":-3.9943839,"elevationM":180},{"id":"node:3486927116","kind":"peak","name":"Pen y Brynfforchog","lat":52.746305,"lon":-3.752904,"elevationM":685},{"id":"node:3486933527","kind":"peak","name":"Gwaun Lydan","lat":52.7767687,"lon":-3.6610379,"elevationM":632},{"id":"node:3486947883","kind":"peak","name":"Craigysgafn","lat":52.9806715,"lon":-3.9979753,"elevationM":689},{"id":"node:3487011147","kind":"peak","name":"Crib-Y-Rhiw","lat":52.8047624,"lon":-3.9838172,"elevationM":681},{"id":"node:3487057377","kind":"peak","name":"Foel Penolau","lat":52.8942586,"lon":-3.9906111,"elevationM":614},{"id":"node:3487062362","kind":"peak","name":"Pen Cerrig-Tewion","lat":52.4782977,"lon":-3.7704364,"elevationM":null},{"id":"node:3487067919","kind":"peak","name":"Pen Pumlumon Llygad-Bychan","lat":52.469214,"lon":-3.7690271,"elevationM":727},{"id":"node:3487079603","kind":"peak","name":"Black Mixen","lat":52.2717777,"lon":-3.1788429,"elevationM":650},{"id":"node:3487097797","kind":"peak","name":"Bryn Garw","lat":52.2396803,"lon":-3.7032614,"elevationM":null},{"id":"node:3487101907","kind":"peak","name":"Fron-Wen","lat":52.2864894,"lon":-3.2063138,"elevationM":537},{"id":"node:3487102596","kind":"peak","name":"Oldhall Bank","lat":52.291372,"lon":-3.2199609,"elevationM":422},{"id":"node:3487106155","kind":"peak","name":"Carreg-Yr-Ast","lat":52.2195456,"lon":-3.6449609,"elevationM":null},{"id":"node:3487108592","kind":"peak","name":"Esgair Ganol","lat":52.2305735,"lon":-3.6587153,"elevationM":null},{"id":"node:3487111804","kind":"peak","name":"Cerrig-Llwyd y Rhestr","lat":52.2327945,"lon":-3.6869107,"elevationM":590},{"id":"node:3491820707","kind":"peak","name":"Burgess Lands","lat":52.6678603,"lon":-3.1478656,"elevationM":150},{"id":"node:3493503833","kind":"peak","name":"Ffridd Lom","lat":52.9314048,"lon":-3.5511664,"elevationM":280},{"id":"node:3493504252","kind":"peak","name":"College Warren","lat":52.9322585,"lon":-3.5591058,"elevationM":356},{"id":"node:3493506013","kind":"peak","name":"Moel Cryniarth","lat":52.9413112,"lon":-3.5426048,"elevationM":310},{"id":"node:3493647190","kind":"peak","name":"Godor North Top","lat":52.869911,"lon":-3.354636,"elevationM":675},{"id":"node:3493775971","kind":"peak","name":"Bryn yr Eithin","lat":52.8672393,"lon":-3.5453829,"elevationM":420},{"id":"node:3493785026","kind":"peak","name":"Craig Foel-y-ddinas","lat":52.8683921,"lon":-3.5510477,"elevationM":430},{"id":"node:3495186854","kind":"peak","name":"Llanerchydol Hill","lat":52.6619591,"lon":-3.1626408,"elevationM":94},{"id":"node:3495186855","kind":"peak","name":"The Common","lat":52.6687261,"lon":-3.1516545,"elevationM":158},{"id":"node:3495186856","kind":"peak","name":"Groes-Pluen","lat":52.6691822,"lon":-3.165942,"elevationM":178},{"id":"node:3495186857","kind":"peak","name":"Y Golfa","lat":52.6553365,"lon":-3.2100145,"elevationM":342},{"id":"node:3498201798","kind":"peak","name":"Bryn Yr Hyrddod","lat":52.984368,"lon":-3.8272429,"elevationM":456},{"id":"node:3498202720","kind":"peak","name":"Craig Gyfynys","lat":52.9251749,"lon":-3.9599372,"elevationM":270},{"id":"node:3498202721","kind":"peak","name":"Pig Idris","lat":52.8726492,"lon":-3.8868094,"elevationM":429},{"id":"node:3498203371","kind":"peak","name":"Pen y Foel-ddu","lat":52.9378761,"lon":-3.855567,"elevationM":532},{"id":"node:3498203372","kind":"peak","name":"Foel Cynfal","lat":52.9384193,"lon":-3.8612962,"elevationM":540},{"id":"node:3498203719","kind":"peak","name":"Tomen-y-mur","lat":52.9298278,"lon":-3.9273461,"elevationM":290},{"id":"node:3498203799","kind":"peak","name":"Craig Y Gwynt","lat":52.9077856,"lon":-3.9750219,"elevationM":431},{"id":"node:3498206390","kind":"peak","name":"Banciaur Eisteddfod","lat":52.8731866,"lon":-3.7921703,"elevationM":510},{"id":"node:3503980268","kind":"peak","name":"Trum y Fawnog","lat":52.8216706,"lon":-3.476061,"elevationM":562},{"id":"node:3504006766","kind":"peak","name":"Merddyn Ficar","lat":52.8311612,"lon":-3.4361712,"elevationM":490},{"id":"node:3504006767","kind":"peak","name":"Y Gribin","lat":52.825189,"lon":-3.422133,"elevationM":452},{"id":"node:3504010106","kind":"peak","name":"Hafod Hir","lat":52.845772,"lon":-3.4598078,"elevationM":545},{"id":"node:3504017631","kind":"peak","name":"Craig Boeth","lat":52.8421625,"lon":-3.446217,"elevationM":541},{"id":"node:3504019235","kind":"peak","name":"Moel Dimoel","lat":52.8182535,"lon":-3.4430759,"elevationM":494},{"id":"node:3504023363","kind":"peak","name":"Rhos Collfryn","lat":52.7932639,"lon":-3.4758035,"elevationM":459},{"id":"node:3504024693","kind":"peak","name":"Moel Blaen-y-cwm","lat":52.8358799,"lon":-3.4592167,"elevationM":497},{"id":"node:3504030232","kind":"peak","name":"Moel Bwlch-Sych","lat":52.8034613,"lon":-3.434991,"elevationM":530},{"id":"node:3504034968","kind":"peak","name":"Craig Melangell","lat":52.8234989,"lon":-3.4509984,"elevationM":370},{"id":"node:3504034992","kind":"peak","name":"Pwll Brwyn","lat":52.7884966,"lon":-3.4750868,"elevationM":450},{"id":"node:3504038245","kind":"peak","name":"Groes Y Forwyn","lat":52.780702,"lon":-3.4425227,"elevationM":490},{"id":"node:3504038246","kind":"peak","name":"Croes y Forwyn","lat":52.7783658,"lon":-3.4402052,"elevationM":499},{"id":"node:3504038268","kind":"peak","name":"Foel Fawr","lat":52.7944836,"lon":-3.4402481,"elevationM":464},{"id":"node:3522043270","kind":"peak","name":"Holloway Rocks","lat":52.3639758,"lon":-3.0196029,"elevationM":427},{"id":"node:3522044452","kind":"peak","name":"Garn Bank","lat":52.3717583,"lon":-3.0368335,"elevationM":370},{"id":"node:3522052873","kind":"peak","name":"Coed-Detton","lat":52.3560216,"lon":-3.0292589,"elevationM":null},{"id":"node:3522056455","kind":"peak","name":"Kinsley Wood","lat":52.3491408,"lon":-3.0391938,"elevationM":null},{"id":"node:3522056864","kind":"peak","name":"Panpunton Hill","lat":52.3584067,"lon":-3.0532915,"elevationM":null},{"id":"node:3522059269","kind":"peak","name":"New Invention Hill","lat":52.3932251,"lon":-3.0478198,"elevationM":null},{"id":"node:3522082670","kind":"peak","name":"Radnor Wood Camp","lat":52.4296384,"lon":-3.0012781,"elevationM":null},{"id":"node:3522084383","kind":"peak","name":"Guilden Down Hill","lat":52.43962,"lon":-3.0283791,"elevationM":315},{"id":"node:3522087367","kind":"peak","name":"Acton Bank","lat":52.4630279,"lon":-3.0036813,"elevationM":null},{"id":"node:3522092031","kind":"peak","name":"Stepple Knoll","lat":52.4387567,"lon":-3.0000765,"elevationM":365},{"id":"node:3522274374","kind":"peak","name":"Ffridd Arw","lat":52.8866138,"lon":-3.7201808,"elevationM":419},{"id":"node:3522314741","kind":"peak","name":"Highgate Hill","lat":52.2300617,"lon":-3.1666436,"elevationM":null},{"id":"node:3522337266","kind":"peak","name":"Moel Ty-uchaf","lat":52.9237584,"lon":-3.4057312,"elevationM":440},{"id":"node:3522345009","kind":"peak","name":"Trum-y-Wern","lat":52.9135959,"lon":-3.4054361,"elevationM":548},{"id":"node:3522345010","kind":"peak","name":"Moel Pearce","lat":52.910439,"lon":-3.394485,"elevationM":601},{"id":"node:3522347824","kind":"peak","name":"Yr Aran","lat":52.8797704,"lon":-3.4346165,"elevationM":500},{"id":"node:3522350218","kind":"peak","name":"Ffridd Penagored","lat":52.8943879,"lon":-3.428501,"elevationM":460},{"id":"node:3522354426","kind":"peak","name":"Bryniau Gleision","lat":52.8828652,"lon":-3.4773172,"elevationM":479},{"id":"node:3522468685","kind":"peak","name":"Tir Rhiwiog","lat":52.7318735,"lon":-3.5872235,"elevationM":545},{"id":"node:3522474612","kind":"peak","name":"Pen-Y-Golfa","lat":52.6571435,"lon":-3.1925099,"elevationM":null},{"id":"node:3522475916","kind":"peak","name":"Yr Allt","lat":52.6845984,"lon":-3.1214636,"elevationM":229},{"id":"node:3522496459","kind":"peak","name":"Bryn Fawnog","lat":52.7371068,"lon":-3.5642618,"elevationM":440},{"id":"node:3522504693","kind":"peak","name":"Blaen Afon Llechog","lat":52.7377202,"lon":-3.5738124,"elevationM":470},{"id":"node:3522504933","kind":"peak","name":"Cefn Brith Uchaf","lat":52.732101,"lon":-3.5951628,"elevationM":522},{"id":"node:3522508883","kind":"peak","name":"Llechwedd Y Lloi","lat":52.7288199,"lon":-3.6065354,"elevationM":480},{"id":"node:3522508893","kind":"peak","name":"Cefn Brith-Isaf","lat":52.726,"lon":-3.6033597,"elevationM":500},{"id":"node:3522520266","kind":"peak","name":"Cefn Perfedd (Pen y Lladron)","lat":52.9264231,"lon":-3.341483,"elevationM":604},{"id":"node:3522521892","kind":"peak","name":"Moel y Gwelltyn","lat":52.8411147,"lon":-3.2331822,"elevationM":382},{"id":"node:3522522712","kind":"peak","name":"Talfryn","lat":52.8582234,"lon":-3.3612288,"elevationM":637},{"id":"node:3522524969","kind":"peak","name":"Moel Bentyrch","lat":52.675126,"lon":-3.39843,"elevationM":335},{"id":"node:3522529885","kind":"peak","name":"Gallt y Goedhwch","lat":52.733974,"lon":-3.2795437,"elevationM":308},{"id":"node:3522531849","kind":"peak","name":"Y Wenallt","lat":52.7280618,"lon":-3.2832344,"elevationM":280},{"id":"node:3522531863","kind":"peak","name":"Bwlch y Crogfa","lat":52.7309465,"lon":-3.2796725,"elevationM":320},{"id":"node:3522534085","kind":"peak","name":"Foel Wen South Top","lat":52.887337,"lon":-3.335563,"elevationM":687},{"id":"node:3522549850","kind":"peak","name":"Foel Dugoed","lat":52.704387,"lon":-3.6383279,"elevationM":439},{"id":"node:3522553344","kind":"peak","name":"Cyrniau y Llyn","lat":52.8085707,"lon":-3.4847725,"elevationM":510},{"id":"node:3522557205","kind":"peak","name":"Cefn Gwyntog North Top","lat":52.835097,"lon":-3.522942,"elevationM":600},{"id":"node:3522578929","kind":"peak","name":"Craig y Benglog","lat":52.8042745,"lon":-3.7741016,"elevationM":520},{"id":"node:3522582286","kind":"peak","name":"Moel Cae'r-defaid","lat":52.8055328,"lon":-3.7805604,"elevationM":520},{"id":"node:3522583654","kind":"peak","name":"Graig Fach","lat":52.8083281,"lon":-3.7926465,"elevationM":510},{"id":"node:3522584509","kind":"peak","name":"Cynefin Bryn Blew","lat":52.812719,"lon":-3.805421,"elevationM":719},{"id":"node:3522586062","kind":"peak","name":"Rhobell Ganol","lat":52.8307111,"lon":-3.8034708,"elevationM":520},{"id":"node:3522586070","kind":"peak","name":"Rhobell-y-big","lat":52.8374907,"lon":-3.8084656,"elevationM":504},{"id":"node:3523910982","kind":"peak","name":"Rhiw-Bron-Y-Gelli","lat":52.4403399,"lon":-3.5665827,"elevationM":null},{"id":"node:3523911671","kind":"peak","name":"Brynposteg Hill","lat":52.4287362,"lon":-3.5302334,"elevationM":null},{"id":"node:3523912311","kind":"peak","name":"Bryn Cefn","lat":52.4410594,"lon":-3.58244,"elevationM":null},{"id":"node:3523912960","kind":"peak","name":"Bryn Gellilefrith","lat":52.4684929,"lon":-3.5340529,"elevationM":null},{"id":"node:3523913049","kind":"peak","name":"Dol-Llys Fach","lat":52.4677216,"lon":-3.5109215,"elevationM":null},{"id":"node:3523917460","kind":"peak","name":"Bryn-Llys","lat":52.460296,"lon":-3.547421,"elevationM":301},{"id":"node:3523926100","kind":"peak","name":"Waun Y Gadair","lat":52.4860581,"lon":-3.5946494,"elevationM":400},{"id":"node:3523926260","kind":"peak","name":"Pen-Y-Gaer","lat":52.4687151,"lon":-3.6087256,"elevationM":390},{"id":"node:3523941444","kind":"peak","name":"Banc-Y-Groes","lat":52.4840719,"lon":-3.6473923,"elevationM":420},{"id":"node:3523941900","kind":"peak","name":"Foel Fawr","lat":52.5005337,"lon":-3.6214285,"elevationM":421},{"id":"node:3523943388","kind":"peak","name":"Golygfa Llyn Clywedog","lat":52.4941979,"lon":-3.6366849,"elevationM":340},{"id":"node:3523943932","kind":"peak","name":"Foel Fach","lat":52.499567,"lon":-3.6300545,"elevationM":402},{"id":"node:3523945603","kind":"peak","name":"Dduallt","lat":52.499972,"lon":-3.6380368,"elevationM":380},{"id":"node:3523946653","kind":"peak","name":"Esgair Gronwen","lat":52.4888282,"lon":-3.6545806,"elevationM":367},{"id":"node:3528534373","kind":"peak","name":"Derlwyn","lat":52.8402966,"lon":-3.7194761,"elevationM":398},{"id":"node:3528537276","kind":"peak","name":"Banc yr Hen-gorlan","lat":52.8446773,"lon":-3.7187894,"elevationM":410},{"id":"node:3536099848","kind":"peak","name":"Allt-Y-Moch","lat":52.4544257,"lon":-3.443643,"elevationM":null},{"id":"node:3536118201","kind":"peak","name":"Bryn","lat":52.4546742,"lon":-3.2470692,"elevationM":457},{"id":"node:3536118286","kind":"peak","name":"Gwernesgob","lat":52.470245,"lon":-3.2873024,"elevationM":null},{"id":"node:3536118288","kind":"peak","name":"Kerry Hill","lat":52.4628329,"lon":-3.2756294,"elevationM":479},{"id":"node:3536121110","kind":"peak","name":"Bryn-Coch","lat":52.4547003,"lon":-3.285972,"elevationM":518},{"id":"node:3536122459","kind":"peak","name":"Crugynnau","lat":52.4472464,"lon":-3.3132662,"elevationM":null},{"id":"node:3536122872","kind":"peak","name":"Yr Allt","lat":52.4642187,"lon":-3.3954061,"elevationM":null},{"id":"node:3536125049","kind":"peak","name":"Gorddwr Bank","lat":52.4425379,"lon":-3.3054556,"elevationM":489},{"id":"node:3536125068","kind":"peak","name":"Y Foel","lat":52.4395426,"lon":-3.3238662,"elevationM":null},{"id":"node:3536126164","kind":"peak","name":"Waun-Lluest-Owain","lat":52.4504897,"lon":-3.409182,"elevationM":null},{"id":"node:3536130343","kind":"peak","name":"Cwm-Y-Rhiwdre Hill","lat":52.4441075,"lon":-3.3614815,"elevationM":null},{"id":"node:3536131854","kind":"peak","name":"Allt-Yr-Hendre","lat":52.4599305,"lon":-3.4332789,"elevationM":null},{"id":"node:3536135867","kind":"peak","name":"Esgair Lwyd","lat":52.4424333,"lon":-3.43094,"elevationM":null},{"id":"node:3536136148","kind":"peak","name":"Y Foel","lat":52.4456769,"lon":-3.4452952,"elevationM":null},{"id":"node:3536136181","kind":"peak","name":"Craig Y Paen","lat":52.4506858,"lon":-3.4240736,"elevationM":null},{"id":"node:3536136341","kind":"peak","name":"Bryn Dolwen","lat":52.4606496,"lon":-3.4890045,"elevationM":null},{"id":"node:3536139802","kind":"peak","name":"Domen-Ddu","lat":52.434454,"lon":-3.438536,"elevationM":null},{"id":"node:3536141068","kind":"peak","name":"Tyn-Y-Bryn","lat":52.4188705,"lon":-3.5735692,"elevationM":null},{"id":"node:3536141701","kind":"peak","name":"Coed-Y-Gaer","lat":52.4484626,"lon":-3.4655298,"elevationM":null},{"id":"node:3536143610","kind":"peak","name":"Fawnog Y Bont","lat":52.435736,"lon":-3.7003411,"elevationM":null},{"id":"node:3536146019","kind":"peak","name":"Blaen Pathiog","lat":52.4254526,"lon":-3.5783113,"elevationM":null},{"id":"node:3536146523","kind":"peak","name":"Blaen-Y-Glyn Hill","lat":52.4237908,"lon":-3.6127938,"elevationM":null},{"id":"node:3536146587","kind":"peak","name":"Esgair-Clawdd","lat":52.4315235,"lon":-3.6008419,"elevationM":null},{"id":"node:3536146733","kind":"peak","name":"Pen-Bwlch-Y-Groes","lat":52.4292732,"lon":-3.6216987,"elevationM":null},{"id":"node:3536150534","kind":"peak","name":"Cefn-Hafod-Wen","lat":52.4410207,"lon":-3.6439503,"elevationM":404},{"id":"node:3536151519","kind":"peak","name":"Allt Y Derw","lat":52.4327794,"lon":-3.651997,"elevationM":null},{"id":"node:3536153571","kind":"peak","name":"Fuches","lat":52.4390717,"lon":-3.6698068,"elevationM":450},{"id":"node:3536154143","kind":"peak","name":"Pen Lluest-Y-Carn","lat":52.4639648,"lon":-3.7659489,"elevationM":null},{"id":"node:3536156450","kind":"peak","name":"Allt Pant-Mawr","lat":52.4290769,"lon":-3.6831964,"elevationM":null},{"id":"node:3536157548","kind":"peak","name":"Tir Gwyn","lat":52.4424595,"lon":-3.6957921,"elevationM":null},{"id":"node:3536160132","kind":"peak","name":"Esgair Y Maen","lat":52.4527389,"lon":-3.7460674,"elevationM":null},{"id":"node:3536160853","kind":"peak","name":"Cripiau Eisteddfa-Fach","lat":52.4453238,"lon":-3.7616242,"elevationM":null},{"id":"node:3536167082","kind":"peak","name":"Bryn Llwyd","lat":52.4390929,"lon":-3.8199784,"elevationM":null},{"id":"node:3536176481","kind":"peak","name":"Mynydd Llwyn-gwern","lat":52.6256945,"lon":-3.8258861,"elevationM":264},{"id":"node:3536179975","kind":"peak","name":"Bryn-Coch","lat":52.6104167,"lon":-3.8309003,"elevationM":227},{"id":"node:3536181184","kind":"peak","name":"Mynydd Cilgwyn","lat":52.619451,"lon":-3.8236511,"elevationM":268},{"id":"node:3536181727","kind":"peak","name":"Mynydd Glandulas","lat":52.6195403,"lon":-3.831121,"elevationM":264},{"id":"node:3536181874","kind":"peak","name":"Foel-y-Ffridd","lat":52.6034233,"lon":-3.8589172,"elevationM":168},{"id":"node:3536184243","kind":"peak","name":"Foel-Goch","lat":52.603236,"lon":-3.8807415,"elevationM":263},{"id":"node:3536187107","kind":"peak","name":"Braich Y Golwydd","lat":52.5929468,"lon":-3.9085974,"elevationM":206},{"id":"node:3536187193","kind":"peak","name":"Bryn Pennal","lat":52.5906481,"lon":-3.9323491,"elevationM":120},{"id":"node:3536187232","kind":"peak","name":"Mynydd Rhyd-galed East Top","lat":52.6194358,"lon":-3.9176401,"elevationM":476},{"id":"node:3536190262","kind":"peak","name":"Mynydd Cefn-caer","lat":52.610998,"lon":-3.919378,"elevationM":358},{"id":"node:3536191561","kind":"peak","name":"Mynydd Rhyd-galed (Tarrenhendre East Top)","lat":52.621264,"lon":-3.9228908,"elevationM":502},{"id":"node:3536191562","kind":"peak","name":"Moel Maes-y-wern-goch","lat":52.6215035,"lon":-3.9006462,"elevationM":405},{"id":"node:3536191594","kind":"peak","name":"Foel y Geifr","lat":52.6283741,"lon":-3.8980376,"elevationM":515},{"id":"node:3536191839","kind":"peak","name":"Llanfechan","lat":52.6342127,"lon":-3.8162844,"elevationM":304},{"id":"node:3536191864","kind":"peak","name":"Mynydd Pant-coch","lat":52.6372767,"lon":-3.8101835,"elevationM":307},{"id":"node:3536192463","kind":"peak","name":"Ffridd Bwlch-lluan","lat":52.6429178,"lon":-3.7943329,"elevationM":285},{"id":"node:3536192472","kind":"peak","name":"Ffridd Rhydybiswail","lat":52.6457428,"lon":-3.7843912,"elevationM":312},{"id":"node:3536194050","kind":"peak","name":"Bryn Mawr","lat":52.6339812,"lon":-3.7874914,"elevationM":282},{"id":"node:3536195501","kind":"peak","name":"Tarren Cadian","lat":52.6457098,"lon":-3.8709595,"elevationM":408},{"id":"node:3536202991","kind":"peak","name":"Ffridd Newydd","lat":52.6963808,"lon":-3.8227035,"elevationM":508},{"id":"node:3536204120","kind":"peak","name":"Mynydd Cwmeiddew","lat":52.6781061,"lon":-3.8493754,"elevationM":507},{"id":"node:3536204418","kind":"peak","name":"Mynydd Ceiswyn","lat":52.7088484,"lon":-3.8184584,"elevationM":605},{"id":"node:3536205767","kind":"peak","name":"Mynydd Fron-ffraith","lat":52.6887597,"lon":-3.8543964,"elevationM":514},{"id":"node:3536206593","kind":"peak","name":"Mynydd y Waun","lat":52.702731,"lon":-3.8269946,"elevationM":565},{"id":"node:3536206595","kind":"peak","name":"Mynydd Cymerau","lat":52.6879142,"lon":-3.7986065,"elevationM":400},{"id":"node:3536207752","kind":"peak","name":"Mynydd Ffynnonbadarn","lat":52.6877711,"lon":-3.8228751,"elevationM":476},{"id":"node:3536208128","kind":"peak","name":"Mynydd Cambergi","lat":52.6839796,"lon":-3.8249699,"elevationM":440},{"id":"node:3573398193","kind":"peak","name":"Y Garnedd","lat":52.956986,"lon":-3.9959148,"elevationM":249},{"id":"node:3573398893","kind":"peak","name":"Moel Dduallt","lat":52.9630222,"lon":-3.9757446,"elevationM":273},{"id":"node:3600657100","kind":"peak","name":"Craig Llanelltyd","lat":52.7582636,"lon":-3.9056022,"elevationM":60},{"id":"node:3610875630","kind":"peak","name":"Rhiw-Felen","lat":52.3914302,"lon":-3.9930103,"elevationM":null},{"id":"node:3644425386","kind":"peak","name":"Craig Y Llwynog","lat":52.981322,"lon":-3.5972125,"elevationM":470},{"id":"node:3644598665","kind":"peak","name":"Moel Llechwedd-Figyn","lat":52.9938356,"lon":-3.6087996,"elevationM":405},{"id":"node:3644613838","kind":"peak","name":"Bryn Yr Hen Wr","lat":52.9582011,"lon":-3.7798266,"elevationM":440},{"id":"node:3644629798","kind":"peak","name":"Pen Cae-rhug","lat":52.9099976,"lon":-3.6367586,"elevationM":330},{"id":"node:3661526627","kind":"peak","name":"Trum Y Gwr","lat":52.332149,"lon":-3.7181534,"elevationM":null},{"id":"node:3661528625","kind":"peak","name":"Grafia","lat":52.3306869,"lon":-3.703927,"elevationM":null},{"id":"node:3661530197","kind":"peak","name":"Banc-Hir","lat":52.3417856,"lon":-3.7553181,"elevationM":null},{"id":"node:3661531618","kind":"peak","name":"Carreg Y Derlwyn","lat":52.3244317,"lon":-3.7455334,"elevationM":null},{"id":"node:3661533206","kind":"peak","name":"Banc Yr Wyn","lat":52.3479139,"lon":-3.7374331,"elevationM":null},{"id":"node:3661536329","kind":"peak","name":"Bryn Dafydd","lat":52.3279659,"lon":-3.7752737,"elevationM":null},{"id":"node:3686239159","kind":"peak","name":"Knucklas Castle Hill","lat":52.3638265,"lon":-3.1032293,"elevationM":294},{"id":"node:3686250327","kind":"peak","name":"Bailey Hill","lat":52.3426076,"lon":-3.1125526,"elevationM":426},{"id":"node:3686259182","kind":"peak","name":"Bryn Abergwynant","lat":52.7417832,"lon":-3.9615401,"elevationM":96},{"id":"node:3686261744","kind":"peak","name":"Dol Gledr","lat":52.7361839,"lon":-3.9439341,"elevationM":309},{"id":"node:3686263232","kind":"peak","name":"Craig Y Castell","lat":52.7375903,"lon":-3.9357855,"elevationM":298},{"id":"node:3686267684","kind":"peak","name":"Craig-y-llyn","lat":52.6891086,"lon":-3.9759918,"elevationM":622},{"id":"node:3686278291","kind":"peak","name":"Pen Coed-y-gof","lat":52.6311121,"lon":-3.9978733,"elevationM":217},{"id":"node:3686281282","kind":"peak","name":"Pen Rhiwerfa","lat":52.6363603,"lon":-3.9873591,"elevationM":268},{"id":"node:3686286564","kind":"peak","name":"Craig Lwyd","lat":52.6899132,"lon":-3.9030127,"elevationM":690},{"id":"node:3686286944","kind":"peak","name":"Mynydd Ty'n-y-fach","lat":52.6691053,"lon":-3.9418458,"elevationM":409},{"id":"node:3686289347","kind":"peak","name":"Mynydd Pencoed","lat":52.6881412,"lon":-3.91688,"elevationM":766},{"id":"node:3686290283","kind":"peak","name":"Craig Ysgiog","lat":52.6743505,"lon":-3.947825,"elevationM":325},{"id":"node:3686295268","kind":"peak","name":"Mynydd Gwerngraig","lat":52.7055372,"lon":-3.8715756,"elevationM":686},{"id":"node:3686296285","kind":"peak","name":"Is-Afon","lat":52.8780455,"lon":-3.5971582,"elevationM":490},{"id":"node:3686312192","kind":"peak","name":"Bryn Banon","lat":52.9248086,"lon":-3.5434926,"elevationM":324},{"id":"node:3686314572","kind":"peak","name":"Cefn Eithin","lat":52.9755721,"lon":-3.4646504,"elevationM":280},{"id":"node:3686314727","kind":"peak","name":"Foel Hafotty Uchaf","lat":52.9954139,"lon":-3.5927326,"elevationM":442},{"id":"node:3686877298","kind":"peak","name":"Careg y Big","lat":52.9483236,"lon":-3.1667904,"elevationM":416},{"id":"node:3686884915","kind":"peak","name":"Pen Tan-Y-Graig","lat":52.955421,"lon":-3.271182,"elevationM":476},{"id":"node:3686923025","kind":"peak","name":"Bryn Gob","lat":52.9772649,"lon":-3.4788061,"elevationM":322},{"id":"node:3705300679","kind":"peak","name":"Pant Hill","lat":52.9210031,"lon":-3.1777805,"elevationM":386},{"id":"node:3705300874","kind":"peak","name":"Graig-Wen","lat":52.9249961,"lon":-3.1318742,"elevationM":407},{"id":"node:3705306325","kind":"peak","name":"Plas-Crogen Hill","lat":52.912657,"lon":-3.11972,"elevationM":403},{"id":"node:3728060848","kind":"peak","name":"Mynydd Braich-goch","lat":52.6484201,"lon":-3.8795997,"elevationM":597},{"id":"node:3728121245","kind":"peak","name":"Mynydd Rugog","lat":52.6659196,"lon":-3.8903323,"elevationM":504},{"id":"node:3734794690","kind":"peak","name":"Moel Ddinas","lat":52.8998781,"lon":-3.9981512,"elevationM":450},{"id":"node:3755214976","kind":"peak","name":"Pen Dolbelydr","lat":52.9154538,"lon":-3.8919904,"elevationM":356},{"id":"node:3755217912","kind":"peak","name":"Y Garn","lat":52.9246921,"lon":-3.8472352,"elevationM":477},{"id":"node:3755226328","kind":"peak","name":"Y Garn South Top","lat":52.9209203,"lon":-3.8479529,"elevationM":474},{"id":"node:3755228696","kind":"peak","name":"Moel-Y-Croesau","lat":52.9274638,"lon":-3.8639822,"elevationM":490},{"id":"node:3755232231","kind":"peak","name":"Pen Llyn Hiraethlyn","lat":52.9201447,"lon":-3.8772292,"elevationM":369},{"id":"node:3755234364","kind":"peak","name":"Craig-Y-Tan","lat":52.91148,"lon":-3.9094505,"elevationM":328},{"id":"node:3755236301","kind":"peak","name":"Ffridd Wen","lat":52.8873017,"lon":-3.8920956,"elevationM":417},{"id":"node:3755237149","kind":"peak","name":"Y Foel","lat":52.8979436,"lon":-3.8567214,"elevationM":430},{"id":"node:3769089592","kind":"peak","name":"Y Garnedd","lat":52.9705858,"lon":-3.8744052,"elevationM":552},{"id":"node:3784353903","kind":"peak","name":"Cadair Berwyn","lat":52.8805781,"lon":-3.3810615,"elevationM":832},{"id":"node:3806083770","kind":"peak","name":"Bryniau Goleu","lat":52.8820338,"lon":-3.6075722,"elevationM":349},{"id":"node:3806084157","kind":"peak","name":"Uwchafon","lat":52.8507846,"lon":-3.6257409,"elevationM":472},{"id":"node:3810326783","kind":"peak","name":"Cherrytree Bank","lat":52.6664421,"lon":-3.1516934,"elevationM":150},{"id":"node:3871876466","kind":"peak","name":"Moel Cors-y-garnedd","lat":52.7970872,"lon":-3.8148977,"elevationM":497},{"id":"node:3916706190","kind":"peak","name":"Bwlch Maen Gwynedd","lat":52.8935352,"lon":-3.3662973,"elevationM":720},{"id":"node:3916706191","kind":"peak","name":"Tomle","lat":52.8914125,"lon":-3.3610307,"elevationM":742},