{"tileKey":"la_p42_lo_p143","version":"v1-1775891056926","entries":[{"id":"node:273135100","kind":"peak","name":"楽古岳","lat":42.2725144,"lon":143.1111297,"elevationM":1471},{"id":"node:1722902887","kind":"peak","name":"ピンネシリ","lat":42.1395743,"lon":143.0360311,"elevationM":958},{"id":"node:2170028169","kind":"peak","name":"オムシャヌプリ","lat":42.309341,"lon":143.054818,"elevationM":1379},{"id":"node:2170037941","kind":"peak","name":"トヨニ岳","lat":42.362725,"lon":143.006132,"elevationM":1493},{"id":"node:4127168941","kind":"peak","name":"アポイ岳","lat":42.1078829,"lon":143.0256734,"elevationM":810},{"id":"node:8204371149","kind":"peak","name":"豊似岳","lat":42.076966,"lon":143.2330022,"elevationM":1105},{"id":"node:8637283731","kind":"peak","name":"十勝岳","lat":42.2908786,"lon":143.0761121,"elevationM":1457},{"id":"node:8637283736","kind":"peak","name":"野塚岳","lat":42.329264,"lon":143.0478205,"elevationM":1353},{"id":"node:8689230544","kind":"peak","name":"ルチシ山","lat":42.0560603,"lon":143.1859272,"elevationM":754},{"id":"node:8689230551","kind":"peak","name":"観音岳","lat":42.080114,"lon":143.2591251,"elevationM":932},{"id":"node:8689230552","kind":"peak","name":"オキシマップ山","lat":42.0578975,"lon":143.2199996,"elevationM":895},{"id":"node:8689230553","kind":"peak","name":"丸山","lat":42.0447392,"lon":143.2885825,"elevationM":142},{"id":"node:11380878733","kind":"peak","name":"フンベ山","lat":42.9431702,"lon":143.4156841,"elevationM":170},{"id":"node:12389393385","kind":"peak","name":"広尾岳","lat":42.2318955,"lon":143.1816575,"elevationM":1231},{"id":"node:12641835475","kind":"peak","name":"袴腰山","lat":42.0946906,"lon":143.1557255,"elevationM":872},{"id":"node:12650936136","kind":"peak","name":"天狗岳","lat":42.0898026,"lon":143.1261683,"elevationM":666},{"id":"node:12655785047","kind":"peak","name":"丸山","lat":42.0447359,"lon":143.2885837,"elevationM":null}]}