{"tileKey":"la_p53_lo_m61","version":"v1-1775891056926","entries":[{"id":"node:7283803362","kind":"peak","name":"Mokami Hill","lat":53.8121308,"lon":-60.127337,"elevationM":null},{"id":"node:7283803363","kind":"peak","name":"Micmac Hill","lat":53.754915,"lon":-60.1305127,"elevationM":null},{"id":"node:7283803368","kind":"peak","name":"Porcupine Hill","lat":53.7098152,"lon":-60.9850431,"elevationM":null},{"id":"node:7283803369","kind":"peak","name":"Shashaku-utshu","lat":53.7238974,"lon":-60.8263636,"elevationM":null},{"id":"node:7283803370","kind":"peak","name":"Mina-utshu","lat":53.74815,"lon":-60.70324,"elevationM":301},{"id":"node:7283803371","kind":"peak","name":"Kaneshekat","lat":53.6432768,"lon":-60.4424429,"elevationM":null},{"id":"node:7283803372","kind":"peak","name":"Kanetinat","lat":53.5995853,"lon":-60.274086,"elevationM":null},{"id":"node:7283803373","kind":"peak","name":"Pineu-utshu","lat":53.4958966,"lon":-60.6446386,"elevationM":null},{"id":"node:7283803374","kind":"peak","name":"Mishtashini","lat":53.2466508,"lon":-60.4974175,"elevationM":null},{"id":"node:7283803375","kind":"peak","name":"Dome Mountain","lat":53.2954975,"lon":-60.5399978,"elevationM":null},{"id":"node:7283803376","kind":"peak","name":"Manitu-utshu","lat":53.2500083,"lon":-60.7724834,"elevationM":null}]}