{"tileKey":"la_p34_lo_m119","version":"v1-1775891056926","entries":[{"id":"node:343070739","kind":"peak","name":"Mount Lukens","lat":34.2689966,"lon":-118.238999,"elevationM":1547},{"id":"node:346349212","kind":"peak","name":"Condor Peak","lat":34.3252489,"lon":-118.2199782,"elevationM":1658},{"id":"node:346850142","kind":"peak","name":"Vetter Mountain","lat":34.2970584,"lon":-118.0285849,"elevationM":1783},{"id":"node:347424406","kind":"peak","name":"Iron Mountain","lat":34.3486959,"lon":-118.2291887,"elevationM":1718},{"id":"node:347424430","kind":"peak","name":"Condor Point","lat":34.320842,"lon":-118.2333086,"elevationM":1538},{"id":"node:347424494","kind":"peak","name":"Mendenhall Peak","lat":34.348377,"lon":-118.3137319,"elevationM":1413},{"id":"node:350178095","kind":"peak","name":"Strawberry Peak","lat":34.2834429,"lon":-118.1203199,"elevationM":1879},{"id":"node:350282298","kind":"peak","name":"Verdugo Peak","lat":34.2150973,"lon":-118.2800289,"elevationM":952},{"id":"node:350303597","kind":"peak","name":"Mount Thom","lat":34.1872868,"lon":-118.256123,"elevationM":null},{"id":"node:351452862","kind":"peak","name":"La Tuna Peak","lat":34.2238353,"lon":-118.3383452,"elevationM":null},{"id":"node:351571186","kind":"peak","name":"Mount Lawlor","lat":34.2707021,"lon":-118.1039228,"elevationM":1807},{"id":"node:355254384","kind":"peak","name":"Robert Katz Peak","lat":34.2176308,"lon":-118.2832019,"elevationM":null},{"id":"node:358780311","kind":"peak","name":"Barney Knob","lat":34.077507,"lon":-118.8787049,"elevationM":527},{"id":"node:358780718","kind":"peak","name":"Big Mountain","lat":34.3394443,"lon":-118.7950936,"elevationM":717},{"id":"node:358780966","kind":"peak","name":"Boney Mountain","lat":34.1116117,"lon":-118.9597247,"elevationM":865},{"id":"node:358781146","kind":"peak","name":"Brown Butte","lat":34.9855288,"lon":-118.0328493,"elevationM":885},{"id":"node:358781287","kind":"peak","name":"Burnt Peak","lat":34.6824255,"lon":-118.5766466,"elevationM":1761},{"id":"node:358781375","kind":"peak","name":"Cahuenga Peak","lat":34.1369912,"lon":-118.3258336,"elevationM":553},{"id":"node:358781676","kind":"peak","name":"Castellammare Mesa","lat":34.0438975,"lon":-118.5595268,"elevationM":108},{"id":"node:358781725","kind":"peak","name":"Castro Peak","lat":34.0856265,"lon":-118.7854533,"elevationM":855},{"id":"node:358781998","kind":"peak","name":"Chatsworth Peak","lat":34.2568678,"lon":-118.6414397,"elevationM":692},{"id":"node:358782212","kind":"peak","name":"Clarks Peak","lat":34.0833405,"lon":-118.963431,"elevationM":600},{"id":"node:358782440","kind":"peak","name":"Conejo Mountain","lat":34.1883387,"lon":-118.9842666,"elevationM":548},{"id":"node:358782736","kind":"peak","name":"Cruzan Mesa","lat":34.4612896,"lon":-118.440735,"elevationM":692},{"id":"node:358782921","kind":"peak","name":"De Stazo Hill","lat":34.993306,"lon":-118.0759061,"elevationM":905},{"id":"node:358783388","kind":"peak","name":"Echo Mountain","lat":34.2110689,"lon":-118.1203878,"elevationM":968},{"id":"node:358783930","kind":"peak","name":"Fairmont Butte","lat":34.7491487,"lon":-118.4067472,"elevationM":954},{"id":"node:358784118","kind":"peak","name":"Flint Peak","lat":34.1635666,"lon":-118.1965101,"elevationM":576},{"id":"node:358785052","kind":"peak","name":"Grass Mountain","lat":34.6410977,"lon":-118.4134145,"elevationM":1408},{"id":"node:358785980","kind":"peak","name":"Mount Hollywood","lat":34.1281825,"lon":-118.301156,"elevationM":492},{"id":"node:358786784","kind":"peak","name":"Kagel Mountain","lat":34.3334411,"lon":-118.3849488,"elevationM":1081},{"id":"node:358787238","kind":"peak","name":"Ladyface Mountain","lat":34.1350904,"lon":-118.7728446,"elevationM":619},{"id":"node:358787675","kind":"peak","name":"Liebre Twins","lat":34.955779,"lon":-118.5733913,"elevationM":1941},{"id":"node:358787695","kind":"peak","name":"Limerock Peak","lat":34.317778,"lon":-118.35758,"elevationM":905},{"id":"node:358788005","kind":"peak","name":"Loma Verde","lat":34.4958263,"lon":-118.6687003,"elevationM":739},{"id":"node:358788091","kind":"peak","name":"Lookout Hill","lat":34.9835841,"lon":-118.0964622,"elevationM":831},{"id":"node:358788101","kind":"peak","name":"Lookout Point","lat":34.1969492,"lon":-118.0489567,"elevationM":987},{"id":"node:358788235","kind":"peak","name":"Mount Lowe","lat":34.2315393,"lon":-118.1058334,"elevationM":1699},{"id":"node:358788670","kind":"peak","name":"Mount Markham","lat":34.2367656,"lon":-118.0991325,"elevationM":1746},{"id":"node:358788853","kind":"peak","name":"Mount McDill","lat":34.5663656,"lon":-118.2752557,"elevationM":1576},{"id":"node:358788914","kind":"peak","name":"Mount McKinley","lat":34.3394131,"lon":-118.264579,"elevationM":1497},{"id":"node:358789229","kind":"peak","name":"Mission Point","lat":34.3117428,"lon":-118.533847,"elevationM":832},{"id":"node:358789356","kind":"peak","name":"Montebello Hills","lat":34.0301734,"lon":-118.0955529,"elevationM":172},{"id":"node:358789966","kind":"peak","name":"Oat Mountain","lat":34.3297521,"lon":-118.600819,"elevationM":1138},{"id":"node:358790405","kind":"peak","name":"Parker Mesa","lat":34.0447306,"lon":-118.5734161,"elevationM":79},{"id":"node:358790406","kind":"peak","name":"Parker Mountain","lat":34.4597165,"lon":-118.218687,"elevationM":1263},{"id":"node:358790776","kind":"peak","name":"Poppy Peak","lat":34.1300081,"lon":-118.1806277,"elevationM":302},{"id":"node:358790922","kind":"peak","name":"Rabbit Peak","lat":34.3569431,"lon":-118.0956262,"elevationM":1598},{"id":"node:358791010","kind":"peak","name":"Red Hill","lat":34.8694222,"lon":-118.1181285,"elevationM":828},{"id":"node:358791029","kind":"peak","name":"Red Mountain","lat":34.5866557,"lon":-118.523418,"elevationM":1213},{"id":"node:358791262","kind":"peak","name":"Rocky Peak","lat":34.2918624,"lon":-118.6367715,"elevationM":797},{"id":"node:358791399","kind":"peak","name":"Roundtop","lat":34.3524989,"lon":-118.0686808,"elevationM":1908},{"id":"node:358791983","kind":"peak","name":"Mount Sally","lat":34.2724028,"lon":-118.014282,"elevationM":1644},{"id":"node:358792066","kind":"peak","name":"San Gabriel Peak","lat":34.2432411,"lon":-118.0985687,"elevationM":1878},{"id":"node:358792174","kind":"peak","name":"San Vicente Mountain","lat":34.1286975,"lon":-118.513014,"elevationM":598},{"id":"node:358792190","kind":"peak","name":"Sand Rock Peak","lat":34.3688873,"lon":-118.6064767,"elevationM":744},{"id":"node:358792195","kind":"peak","name":"Sandstone Peak","lat":34.1202945,"lon":-118.9321333,"elevationM":948},{"id":"node:358792347","kind":"peak","name":"Sawmill Mountain","lat":34.6933175,"lon":-118.5609188,"elevationM":1672},{"id":"node:358792352","kind":"peak","name":"Sawtooth Mountain","lat":34.6605413,"lon":-118.5523076,"elevationM":1577},{"id":"node:358792661","kind":"peak","name":"Simi Peak","lat":34.2044741,"lon":-118.7808575,"elevationM":732},{"id":"node:358793384","kind":"peak","name":"The Pinnacle","lat":34.349091,"lon":-118.3443007,"elevationM":1094},{"id":"node:358793563","kind":"peak","name":"Townsend Peak","lat":34.5599901,"lon":-118.6912008,"elevationM":961},{"id":"node:358793612","kind":"peak","name":"Tropico Hill","lat":34.8796991,"lon":-118.2322984,"elevationM":882},{"id":"node:358794330","kind":"peak","name":"Warm Springs Mountain","lat":34.5955442,"lon":-118.5792529,"elevationM":1193},{"id":"node:358794620","kind":"peak","name":"Whitaker Peak","lat":34.5722117,"lon":-118.7345353,"elevationM":1262},{"id":"node:358794770","kind":"peak","name":"Willow Springs Butte","lat":34.8833099,"lon":-118.2764664,"elevationM":998},{"id":"node:358794822","kind":"peak","name":"Mount Wilson","lat":34.2238723,"lon":-118.0611872,"elevationM":1737},{"id":"node:358794989","kind":"peak","name":"Mount Zion","lat":34.2139898,"lon":-118.0280171,"elevationM":1091},{"id":"node:358795797","kind":"peak","name":"Point Dume","lat":34.001631,"lon":-118.8066756,"elevationM":56},{"id":"node:358795947","kind":"peak","name":"Slide Mountain","lat":34.6330423,"lon":-118.7775923,"elevationM":1400},{"id":"node:358796414","kind":"peak","name":"Mount Clef","lat":34.2344487,"lon":-118.8864857,"elevationM":282},{"id":"node:358796498","kind":"peak","name":"Muir Peak","lat":34.2155593,"lon":-118.1023934,"elevationM":1427},{"id":"node:358796551","kind":"peak","name":"Brents Mountain","lat":34.0858398,"lon":-118.7225875,"elevationM":513},{"id":"node:358796553","kind":"peak","name":"Calabasas Peak","lat":34.112035,"lon":-118.6525754,"elevationM":657},{"id":"node:358796568","kind":"peak","name":"Mesa Peak","lat":34.0624982,"lon":-118.7191209,"elevationM":555},{"id":"node:358796572","kind":"peak","name":"Saddle Peak","lat":34.0780264,"lon":-118.6550579,"elevationM":851},{"id":"node:358800808","kind":"peak","name":"Arundell Peak","lat":34.4674941,"lon":-118.7987048,"elevationM":947},{"id":"node:358800848","kind":"peak","name":"Baldy","lat":34.4536059,"lon":-118.7998159,"elevationM":1029},{"id":"node:358800873","kind":"peak","name":"Bear Mountain","lat":34.7049835,"lon":-118.8923191,"elevationM":1454},{"id":"node:358800921","kind":"peak","name":"Black Mountain","lat":34.6541524,"lon":-118.8614847,"elevationM":1884},{"id":"node:358800936","kind":"peak","name":"Blue Point","lat":34.5269359,"lon":-118.762592,"elevationM":593},{"id":"node:358800966","kind":"peak","name":"Brown Mountain","lat":34.2368386,"lon":-118.1470512,"elevationM":1363},{"id":"node:358801081","kind":"peak","name":"Cobblestone Mountain","lat":34.6091544,"lon":-118.8675962,"elevationM":2042},{"id":"node:358801193","kind":"peak","name":"Devils Heart Peak","lat":34.5449904,"lon":-118.9764899,"elevationM":1566},{"id":"node:358801239","kind":"peak","name":"Mount Emma","lat":34.4604875,"lon":-118.0691115,"elevationM":1606},{"id":"node:358801276","kind":"peak","name":"Frazier Mountain","lat":34.7749803,"lon":-118.9689891,"elevationM":2442},{"id":"node:358801333","kind":"peak","name":"Gold Hill","lat":34.7041503,"lon":-118.9181535,"elevationM":1466},{"id":"node:358801364","kind":"peak","name":"Grapevine Peak","lat":34.9030292,"lon":-118.9042655,"elevationM":1466},{"id":"node:358801437","kind":"peak","name":"Mount Hillyer","lat":34.3491284,"lon":-118.0154857,"elevationM":1881},{"id":"node:358801448","kind":"peak","name":"Hopper Mountain","lat":34.4777714,"lon":-118.8653741,"elevationM":1381},{"id":"node:358801460","kind":"peak","name":"Hutton Peak","lat":34.4338845,"lon":-118.8453733,"elevationM":674},{"id":"node:358801529","kind":"peak","name":"Josephine Peak","lat":34.2856322,"lon":-118.1539351,"elevationM":1694},{"id":"node:358801713","kind":"peak","name":"McDonald Peak","lat":34.6336002,"lon":-118.9408103,"elevationM":2090},{"id":"node:358801749","kind":"peak","name":"Modelo Peak","lat":34.4508282,"lon":-118.8009271,"elevationM":990},{"id":"node:358801832","kind":"peak","name":"Oat Mountain","lat":34.4491615,"lon":-118.9034313,"elevationM":952},{"id":"node:358801861","kind":"peak","name":"Pacifico Mountain","lat":34.3819044,"lon":-118.0345674,"elevationM":2165},{"id":"node:358801999","kind":"peak","name":"Redrock Mountain","lat":34.6591523,"lon":-118.6392545,"elevationM":1355},{"id":"node:358802006","kind":"peak","name":"Reservoir Summit","lat":34.6622076,"lon":-118.7292571,"elevationM":1213},{"id":"node:358802087","kind":"peak","name":"San Cayetano Mountain","lat":34.4391619,"lon":-118.9812123,"elevationM":1275},{"id":"node:358802155","kind":"peak","name":"Sewart Mountain","lat":34.6406569,"lon":-118.9070915,"elevationM":2076},{"id":"node:358802202","kind":"peak","name":"Snowy Peak","lat":34.6494303,"lon":-118.888708,"elevationM":1990},{"id":"node:358802239","kind":"peak","name":"Sulphur Mountain","lat":34.4163853,"lon":-118.8553737,"elevationM":646},{"id":"node:358802244","kind":"peak","name":"Sulphur Peak","lat":34.5180473,"lon":-118.9259323,"elevationM":1364},{"id":"node:358802275","kind":"peak","name":"Tecuya Mountain","lat":34.842199,"lon":-118.9814903,"elevationM":2180},{"id":"node:358802319","kind":"peak","name":"Topatopa Peak","lat":34.5391573,"lon":-118.988157,"elevationM":1891},{"id":"node:358802446","kind":"peak","name":"White Mountain","lat":34.6308201,"lon":-118.847873,"elevationM":1889},{"id":"node:358802451","kind":"peak","name":"Whiteacre Peak","lat":34.5413796,"lon":-118.8731522,"elevationM":1536},{"id":"node:358802638","kind":"peak","name":"Mount Pines","lat":34.7813688,"lon":-118.8703739,"elevationM":1406},{"id":"node:358802831","kind":"peak","name":"Messenger Peak","lat":34.3806913,"lon":-118.1983716,"elevationM":1833},{"id":"node:358802854","kind":"peak","name":"Hoyt Mountain","lat":34.2692983,"lon":-118.1769184,"elevationM":1346},{"id":"node:358804247","kind":"peak","name":"Antelope Buttes","lat":34.7502598,"lon":-118.3825798,"elevationM":852},{"id":"node:358804288","kind":"peak","name":"Fustero Point","lat":34.5108256,"lon":-118.7528694,"elevationM":451},{"id":"node:358804299","kind":"peak","name":"Granite Mountain","lat":34.3713436,"lon":-118.0712179,"elevationM":1998},{"id":"node:358804308","kind":"peak","name":"Iron Mountain","lat":34.3390849,"lon":-118.0913578,"elevationM":1510},{"id":"node:358804329","kind":"peak","name":"Mount Mooney","lat":34.3058562,"lon":-118.0074425,"elevationM":1761},{"id":"node:358807748","kind":"peak","name":"Adams Hill","lat":34.1286195,"lon":-118.2356297,"elevationM":243},{"id":"node:358807755","kind":"peak","name":"Alamo Mountain","lat":34.6670622,"lon":-118.9588829,"elevationM":2248},{"id":"node:358807763","kind":"peak","name":"Antelope Buttes","lat":34.7516487,"lon":-118.3673015,"elevationM":842},{"id":"node:358807787","kind":"peak","name":"Bald Mountain","lat":34.7438751,"lon":-118.7264195,"elevationM":1380},{"id":"node:358807978","kind":"peak","name":"Mount Disappointment","lat":34.2463475,"lon":-118.1050426,"elevationM":1819},{"id":"node:358807990","kind":"peak","name":"Dome Mountain","lat":34.628598,"lon":-118.8023156,"elevationM":1502},{"id":"node:358808004","kind":"peak","name":"Eagle Rock","lat":34.1432902,"lon":-118.1835196,"elevationM":299},{"id":"node:358808075","kind":"peak","name":"Garden of the Gods","lat":34.273378,"lon":-118.6103164,"elevationM":376},{"id":"node:358808083","kind":"peak","name":"Gem Hill","lat":34.9244195,"lon":-118.2211873,"elevationM":917},{"id":"node:358808091","kind":"peak","name":"Mount Gleason","lat":34.3765478,"lon":-118.1776661,"elevationM":1990},{"id":"node:358808095","kind":"peak","name":"Goat Buttes","lat":34.0952841,"lon":-118.738977,"elevationM":388},{"id":"node:358808103","kind":"peak","name":"Grace Hill","lat":34.1261192,"lon":-118.1517378,"elevationM":247},{"id":"node:358808235","kind":"peak","name":"Laskey Mesa","lat":34.1755606,"lon":-118.6811996,"elevationM":428},{"id":"node:358808244","kind":"peak","name":"Liebre Mountain","lat":34.7164297,"lon":-118.6648545,"elevationM":1758},{"id":"node:358808254","kind":"peak","name":"Little Burnt Peak","lat":34.6888733,"lon":-118.5764749,"elevationM":1660},{"id":"node:358808298","kind":"peak","name":"Magic Mountain","lat":34.3863862,"lon":-118.3289681,"elevationM":1477},{"id":"node:358808406","kind":"peak","name":"Olive Hill","lat":34.0994538,"lon":-118.2939647,"elevationM":141},{"id":"node:358808566","kind":"peak","name":"Pyramid Rock","lat":34.6413752,"lon":-118.7642584,"elevationM":716},{"id":"node:358808602","kind":"peak","name":"Reservoir Hill","lat":34.6624854,"lon":-118.7245348,"elevationM":1185},{"id":"node:358808640","kind":"peak","name":"Saddle Rock","lat":34.0952843,"lon":-118.8298142,"elevationM":635},{"id":"node:358808709","kind":"peak","name":"Schumacher Point","lat":34.7338712,"lon":-118.5700857,"elevationM":1199},{"id":"node:358808753","kind":"peak","name":"Soledad Mountain","lat":34.9824727,"lon":-118.1884091,"elevationM":1262},{"id":"node:358808795","kind":"peak","name":"Sugarloaf","lat":34.3100005,"lon":-118.383692,"elevationM":630},{"id":"node:358808805","kind":"peak","name":"Table Rock","lat":34.5238806,"lon":-118.3878587,"elevationM":745},{"id":"node:358808851","kind":"peak","name":"Vasquez Rocks","lat":34.4855488,"lon":-118.3173013,"elevationM":797},{"id":"node:358815981","kind":"peak","name":"Fiss Hill","lat":34.901365,"lon":-118.2184093,"elevationM":795},{"id":"node:358816753","kind":"peak","name":"Ballard Mountain","lat":34.1097284,"lon":-118.809814,"elevationM":619},{"id":"node:358826992","kind":"peak","name":"Solstice Hill","lat":34.0344516,"lon":-118.7498093,"elevationM":170},{"id":"node:358829014","kind":"peak","name":"Three Sisters Rock","lat":34.4552722,"lon":-118.286467,"elevationM":897},{"id":"node:358829015","kind":"peak","name":"Saddleback Mountain","lat":34.4886042,"lon":-118.3442465,"elevationM":930},{"id":"node:358851244","kind":"peak","name":"Tongva Peak","lat":34.1971707,"lon":-118.2591629,"elevationM":803},{"id":"node:360512398","kind":"peak","name":"Oneonta Knoll","lat":34.1024441,"lon":-118.1505881,"elevationM":null},{"id":"node:616766655","kind":"peak","name":"Los Pinetos","lat":34.3548538,"lon":-118.4592416,"elevationM":null},{"id":"node:617127272","kind":"peak","name":"Contract Point","lat":34.3415775,"lon":-118.4077085,"elevationM":1108},{"id":"node:746899302","kind":"peak","name":"Ernest E. Debs","lat":34.1001263,"lon":-118.192642,"elevationM":null},{"id":"node:848832167","kind":"peak","name":"Goat Peak (High Point)","lat":34.0729133,"lon":-118.5327878,"elevationM":527},{"id":"node:981874292","kind":"peak","name":"Jones Peak","lat":34.1865482,"lon":-118.0528153,"elevationM":1029},{"id":"node:1041656776","kind":"peak","name":"Glendale Peak","lat":34.124677,"lon":-118.2879082,"elevationM":361},{"id":"node:1041656782","kind":"peak","name":"Bee Rock","lat":34.13439,"lon":-118.2935174,"elevationM":322},{"id":"node:1041656786","kind":"peak","name":"Mount Bell","lat":34.135417,"lon":-118.3020213,"elevationM":482},{"id":"node:1041656789","kind":"peak","name":"Mount Chapel","lat":34.1367294,"lon":-118.3082149,"elevationM":492},{"id":"node:1041656790","kind":"peak","name":"Beacon Hill","lat":34.1284912,"lon":-118.2773421,"elevationM":305},{"id":"node:1041679933","kind":"peak","name":"Taco Peak","lat":34.1337975,"lon":-118.3003539,"elevationM":479},{"id":"node:1041679937","kind":"peak","name":"Mount Baby Bell","lat":34.1363896,"lon":-118.3041189,"elevationM":447},{"id":"node:1572481072","kind":"peak","name":"Burbank Peak","lat":34.1359552,"lon":-118.33212,"elevationM":515},{"id":"node:1758807462","kind":"peak","name":"Fireworks Hill","lat":34.1861891,"lon":-118.8814028,"elevationM":298},{"id":"node:1810800290","kind":"peak","name":"Boney Peak","lat":34.1162743,"lon":-118.9402946,"elevationM":null},{"id":"node:2128388635","kind":"peak","name":"Mount Lee","lat":34.1345818,"lon":-118.3219709,"elevationM":521},{"id":"node:2256041471","kind":"peak","name":"Flat Point Park","lat":34.0851461,"lon":-118.206508,"elevationM":null},{"id":"node:2258955326","kind":"peak","name":"Fiji Hill","lat":34.128687,"lon":-118.205795,"elevationM":264},{"id":"node:2348650127","kind":"peak","name":"Tri Peaks","lat":34.122165,"lon":-118.9501767,"elevationM":917},{"id":"node:2358064309","kind":"peak","name":"Exchange Peak","lat":34.1148407,"lon":-118.9456171,"elevationM":899},{"id":"node:2365237586","kind":"peak","name":"Mount Yale","lat":34.2047849,"lon":-118.0638896,"elevationM":1451},{"id":"node:3238713826","kind":"peak","name":"Occidental Peak","lat":34.2349776,"lon":-118.0836792,"elevationM":1736},{"id":"node:3238715581","kind":"peak","name":"Mount Harvard","lat":34.2132363,"lon":-118.0621863,"elevationM":1640},{"id":"node:3492575205","kind":"peak","name":"Redrock Mountain Benchmark","lat":34.642994,"lon":-118.6398562,"elevationM":1216},{"id":"node:3589450902","kind":"peak","name":"Castle Peak","lat":34.2001031,"lon":-118.664489,"elevationM":450},{"id":"node:3822055966","kind":"peak","name":"Red Barn Hill","lat":34.185527,"lon":-118.583913,"elevationM":null},{"id":"node:3828451164","kind":"peak","name":"Happy Face Hill","lat":34.2802194,"lon":-118.6659095,"elevationM":null},{"id":"node:3843767511","kind":"peak","name":"Tarantula Hill","lat":34.1961958,"lon":-118.8878961,"elevationM":324},{"id":"node:3843767512","kind":"peak","name":"Little Tarantula Hill","lat":34.1933879,"lon":-118.8908398,"elevationM":272},{"id":"node:3844004725","kind":"peak","name":"Strawberry Hill","lat":34.1518298,"lon":-118.772013,"elevationM":317},{"id":"node:3869577950","kind":"peak","name":"Chalk Hill","lat":34.1650086,"lon":-118.5795265,"elevationM":357},{"id":"node:3917570195","kind":"peak","name":"Elliott Mountain","lat":34.2182081,"lon":-118.935354,"elevationM":324},{"id":"node:4374953321","kind":"peak","name":"Temescal Peak","lat":34.1022858,"lon":-118.5537301,"elevationM":648},{"id":"node:4571066622","kind":"peak","name":"Wella's Peak","lat":34.2420093,"lon":-118.1687193,"elevationM":910},{"id":"node:5142384931","kind":"peak","name":"Eagle Rock","lat":34.1074985,"lon":-118.570841,"elevationM":596},{"id":"node:5148402042","kind":"peak","name":"Latigo Point","lat":34.0263608,"lon":-118.7560898,"elevationM":null},{"id":"node:5148402043","kind":"peak","name":"Lechuza Point","lat":34.0344901,"lon":-118.8616158,"elevationM":null},{"id":"node:5197167510","kind":"peak","name":"Cerro Negro","lat":34.1874307,"lon":-118.2076778,"elevationM":575},{"id":"node:5220474301","kind":"peak","name":"Malibu Bluffs Peak","lat":34.0328044,"lon":-118.7069586,"elevationM":null},{"id":"node:5387934721","kind":"peak","name":"Whittier Hill","lat":34.0009208,"lon":-118.0126362,"elevationM":384},{"id":"node:6045560311","kind":"peak","name":"Stoney Point","lat":34.270575,"lon":-118.604182,"elevationM":null},{"id":"node:6050413125","kind":"peak","name":"Mount Deception","lat":34.249009,"lon":-118.1147724,"elevationM":1767},{"id":"node:6191667847","kind":"peak","name":"Rosamond Butte","lat":34.8836333,"lon":-118.1802333,"elevationM":948},{"id":"node:6838043429","kind":"peak","name":"The Lollipop","lat":34.5988033,"lon":-118.2002388,"elevationM":null},{"id":"node:7553152635","kind":"peak","name":"Silverlake peak","lat":34.092941,"lon":-118.2697155,"elevationM":null},{"id":"node:7553152636","kind":"peak","name":"Ronda Vista","lat":34.1017425,"lon":-118.2753994,"elevationM":null},{"id":"node:7553152638","kind":"peak","name":"Micheltorena peak","lat":34.0948094,"lon":-118.2717033,"elevationM":null},{"id":"node:7553152640","kind":"peak","name":"Maltman peak","lat":34.0871973,"lon":-118.2786673,"elevationM":null},{"id":"node:7600139783","kind":"peak","name":"Peak 7047","lat":34.640623,"lon":-118.966052,"elevationM":2148},{"id":"node:8139997620","kind":"peak","name":"Baldwin Hills","lat":34.0176157,"lon":-118.381694,"elevationM":128},{"id":"node:8188396783","kind":"peak","name":"Briar Summit","lat":34.126136,"lon":-118.3685708,"elevationM":454},{"id":"node:8830585597","kind":"peak","name":"George Benchmark","lat":34.0913911,"lon":-118.9389185,"elevationM":598},{"id":"node:8830585598","kind":"peak","name":"Big Dome","lat":34.124917,"lon":-118.9470808,"elevationM":888},{"id":"node:9150279734","kind":"peak","name":"Fox Mountain","lat":34.314435,"lon":-118.199106,"elevationM":1534},{"id":"node:9166422500","kind":"peak","name":"Old Mount Emma","lat":34.4761767,"lon":-118.0524318,"elevationM":1},{"id":"node:9331239486","kind":"peak","name":"Cole Point","lat":34.4216006,"lon":-118.0720857,"elevationM":1708},{"id":"node:9586325875","kind":"peak","name":"Jupiter Mountain","lat":34.6064273,"lon":-118.412373,"elevationM":1350},{"id":"node:9702173804","kind":"peak","name":"Whiteface","lat":34.3193741,"lon":-118.7474012,"elevationM":681},{"id":"node:9786929797","kind":"peak","name":"Quartz Peak","lat":34.9906998,"lon":-118.3598539,"elevationM":1288},{"id":"node:9786929798","kind":"peak","name":"Pine Mountain","lat":34.9922607,"lon":-118.3683532,"elevationM":1438},{"id":"node:9786929815","kind":"peak","name":"Little Buttes","lat":34.7982747,"lon":-118.3040996,"elevationM":784},{"id":"node:9786929816","kind":"peak","name":"Middle Butte","lat":34.9633802,"lon":-118.2776728,"elevationM":1049},{"id":"node:10272700060","kind":"peak","name":"Gizmo Peak","lat":34.1288042,"lon":-118.536897,"elevationM":587},{"id":"node:11094621362","kind":"peak","name":"McAuley Peak","lat":34.0720774,"lon":-118.7227742,"elevationM":625},{"id":"node:11360427079","kind":"peak","name":"Split Rock","lat":34.123933,"lon":-118.929234,"elevationM":null},{"id":"node:11360427080","kind":"peak","name":"Skull Rock","lat":34.1235378,"lon":-118.9363523,"elevationM":null},{"id":"node:11737803645","kind":"peak","name":"6168","lat":34.3789068,"lon":-118.0031698,"elevationM":null},{"id":"node:11760045300","kind":"peak","name":"Green Peak","lat":34.0863765,"lon":-118.5486854,"elevationM":590},{"id":"node:12117582305","kind":"peak","name":"West Fuji","lat":34.2087778,"lon":-118.1066944,"elevationM":1122},{"id":"node:12140805956","kind":"peak","name":"Towsley Peak","lat":34.3561399,"lon":-118.591365,"elevationM":875},{"id":"node:12140805957","kind":"peak","name":"May Peak","lat":34.3522234,"lon":-118.4292358,"elevationM":1203},{"id":"node:12168452909","kind":"peak","name":"Peak 5881","lat":34.4136123,"lon":-118.058077,"elevationM":1793},{"id":"node:12586181284","kind":"peak","name":"Famous Rock","lat":34.4860293,"lon":-118.3150239,"elevationM":null},{"id":"node:13207343296","kind":"peak","name":"Little Sandstone Hills","lat":34.205007,"lon":-118.7939471,"elevationM":572},{"id":"node:13277125339","kind":"peak","name":"Manzanita Mountain","lat":34.3733237,"lon":-118.4683032,"elevationM":628}]}