{"tileKey":"la_p35_lo_m94","version":"v1-1775891056926","entries":[{"id":"node:358967062","kind":"peak","name":"Bald Knob","lat":35.4975812,"lon":-93.1607306,"elevationM":315},{"id":"node:358968087","kind":"peak","name":"Bowles Mountain","lat":35.7145255,"lon":-93.9543648,"elevationM":707},{"id":"node:358968473","kind":"peak","name":"Bunker Hill","lat":35.2948067,"lon":-93.2332327,"elevationM":162},{"id":"node:358970248","kind":"peak","name":"Dean Reid Knob","lat":35.2203646,"lon":-93.3635154,"elevationM":377},{"id":"node:358972791","kind":"peak","name":"Hobbs Mountain","lat":35.9020241,"lon":-93.9913098,"elevationM":676},{"id":"node:358978602","kind":"peak","name":"Pleasant View Mountain","lat":35.3264726,"lon":-93.1779534,"elevationM":206},{"id":"node:358978899","kind":"peak","name":"Ragon Mountain","lat":35.3998068,"lon":-93.4596288,"elevationM":176},{"id":"node:358979663","kind":"peak","name":"Roundtop Mountain","lat":35.9759118,"lon":-93.8904736,"elevationM":566},{"id":"node:358985343","kind":"peak","name":"Booneville Mountain","lat":35.1756485,"lon":-93.97187,"elevationM":267},{"id":"node:358985472","kind":"peak","name":"Bushart Mountain","lat":35.9681344,"lon":-93.9201966,"elevationM":597},{"id":"node:358985530","kind":"peak","name":"Chicken Bristle Mountain","lat":35.9867457,"lon":-93.9526975,"elevationM":499},{"id":"node:358985606","kind":"peak","name":"Cove Mountain","lat":35.068699,"lon":-93.0504515,"elevationM":249},{"id":"node:358985730","kind":"peak","name":"East Point Mountain","lat":35.3698056,"lon":-93.2476772,"elevationM":255},{"id":"node:358985981","kind":"peak","name":"High Rock Mountain","lat":35.8875792,"lon":-93.8960293,"elevationM":685},{"id":"node:358985988","kind":"peak","name":"Hobsons Knob","lat":35.1403648,"lon":-93.1615651,"elevationM":139},{"id":"node:358986083","kind":"peak","name":"Jones Mountain","lat":35.1995306,"lon":-93.2237885,"elevationM":222},{"id":"node:358986113","kind":"peak","name":"Lee Mountain","lat":35.4398042,"lon":-93.157675,"elevationM":305},{"id":"node:358986129","kind":"peak","name":"Linker Mountain","lat":35.3703606,"lon":-93.1257299,"elevationM":232},{"id":"node:358986166","kind":"peak","name":"Lutherville Mountain","lat":35.478971,"lon":-93.2990674,"elevationM":294},{"id":"node:358986186","kind":"peak","name":"McCullah Hill","lat":35.9528569,"lon":-93.9368638,"elevationM":588},{"id":"node:358986210","kind":"peak","name":"Metcalf Hill","lat":35.250647,"lon":-93.9507577,"elevationM":237},{"id":"node:358986217","kind":"peak","name":"Mill Creek Mountain","lat":35.4195321,"lon":-93.9785348,"elevationM":260},{"id":"node:358986261","kind":"peak","name":"Moore Mountain","lat":35.9256336,"lon":-93.6693566,"elevationM":565},{"id":"node:358986309","kind":"peak","name":"Norristown Mountain","lat":35.2709177,"lon":-93.1687865,"elevationM":217},{"id":"node:358986342","kind":"peak","name":"Parker Mountain","lat":35.4617485,"lon":-93.1893423,"elevationM":231},{"id":"node:358986389","kind":"peak","name":"Pilot Mountain","lat":35.2406465,"lon":-93.8949227,"elevationM":224},{"id":"node:358986427","kind":"peak","name":"Pine Mountain","lat":35.247592,"lon":-93.9990925,"elevationM":226},{"id":"node:358986451","kind":"peak","name":"Pinnacle Mountain","lat":35.9489677,"lon":-93.9038073,"elevationM":648},{"id":"node:358986617","kind":"peak","name":"Ross Mountain","lat":35.4467491,"lon":-93.2693443,"elevationM":276},{"id":"node:358986652","kind":"peak","name":"Round Mountain","lat":35.4589714,"lon":-93.3110123,"elevationM":183},{"id":"node:358986795","kind":"peak","name":"Shinn Mountain","lat":35.4056381,"lon":-93.1762865,"elevationM":257},{"id":"node:358986997","kind":"peak","name":"Tater Knob","lat":35.4589706,"lon":-93.149897,"elevationM":239},{"id":"node:358987001","kind":"peak","name":"Thompson Mountain","lat":35.4745268,"lon":-93.3354576,"elevationM":226},{"id":"node:358987029","kind":"peak","name":"Tucker Mountain","lat":35.3714718,"lon":-93.1562861,"elevationM":230},{"id":"node:358987312","kind":"peak","name":"Evans Mountain","lat":35.5245256,"lon":-93.2157317,"elevationM":317},{"id":"node:358987324","kind":"peak","name":"Tater Knob","lat":35.5228589,"lon":-93.1779532,"elevationM":186},{"id":"node:358987368","kind":"peak","name":"Turkey Mountain","lat":35.5509157,"lon":-93.4424054,"elevationM":256},{"id":"node:358987389","kind":"peak","name":"Newton Hill","lat":35.5500809,"lon":-93.1348969,"elevationM":454},{"id":"node:358987397","kind":"peak","name":"Bates Knob","lat":35.5436919,"lon":-93.1051741,"elevationM":474},{"id":"node:358987406","kind":"peak","name":"High Mountain","lat":35.5767474,"lon":-93.1143411,"elevationM":453},{"id":"node:358987410","kind":"peak","name":"Dollar Knob","lat":35.5059142,"lon":-93.0746178,"elevationM":413},{"id":"node:358987414","kind":"peak","name":"Middle Mountain","lat":35.5284141,"lon":-93.0676733,"elevationM":386},{"id":"node:358987418","kind":"peak","name":"Whaley Knob","lat":35.5945249,"lon":-93.0810071,"elevationM":482},{"id":"node:358987421","kind":"peak","name":"Adams Mountain","lat":35.5398028,"lon":-93.0176724,"elevationM":361},{"id":"node:358987486","kind":"peak","name":"Newton Knob","lat":35.5673031,"lon":-93.1368414,"elevationM":526},{"id":"node:358987804","kind":"peak","name":"Dick Knob","lat":35.8861887,"lon":-93.0310067,"elevationM":598},{"id":"node:358987813","kind":"peak","name":"Round Mountain","lat":35.9361881,"lon":-93.0343401,"elevationM":632},{"id":"node:358987829","kind":"peak","name":"Hurricane Knob","lat":35.7531362,"lon":-93.1865649,"elevationM":588},{"id":"node:358987857","kind":"peak","name":"Shulers Point","lat":35.8203564,"lon":-93.0379515,"elevationM":646},{"id":"node:358987862","kind":"peak","name":"Ketcherside Mountain","lat":35.8111896,"lon":-93.0160066,"elevationM":682668},{"id":"node:358987865","kind":"peak","name":"Daniel Mountain","lat":35.8384115,"lon":-93.0182289,"elevationM":665},{"id":"node:358987869","kind":"peak","name":"Middle Mountain","lat":35.8656334,"lon":-93.0104509,"elevationM":490},{"id":"node:358992419","kind":"peak","name":"Horton Mountain","lat":35.3781391,"lon":-93.2801782,"elevationM":263},{"id":"node:358992456","kind":"peak","name":"College Hill","lat":35.3995267,"lon":-93.1182297,"elevationM":147},{"id":"node:359000834","kind":"peak","name":"Bald Knob","lat":35.0003724,"lon":-93.8382561,"elevationM":461},{"id":"node:359001007","kind":"peak","name":"North Petit Jean Mountain","lat":35.0228713,"lon":-93.7663093,"elevationM":515},{"id":"node:359001413","kind":"peak","name":"Brown Mountain","lat":35.5603594,"lon":-93.3071231,"elevationM":316},{"id":"node:359001423","kind":"peak","name":"Hagarville Mountain","lat":35.5292485,"lon":-93.3246237,"elevationM":246},{"id":"node:359001442","kind":"peak","name":"Pilot Rock Mountain","lat":35.6334146,"lon":-93.2546214,"elevationM":577},{"id":"node:359001448","kind":"peak","name":"Pine Mountain","lat":35.5334154,"lon":-93.3796255,"elevationM":230},{"id":"node:359001457","kind":"peak","name":"Turkey Hill","lat":35.560637,"lon":-93.2632328,"elevationM":373},{"id":"node:359006556","kind":"peak","name":"Alexander Mountain","lat":35.66786,"lon":-93.9946441,"elevationM":477},{"id":"node:359006561","kind":"peak","name":"Allard Mountain","lat":35.7981352,"lon":-93.8160271,"elevationM":679},{"id":"node:359006565","kind":"peak","name":"Allen Knob","lat":35.9142449,"lon":-93.6212997,"elevationM":673},{"id":"node:359006596","kind":"peak","name":"Anderson Knob","lat":35.8473018,"lon":-93.9182523,"elevationM":673},{"id":"node:359006675","kind":"peak","name":"Backbone Mountain","lat":35.224535,"lon":-93.8449214,"elevationM":294},{"id":"node:359006684","kind":"peak","name":"Baker Knob","lat":35.8378574,"lon":-93.8979739,"elevationM":651},{"id":"node:359006708","kind":"peak","name":"Bald Knob","lat":35.6800808,"lon":-93.1860091,"elevationM":607},{"id":"node:359006729","kind":"peak","name":"Barker Knob","lat":35.8528567,"lon":-93.6635229,"elevationM":672},{"id":"node:359006741","kind":"peak","name":"Barn Hill","lat":35.2209236,"lon":-93.8135316,"elevationM":277},{"id":"node:359006799","kind":"peak","name":"Bean Mountain","lat":35.8961899,"lon":-93.3040683,"elevationM":621},{"id":"node:359006839","kind":"peak","name":"Bear Mountain","lat":35.2292532,"lon":-93.3474036,"elevationM":437},{"id":"node:359006901","kind":"peak","name":"Bee Mountain","lat":35.2492569,"lon":-93.8429768,"elevationM":270},{"id":"node:359006954","kind":"peak","name":"Bend Hill","lat":35.6456377,"lon":-93.8474179,"elevationM":413},{"id":"node:359007149","kind":"peak","name":"Black Mountain","lat":35.6709151,"lon":-93.8818631,"elevationM":629},{"id":"node:359007217","kind":"peak","name":"Bluebaugh Hill","lat":35.3436957,"lon":-93.3524031,"elevationM":130},{"id":"node:359007256","kind":"peak","name":"Boone Mountain","lat":35.8039687,"lon":-93.896585,"elevationM":690},{"id":"node:359007282","kind":"peak","name":"Boyd Mountain","lat":35.5478626,"lon":-93.9952008,"elevationM":222},{"id":"node:359007302","kind":"peak","name":"Brannon Mountain","lat":35.8323021,"lon":-93.952142,"elevationM":699},{"id":"node:359007375","kind":"peak","name":"Brown Mountain","lat":35.8539688,"lon":-93.9779761,"elevationM":645},{"id":"node:359007393","kind":"peak","name":"Brushy Mountain","lat":35.2525894,"lon":-93.7865862,"elevationM":288},{"id":"node:359007400","kind":"peak","name":"Brushy Mountain","lat":35.6345263,"lon":-93.7399149,"elevationM":628},{"id":"node:359007419","kind":"peak","name":"Buck Knob","lat":35.0314838,"lon":-93.9215917,"elevationM":401},{"id":"node:359007459","kind":"peak","name":"Bunker Hill","lat":35.0542566,"lon":-93.3290715,"elevationM":368},{"id":"node:359007463","kind":"peak","name":"Burgiss Knob","lat":35.6650803,"lon":-93.0968411,"elevationM":594},{"id":"node:359007493","kind":"peak","name":"Burrell Mountain","lat":35.7681355,"lon":-93.8351944,"elevationM":694},{"id":"node:359007524","kind":"peak","name":"Calico Mountain","lat":35.2406448,"lon":-93.7424182,"elevationM":366},{"id":"node:359007566","kind":"peak","name":"Carter Mountain","lat":35.2181426,"lon":-93.3840718,"elevationM":342},{"id":"node:359007568","kind":"peak","name":"Carter Mountain","lat":35.6073046,"lon":-93.755749,"elevationM":657},{"id":"node:359007590","kind":"peak","name":"Cave Mountain","lat":35.9225782,"lon":-93.4399059,"elevationM":658},{"id":"node:359007681","kind":"peak","name":"Charlie Rollans Mountain","lat":35.2773077,"lon":-93.3204579,"elevationM":180},{"id":"node:359007693","kind":"peak","name":"Chickalah Mountain","lat":35.1781439,"lon":-93.4571305,"elevationM":271},{"id":"node:359007700","kind":"peak","name":"Chimney Rock Mountain","lat":35.8084126,"lon":-93.7613034,"elevationM":689},{"id":"node:359007729","kind":"peak","name":"Clayburn Point","lat":35.8125799,"lon":-93.368792,"elevationM":651},{"id":"node:359007738","kind":"peak","name":"Clubb Hill","lat":35.3550844,"lon":-93.3496252,"elevationM":174},{"id":"node:359007762","kind":"peak","name":"Coleman Knob","lat":35.7134137,"lon":-93.1401752,"elevationM":603},{"id":"node:359007774","kind":"peak","name":"Colony Mountain","lat":35.4967485,"lon":-93.2940672,"elevationM":306},{"id":"node:359007806","kind":"peak","name":"Cooper Mountain","lat":35.7975794,"lon":-93.7543588,"elevationM":709},{"id":"node:359007825","kind":"peak","name":"County Line Knob","lat":35.7548031,"lon":-93.3074009,"elevationM":567},{"id":"node:359007834","kind":"peak","name":"Cowan Knob","lat":35.7423028,"lon":-93.4935177,"elevationM":699},{"id":"node:359007885","kind":"peak","name":"Culbertson Point","lat":35.8320241,"lon":-93.3501804,"elevationM":635},{"id":"node:359007899","kind":"peak","name":"Daniels Mountain","lat":35.9020231,"lon":-93.3268469,"elevationM":642},{"id":"node:359007901","kind":"peak","name":"Dare Mine Knob","lat":35.6267471,"lon":-93.0940631,"elevationM":601},{"id":"node:359007915","kind":"peak","name":"Denny Mountain","lat":35.8286911,"lon":-93.9865875,"elevationM":718},{"id":"node:359007926","kind":"peak","name":"Devils Knob","lat":35.7248031,"lon":-93.4043484,"elevationM":682},{"id":"node:359007960","kind":"peak","name":"Douglas Mountain","lat":35.6139714,"lon":-93.7857498,"elevationM":599},{"id":"node:359007997","kind":"peak","name":"East Snake Knob","lat":35.1487011,"lon":-93.6046362,"elevationM":409},{"id":"node:359008021","kind":"peak","name":"Eubanks Mountain","lat":35.9514671,"lon":-93.8196383,"elevationM":567},{"id":"node:359008057","kind":"peak","name":"Faulkner Mountain","lat":35.9781339,"lon":-93.8593616,"elevationM":580},{"id":"node:359008068","kind":"peak","name":"Fisher Mountain","lat":35.5106412,"lon":-93.9940901,"elevationM":232},{"id":"node:359008073","kind":"peak","name":"Flattop Mountain","lat":35.2167555,"lon":-93.6232473,"elevationM":449},{"id":"node:359008084","kind":"peak","name":"Flood Mountain","lat":35.0428704,"lon":-93.6996403,"elevationM":684},{"id":"node:359008086","kind":"peak","name":"Fly Gap Mountain","lat":35.7553577,"lon":-93.7846374,"elevationM":718},{"id":"node:359008129","kind":"peak","name":"Freeman Knob","lat":35.6536918,"lon":-93.159342,"elevationM":508},{"id":"node:359008166","kind":"peak","name":"Garlands Knob","lat":35.7303585,"lon":-93.4796284,"elevationM":700},{"id":"node:359008169","kind":"peak","name":"Garrett Mountain","lat":35.8034128,"lon":-93.6571337,"elevationM":730},{"id":"node:359008203","kind":"peak","name":"Gobblers Knob","lat":35.2175868,"lon":-93.3507373,"elevationM":354},{"id":"node:359008204","kind":"peak","name":"Gobblers Knob","lat":35.7673028,"lon":-93.3724029,"elevationM":617},{"id":"node:359008241","kind":"peak","name":"Greenhaw Mountain","lat":35.7728568,"lon":-93.0160067,"elevationM":580},{"id":"node:359008252","kind":"peak","name":"Grose Mountain","lat":35.9345228,"lon":-93.8279719,"elevationM":609},{"id":"node:359008276","kind":"peak","name":"Hall Mountain","lat":35.874523,"lon":-93.7588033,"elevationM":717},{"id":"node:359008290","kind":"peak","name":"Hammond Mountain","lat":35.8820242,"lon":-93.9901987,"elevationM":673},{"id":"node:359008300","kind":"peak","name":"Hare Mountain","lat":35.7592465,"lon":-93.7571366,"elevationM":726},{"id":"node:359008315","kind":"peak","name":"Harvey Point","lat":35.7614694,"lon":-93.428238,"elevationM":592},{"id":"node:359008329","kind":"peak","name":"Henderson Mountain","lat":35.8528571,"lon":-93.2037878,"elevationM":692},{"id":"node:359008339","kind":"peak","name":"Hess Knob","lat":35.6406369,"lon":-93.2851779,"elevationM":585},{"id":"node:359008363","kind":"peak","name":"High Davey Mountain","lat":35.8195236,"lon":-93.7390806,"elevationM":704},{"id":"node:359008399","kind":"peak","name":"Hole in the Ground Mountain","lat":35.0409271,"lon":-93.8282555,"elevationM":357},{"id":"node:359008428","kind":"peak","name":"Horseshoe Mountain","lat":35.321755,"lon":-93.8124197,"elevationM":290},{"id":"node:359008445","kind":"peak","name":"Hoyle Mountain","lat":35.7228585,"lon":-93.8649177,"elevationM":640},{"id":"node:359008448","kind":"peak","name":"Huckleberry Mountain","lat":35.0270391,"lon":-93.8946464,"elevationM":349},{"id":"node:359008449","kind":"peak","name":"Huckleberry Mountain","lat":35.2236987,"lon":-93.4729639,"elevationM":597},{"id":"node:359008451","kind":"peak","name":"Hudson Mountain","lat":35.8592452,"lon":-93.1015637,"elevationM":654},{"id":"node:359008466","kind":"peak","name":"Isaac Knob","lat":35.8003573,"lon":-93.6690786,"elevationM":741},{"id":"node:359008470","kind":"peak","name":"Jackson Knob","lat":35.9781331,"lon":-93.7540809,"elevationM":589},{"id":"node:359008501","kind":"peak","name":"Judea Mountain","lat":35.9717441,"lon":-93.1760099,"elevationM":657},{"id":"node:359008504","kind":"peak","name":"Katie Knob","lat":35.5978597,"lon":-93.4282382,"elevationM":617},{"id":"node:359008508","kind":"peak","name":"Keck Knob","lat":35.8648009,"lon":-93.6457447,"elevationM":701},{"id":"node:359008518","kind":"peak","name":"Kent Mountain","lat":35.9009109,"lon":-93.0493405,"elevationM":557},{"id":"node:359008553","kind":"peak","name":"Lacy Mountain","lat":35.9292455,"lon":-93.8793622,"elevationM":634},{"id":"node:359008577","kind":"peak","name":"Ledbetter Mountain","lat":35.9056342,"lon":-93.809638,"elevationM":547},{"id":"node:359008601","kind":"peak","name":"Riddle Point","lat":35.9542434,"lon":-93.0210064,"elevationM":512},{"id":"node:359008625","kind":"peak","name":"Little Mountain","lat":35.3023069,"lon":-93.2785118,"elevationM":138},{"id":"node:359008633","kind":"peak","name":"Little Round Mountain","lat":35.806469,"lon":-93.334902,"elevationM":702},{"id":"node:359008649","kind":"peak","name":"London Mountain","lat":35.3620281,"lon":-93.2612887,"elevationM":250},{"id":"node:359008667","kind":"peak","name":"Long Point","lat":35.9350783,"lon":-93.2951794,"elevationM":594},{"id":"node:359008672","kind":"peak","name":"Lost Mountain","lat":35.8611904,"lon":-93.3515696,"elevationM":677},{"id":"node:359008691","kind":"peak","name":"Mac Wood Mountain","lat":35.6131376,"lon":-93.4840733,"elevationM":590},{"id":"node:359008698","kind":"peak","name":"Mack Mountain","lat":35.8459122,"lon":-93.7613034,"elevationM":704},{"id":"node:359008699","kind":"peak","name":"Magazine Mountain","lat":35.1673121,"lon":-93.6446387,"elevationM":837},{"id":"node:359008701","kind":"peak","name":"Mahaffey Knob","lat":35.8253571,"lon":-93.7996378,"elevationM":646},{"id":"node:359008711","kind":"peak","name":"Massey Mountain","lat":35.8934124,"lon":-93.8829735,"elevationM":686},{"id":"node:359008720","kind":"peak","name":"McCracken Hills","lat":35.6159151,"lon":-93.4421274,"elevationM":603},{"id":"node:359008742","kind":"peak","name":"McMinn Knob","lat":35.6964694,"lon":-93.1529531,"elevationM":575},{"id":"node:359008750","kind":"peak","name":"Meadows Knob","lat":35.6681364,"lon":-93.187398,"elevationM":570},{"id":"node:359008774","kind":"peak","name":"Millsaps Knob","lat":35.790358,"lon":-93.2015652,"elevationM":640},{"id":"node:359008778","kind":"peak","name":"Mineral Hill","lat":35.667582,"lon":-93.9279756,"elevationM":511},{"id":"node:359008800","kind":"peak","name":"Montgomery Mountain","lat":35.0395389,"lon":-93.8982577,"elevationM":384},{"id":"node:359008808","kind":"peak","name":"Moonhull Mountain","lat":35.7392474,"lon":-93.4676836,"elevationM":682},{"id":"node:359008815","kind":"peak","name":"Moore Mountain","lat":35.2334199,"lon":-93.3682377,"elevationM":396},{"id":"node:359008832","kind":"peak","name":"Morgan Mountain","lat":35.7331358,"lon":-93.7538034,"elevationM":569},{"id":"node:359008852","kind":"peak","name":"Moss Mountain","lat":35.9470223,"lon":-93.201566,"elevationM":671},{"id":"node:359008858","kind":"peak","name":"Mount Ephraim","lat":35.5975828,"lon":-93.7888055,"elevationM":593},{"id":"node:359009055","kind":"peak","name":"Napoleon Knob","lat":35.7236919,"lon":-93.4874065,"elevationM":697},{"id":"node:359009071","kind":"peak","name":"Mount Nebo","lat":35.2167528,"lon":-93.2518447,"elevationM":537},{"id":"node:359009075","kind":"peak","name":"Negro Hill","lat":35.3270286,"lon":-93.2618445,"elevationM":137},{"id":"node:359009320","kind":"peak","name":"Owens Mountain","lat":35.8728564,"lon":-93.1410089,"elevationM":641},{"id":"node:359009332","kind":"peak","name":"Ozone Mountain","lat":35.6542481,"lon":-93.4082375,"elevationM":595},{"id":"node:359009351","kind":"peak","name":"Panther Knob","lat":35.8889673,"lon":-93.7510253,"elevationM":703},{"id":"node:359009361","kind":"peak","name":"Parker Hill","lat":35.9134116,"lon":-93.7849151,"elevationM":625},{"id":"node:359009370","kind":"peak","name":"Parker Mountain","lat":35.7178586,"lon":-93.8713068,"elevationM":686},{"id":"node:359009377","kind":"peak","name":"Parker Mountain","lat":35.8042464,"lon":-93.8601951,"elevationM":695},{"id":"node:359009404","kind":"peak","name":"Paxton Knob","lat":35.8400797,"lon":-93.2762893,"elevationM":653},{"id":"node:359009415","kind":"peak","name":"Penitentiary Mountain","lat":35.9264669,"lon":-93.5454644,"elevationM":661},{"id":"node:359009430","kind":"peak","name":"Petit Jean Mountain","lat":35.0228708,"lon":-93.6999183,"elevationM":745},{"id":"node:359009435","kind":"peak","name":"Phelps Mountain","lat":35.7939687,"lon":-93.8710287,"elevationM":704},{"id":"node:359009446","kind":"peak","name":"Pilot Knob","lat":35.7003592,"lon":-93.9629763,"elevationM":711},{"id":"node:359009448","kind":"peak","name":"Pilot Knob","lat":35.5870257,"lon":-93.2512879,"elevationM":638},{"id":"node:359009458","kind":"peak","name":"Pine Hill","lat":35.3592531,"lon":-93.6485249,"elevationM":214},{"id":"node:359009469","kind":"peak","name":"Pine Ridge Mountain","lat":35.2767553,"lon":-93.7471403,"elevationM":174},{"id":"node:359009479","kind":"peak","name":"Pisgah Mountain","lat":35.2059244,"lon":-93.8538107,"elevationM":277},{"id":"node:359009511","kind":"peak","name":"Pool Knob","lat":35.8503566,"lon":-93.7165799,"elevationM":676},{"id":"node:359009520","kind":"peak","name":"Potato Hill Mountain","lat":35.0467589,"lon":-93.6499165,"elevationM":677},{"id":"node:359009522","kind":"peak","name":"Potato Knob","lat":35.9523008,"lon":-93.8696396,"elevationM":604},{"id":"node:359009523","kind":"peak","name":"Potato Knob Mountain","lat":35.7286918,"lon":-93.9093634,"elevationM":687},{"id":"node:359009529","kind":"peak","name":"Prairie View Mountain","lat":35.3103642,"lon":-93.5193538,"elevationM":192},{"id":"node:359009575","kind":"peak","name":"Red Lick Mountain","lat":35.5164713,"lon":-93.4021263,"elevationM":308},{"id":"node:359009582","kind":"peak","name":"Reeves Mountain","lat":35.9078561,"lon":-93.4926852,"elevationM":733},{"id":"node:359009591","kind":"peak","name":"Reynolds Mountain","lat":35.9748,"lon":-93.2504562,"elevationM":668},{"id":"node:359009595","kind":"peak","name":"Rich Knob","lat":35.670359,"lon":-93.2887892,"elevationM":572},{"id":"node:359009597","kind":"peak","name":"Rich Mountain","lat":35.2520321,"lon":-93.5671337,"elevationM":508},{"id":"node:359009601","kind":"peak","name":"Ricketts Mountain","lat":35.9009112,"lon":-93.1085083,"elevationM":591},{"id":"node:359009604","kind":"peak","name":"River Mountain","lat":35.3109183,"lon":-93.3354583,"elevationM":298},{"id":"node:359009660","kind":"peak","name":"Round Mountain","lat":35.9859105,"lon":-93.1818435,"elevationM":559},{"id":"node:359009664","kind":"peak","name":"Round Mountain","lat":35.3111954,"lon":-93.2432329,"elevationM":141},{"id":"node:359009720","kind":"peak","name":"Sassafras Knob","lat":35.7781353,"lon":-93.113786,"elevationM":644},{"id":"node:359009721","kind":"peak","name":"Saul Mountain","lat":35.5228595,"lon":-93.298234,"elevationM":243},{"id":"node:359009759","kind":"peak","name":"Shepherd Mountain","lat":35.7503582,"lon":-93.9596423,"elevationM":703},{"id":"node:359009775","kind":"peak","name":"Shiloh Mountain","lat":35.9503557,"lon":-93.3576814,"elevationM":694},{"id":"node:359009790","kind":"peak","name":"Signal Hill","lat":35.1673121,"lon":-93.6449152,"elevationM":837},{"id":"node:359009796","kind":"peak","name":"Slate Hill","lat":35.217867,"lon":-93.6815828,"elevationM":347},{"id":"node:359009812","kind":"peak","name":"Sloan Knob","lat":35.7178589,"lon":-93.9857545,"elevationM":541},{"id":"node:359009816","kind":"peak","name":"Smith Mountain","lat":35.9128562,"lon":-93.2112882,"elevationM":641},{"id":"node:359009833","kind":"peak","name":"Snake Knob","lat":35.1467567,"lon":-93.6118587,"elevationM":434},{"id":"node:359009838","kind":"peak","name":"Sollys Knob","lat":35.7031358,"lon":-93.108508,"elevationM":631},{"id":"node:359009850","kind":"peak","name":"Spring Mountain","lat":35.2148088,"lon":-93.315736,"elevationM":553},{"id":"node:359009858","kind":"peak","name":"Stacy Mountain","lat":35.8706349,"lon":-93.887418,"elevationM":686},{"id":"node:359009874","kind":"peak","name":"Standley Mountain","lat":35.8664679,"lon":-93.8251941,"elevationM":675},{"id":"node:359009878","kind":"peak","name":"Davis Knob","lat":35.7981359,"lon":-93.2265657,"elevationM":688},{"id":"node:359009893","kind":"peak","name":"Stillwell Mountain","lat":35.527583,"lon":-93.5054631,"elevationM":252},{"id":"node:359009930","kind":"peak","name":"Sugar Tree Mountain","lat":35.8339679,"lon":-93.7379694,"elevationM":687},{"id":"node:359009945","kind":"peak","name":"Surrounded Ridges","lat":35.0898112,"lon":-93.3007367,"elevationM":113},{"id":"node:359009963","kind":"peak","name":"Tater Hill","lat":35.2289749,"lon":-93.2835124,"elevationM":452},{"id":"node:359009964","kind":"peak","name":"Tater Hill","lat":35.2936974,"lon":-93.4676853,"elevationM":146},{"id":"node:359009966","kind":"peak","name":"Tater Hill","lat":35.5181372,"lon":-93.2854558,"elevationM":180},{"id":"node:359009970","kind":"peak","name":"Taylor Mountain","lat":35.9195229,"lon":-93.2960126,"elevationM":661},{"id":"node:359009983","kind":"peak","name":"Thompson Knob","lat":35.685359,"lon":-93.4299047,"elevationM":563},{"id":"node:359009989","kind":"peak","name":"Three Knob Mountain","lat":35.4956367,"lon":-93.1065629,"elevationM":382},{"id":"node:359009991","kind":"peak","name":"Three Knobs","lat":35.2181427,"lon":-93.3935165,"elevationM":378},{"id":"node:359009999","kind":"peak","name":"Turkey Knob","lat":35.2134225,"lon":-93.6688046,"elevationM":337},{"id":"node:359010007","kind":"peak","name":"Turner Ward Knob","lat":35.8634123,"lon":-93.4537949,"elevationM":746},{"id":"node:359010017","kind":"peak","name":"Umphers Knob","lat":35.6423029,"lon":-93.1498974,"elevationM":604},{"id":"node:359010050","kind":"peak","name":"Vandeventer Mountain","lat":35.8650788,"lon":-93.7715815,"elevationM":681},{"id":"node:359010053","kind":"peak","name":"Venus Mountain","lat":35.9253558,"lon":-93.5974102,"elevationM":648},{"id":"node:359010062","kind":"peak","name":"Waldo Mountain","lat":35.5545254,"lon":-93.1746198,"elevationM":474},{"id":"node:359010103","kind":"peak","name":"Wheeler Knob","lat":35.7039697,"lon":-93.188787,"elevationM":602},{"id":"node:359010133","kind":"peak","name":"White Rock Mountain","lat":35.6931372,"lon":-93.9571428,"elevationM":701},{"id":"node:359010149","kind":"peak","name":"Whiting Mountain","lat":35.736747,"lon":-93.8168607,"elevationM":705},{"id":"node:359010152","kind":"peak","name":"Whiting Mountain","lat":35.753969,"lon":-93.8335276,"elevationM":707},{"id":"node:359010156","kind":"peak","name":"Whittmore Mountain","lat":35.8645231,"lon":-93.7293581,"elevationM":656},{"id":"node:359010193","kind":"peak","name":"Woods Mountain","lat":35.5864706,"lon":-93.3499023,"elevationM":658},{"id":"node:359010211","kind":"peak","name":"Younger Knob","lat":35.5625831,"lon":-93.7082478,"elevationM":582},{"id":"node:359010266","kind":"peak","name":"Middle Mountain","lat":35.8703555,"lon":-93.0112842,"elevationM":456},{"id":"node:359010267","kind":"peak","name":"Hurricane Knob","lat":35.7661915,"lon":-93.1871204,"elevationM":549},{"id":"node:359010282","kind":"peak","name":"Brown Mountain","lat":35.5567483,"lon":-93.3110121,"elevationM":298},{"id":"node:359010287","kind":"peak","name":"Dare Mine Knob","lat":35.6245248,"lon":-93.0898963,"elevationM":601},{"id":"node:359010292","kind":"peak","name":"Whaley Knob","lat":35.5942472,"lon":-93.0815627,"elevationM":478},{"id":"node:359010308","kind":"peak","name":"Dollar Knob","lat":35.5048031,"lon":-93.0704511,"elevationM":386},{"id":"node:359010314","kind":"peak","name":"Middle Mountain","lat":35.5275808,"lon":-93.0804514,"elevationM":377},{"id":"node:359010320","kind":"peak","name":"Mitchell Point","lat":35.5667474,"lon":-93.1043408,"elevationM":373},{"id":"node:359010322","kind":"peak","name":"High Mountain","lat":35.5775807,"lon":-93.1148966,"elevationM":444},{"id":"node:359010323","kind":"peak","name":"Bates Knob","lat":35.5425808,"lon":-93.1076741,"elevationM":438},{"id":"node:359010348","kind":"peak","name":"Tackey Hill","lat":35.558137,"lon":-93.2648995,"elevationM":337},{"id":"node:359010374","kind":"peak","name":"Hagerville Mountain","lat":35.5273041,"lon":-93.3293461,"elevationM":228},{"id":"node:359010418","kind":"peak","name":"Felkins Point","lat":35.5811921,"lon":-93.1740643,"elevationM":217},{"id":"node:359010421","kind":"peak","name":"Grassy Point","lat":35.6081368,"lon":-93.2418434,"elevationM":508},{"id":"node:359010422","kind":"peak","name":"Newton Hill","lat":35.5509142,"lon":-93.1329524,"elevationM":453},{"id":"node:359010424","kind":"peak","name":"Evans Mountain","lat":35.5273034,"lon":-93.2148983,"elevationM":310},{"id":"node:359010450","kind":"peak","name":"Dick Knob","lat":35.8867443,"lon":-93.0312845,"elevationM":585},{"id":"node:359010489","kind":"peak","name":"Daniel Mountain","lat":35.8386893,"lon":-93.0182289,"elevationM":663},{"id":"node:359011877","kind":"peak","name":"Dardanelle Mountain","lat":35.2509181,"lon":-93.1865648,"elevationM":210},{"id":"node:359013111","kind":"peak","name":"Tater Hill","lat":35.5175816,"lon":-93.2854558,"elevationM":183},{"id":"node:359013580","kind":"peak","name":"Short Mountain","lat":35.2498113,"lon":-93.7499184,"elevationM":306},{"id":"node:359014590","kind":"peak","name":"Augsburg Mountain","lat":35.4120271,"lon":-93.2351767,"elevationM":244},{"id":"node:359014604","kind":"peak","name":"Colony Mountain","lat":35.4556376,"lon":-93.2398989,"elevationM":347},{"id":"node:359014696","kind":"peak","name":"Sulphur Mountain","lat":35.3756389,"lon":-93.240177,"elevationM":247},{"id":"node:359014943","kind":"peak","name":"Tick Hill","lat":35.4164738,"lon":-93.5546321,"elevationM":191},{"id":"node:359015133","kind":"peak","name":"North Pole Knob","lat":35.9356326,"lon":-93.0335067,"elevationM":600},{"id":"node:11371472759","kind":"peak","name":"Sunrise Point","lat":35.214267,"lon":-93.2514623,"elevationM":null},{"id":"node:11371472760","kind":"peak","name":"Tow Point","lat":35.7404223,"lon":-93.3614312,"elevationM":null},{"id":"node:11371472761","kind":"peak","name":"Osborn Point","lat":35.5844205,"lon":-93.4371307,"elevationM":null},{"id":"node:11371472763","kind":"peak","name":"Shaft Point","lat":35.7121105,"lon":-93.3778246,"elevationM":null},{"id":"node:11371472764","kind":"peak","name":"High Point","lat":35.179533,"lon":-93.4904651,"elevationM":null},{"id":"node:11371472766","kind":"peak","name":"George Mountain","lat":35.9182079,"lon":-93.0263654,"elevationM":null},{"id":"node:11371472767","kind":"peak","name":"Dow Point","lat":35.6705455,"lon":-93.4256262,"elevationM":null},{"id":"node:11371472768","kind":"peak","name":"Buzzards Rock","lat":35.2492307,"lon":-93.4827586,"elevationM":null},{"id":"node:11371491071","kind":"peak","name":"Baxter Point","lat":35.5948903,"lon":-93.4936269,"elevationM":null},{"id":"node:13200763517","kind":"peak","name":"Wahzhazhe Summit","lat":35.8636793,"lon":-93.4935366,"elevationM":781}]}