{"tileKey":"la_p7_lo_m81","version":"v1-1775891056926","entries":[{"id":"node:3171488497","kind":"peak","name":"Cerro Chupa","lat":7.7869198,"lon":-80.5749016,"elevationM":317},{"id":"node:5747473746","kind":"peak","name":"Cerro Quema","lat":7.5619261,"lon":-80.5134024,"elevationM":null},{"id":"node:5748052433","kind":"peak","name":"Cerro El Barniz","lat":7.954846,"lon":-80.5062791,"elevationM":122},{"id":"node:5762459639","kind":"peak","name":"Cerro Loma Nublá","lat":7.8318708,"lon":-80.9496684,"elevationM":null},{"id":"node:5762461128","kind":"peak","name":"Cerro Señiles","lat":7.8597299,"lon":-80.9452772,"elevationM":null},{"id":"node:6217192983","kind":"peak","name":"Loma Del Rosario","lat":7.6969845,"lon":-80.7344626,"elevationM":674},{"id":"node:6219395935","kind":"peak","name":"Loma El Montuoso","lat":7.7269732,"lon":-80.8483075,"elevationM":939},{"id":"node:6997271530","kind":"peak","name":"El Cope","lat":7.6798696,"lon":-80.7220272,"elevationM":null},{"id":"node:8403235318","kind":"peak","name":"Cerro Tijera","lat":7.8467993,"lon":-80.903736,"elevationM":null},{"id":"node:8403235319","kind":"peak","name":"Cerro Peñon","lat":7.8516112,"lon":-80.9267521,"elevationM":null},{"id":"node:9721869419","kind":"peak","name":"Cerro Marchena","lat":7.6247427,"lon":-80.1624217,"elevationM":118},{"id":"node:11336759866","kind":"peak","name":"Cerro San Lorenzo","lat":7.8661876,"lon":-80.9524691,"elevationM":null},{"id":"node:11336759868","kind":"peak","name":"Cerro Peñonales","lat":7.8490445,"lon":-80.9575385,"elevationM":null},{"id":"node:11887191286","kind":"peak","name":"Cerro Honda","lat":7.4859206,"lon":-80.8550835,"elevationM":null},{"id":"node:11887191400","kind":"peak","name":"Cerrro Bravita","lat":7.4075585,"lon":-80.7156515,"elevationM":null},{"id":"node:12521378976","kind":"peak","name":"Cerro Canajagua","lat":7.6486559,"lon":-80.42139,"elevationM":829},{"id":"node:13568658564","kind":"peak","name":"Cerro Mague","lat":7.9953758,"lon":-80.4199165,"elevationM":15},{"id":"node:13644196992","kind":"peak","name":"Cerro Gordo","lat":7.9066777,"lon":-80.3460014,"elevationM":65}]}