{"tileKey":"la_p30_lo_m103","version":"v1-1775891056926","entries":[{"id":"node:356701491","kind":"peak","name":"Cap Rock Butte","lat":30.3590631,"lon":-102.759042,"elevationM":1290},{"id":"node:356701641","kind":"peak","name":"Castle Mountain","lat":30.0926833,"lon":-102.9190496,"elevationM":1369},{"id":"node:356704744","kind":"peak","name":"Dimple Hills","lat":30.3365622,"lon":-102.9398798,"elevationM":1447},{"id":"node:356714211","kind":"peak","name":"Panther Mountain","lat":30.0724083,"lon":-102.7290421,"elevationM":1115},{"id":"node:356714214","kind":"peak","name":"Panther Peak","lat":30.1862929,"lon":-102.7437641,"elevationM":1275},{"id":"node:356714216","kind":"peak","name":"Panther Peaks","lat":30.0596287,"lon":-102.9434959,"elevationM":1375},{"id":"node:356724614","kind":"peak","name":"Spencer Mountain","lat":30.2346213,"lon":-102.9643256,"elevationM":1582},{"id":"node:356725047","kind":"peak","name":"Sugar Loaf Mountain","lat":30.2790644,"lon":-102.94238,"elevationM":1483},{"id":"node:356726368","kind":"peak","name":"Two Top Mountain","lat":30.2760136,"lon":-102.510147,"elevationM":1064},{"id":"node:356729095","kind":"peak","name":"Big Baldy Peak","lat":30.8251571,"lon":-102.4554206,"elevationM":878},{"id":"node:356729173","kind":"peak","name":"Big Mesa","lat":30.8729336,"lon":-102.4040297,"elevationM":898},{"id":"node:356729191","kind":"peak","name":"Big Mesa","lat":30.9123757,"lon":-102.5232002,"elevationM":960},{"id":"node:356729631","kind":"peak","name":"Boat Hills","lat":30.4385043,"lon":-102.700985,"elevationM":1314},{"id":"node:356731680","kind":"peak","name":"Clark Butte","lat":30.3907272,"lon":-102.9029344,"elevationM":1460},{"id":"node:356732868","kind":"peak","name":"Darrels Peak","lat":30.8526558,"lon":-102.487366,"elevationM":911},{"id":"node:356733428","kind":"peak","name":"East Mesa","lat":30.9326527,"lon":-102.6429261,"elevationM":953},{"id":"node:356734258","kind":"peak","name":"Fivemile Hill","lat":30.8259895,"lon":-102.9243236,"elevationM":972},{"id":"node:356734262","kind":"peak","name":"Fivemile Mesa","lat":30.859044,"lon":-102.810987,"elevationM":1024},{"id":"node:356734349","kind":"peak","name":"Flat Top","lat":30.9757075,"lon":-102.8965448,"elevationM":902},{"id":"node:356735793","kind":"peak","name":"Guayule Mountain","lat":30.9629294,"lon":-102.6809827,"elevationM":957},{"id":"node:356736690","kind":"peak","name":"Hog Peak","lat":30.883767,"lon":-102.3512501,"elevationM":918},{"id":"node:356737234","kind":"peak","name":"Indian Mesa","lat":30.9287666,"lon":-102.1787454,"elevationM":947},{"id":"node:356739191","kind":"peak","name":"Little Mesa","lat":30.85349,"lon":-102.3948627,"elevationM":891},{"id":"node:356740374","kind":"peak","name":"McKenzie Mesa","lat":30.7859925,"lon":-102.4037521,"elevationM":1010},{"id":"node:356742643","kind":"peak","name":"Panther Bluff","lat":30.814879,"lon":-102.5887582,"elevationM":892},{"id":"node:356744673","kind":"peak","name":"Round Mountain","lat":30.6840497,"lon":-102.8107097,"elevationM":1091},{"id":"node:356744675","kind":"peak","name":"Round Mountain","lat":30.9429301,"lon":-102.6818161,"elevationM":919},{"id":"node:356744863","kind":"peak","name":"Saddle Butte","lat":30.9451523,"lon":-102.6073693,"elevationM":920},{"id":"node:356746205","kind":"peak","name":"Sevenmile Mesa","lat":30.9310375,"lon":-102.7827469,"elevationM":887},{"id":"node:356746315","kind":"peak","name":"Sherbino Mesa","lat":30.7543282,"lon":-102.3004149,"elevationM":990},{"id":"node:356746407","kind":"peak","name":"Sierra Madera","lat":30.5926639,"lon":-102.912656,"elevationM":1370},{"id":"node:356746508","kind":"peak","name":"Skyscraper Peak","lat":30.8179353,"lon":-102.4498648,"elevationM":911},{"id":"node:356746809","kind":"peak","name":"Tunas Peak","lat":30.8940447,"lon":-102.323749,"elevationM":879},{"id":"node:356747472","kind":"peak","name":"The Needle Point","lat":30.9695967,"lon":-102.9334904,"elevationM":908},{"id":"node:356747742","kind":"peak","name":"Twelvemile Mesa","lat":30.7687688,"lon":-102.9940478,"elevationM":1139},{"id":"node:356747793","kind":"peak","name":"Twomile Hill","lat":30.8879323,"lon":-102.9326571,"elevationM":961},{"id":"node:356751473","kind":"peak","name":"Housetop Mountain","lat":30.1585136,"lon":-102.9421045,"elevationM":1552},{"id":"node:356751545","kind":"peak","name":"Shely Peaks","lat":30.0126863,"lon":-102.9418302,"elevationM":1584},{"id":"node:8730136428","kind":"peak","name":"Hominy Hill","lat":30.1468862,"lon":-102.3960843,"elevationM":null},{"id":"node:8730136429","kind":"peak","name":"Javelina Hill","lat":30.1445157,"lon":-102.4019154,"elevationM":null}]}