{"tileKey":"la_p54_lo_p19","version":"v1-1775891056926","entries":[{"id":"node:1835199148","kind":"peak","name":"Wielbłądzi Grzbiet","lat":54.3900447,"lon":19.4699029,"elevationM":42},{"id":"node:2955428679","kind":"peak","name":"Góra Pirata","lat":54.4032195,"lon":19.5213628,"elevationM":37},{"id":"node:2963171081","kind":"peak","name":"Pagórek","lat":54.3568751,"lon":19.2587408,"elevationM":23},{"id":"node:2963171082","kind":"peak","name":"Pagórek","lat":54.3576783,"lon":19.2789973,"elevationM":27},{"id":"node:3181746262","kind":"peak","name":"120,4","lat":54.1464635,"lon":19.5365058,"elevationM":null},{"id":"node:3185353168","kind":"peak","name":"147","lat":54.1683551,"lon":19.5752849,"elevationM":null},{"id":"node:3185353169","kind":"peak","name":"149","lat":54.1705427,"lon":19.5773838,"elevationM":null},{"id":"node:3185502071","kind":"peak","name":"Góra ludowa","lat":54.1775797,"lon":19.4774258,"elevationM":null},{"id":"node:3230066262","kind":"peak","name":"Góra Sowia","lat":54.1702014,"lon":19.4749674,"elevationM":null},{"id":"node:3230066263","kind":"peak","name":"Góra Wojciecha","lat":54.1784664,"lon":19.4836188,"elevationM":129},{"id":"node:3230066266","kind":"peak","name":"Wzgórze 13 sosen","lat":54.1710328,"lon":19.4671339,"elevationM":90},{"id":"node:3230066267","kind":"peak","name":"Wzgórze Maryli","lat":54.169094,"lon":19.4607554,"elevationM":null},{"id":"node:3499995749","kind":"peak","name":"Большая","lat":54.8606107,"lon":19.9935312,"elevationM":89},{"id":"node:4641948854","kind":"peak","name":"Gęsia Góra","lat":54.1633465,"lon":19.4394468,"elevationM":70},{"id":"node:4641948855","kind":"peak","name":"Góra Chrobrego","lat":54.1677901,"lon":19.4471885,"elevationM":92},{"id":"node:5116142109","kind":"peak","name":"г.Донская","lat":54.9350384,"lon":19.9611068,"elevationM":40},{"id":"node:5410023384","kind":"peak","name":"Góra Milejewska","lat":54.2191226,"lon":19.5339311,"elevationM":197},{"id":"node:5410023386","kind":"peak","name":"Góra Srebrna","lat":54.2193907,"lon":19.5104564,"elevationM":198},{"id":"node:5410023387","kind":"peak","name":"Samolot","lat":54.3245546,"lon":19.5374367,"elevationM":38},{"id":"node:6800302836","kind":"peak","name":"Шведская","lat":54.6222731,"lon":19.8710006,"elevationM":13},{"id":"node:7525199093","kind":"peak","name":"Belweder","lat":54.1756049,"lon":19.464332,"elevationM":121},{"id":"node:10581891123","kind":"peak","name":"Pir","lat":54.0089085,"lon":19.7431524,"elevationM":138},{"id":"node:10583801466","kind":"peak","name":"Bukowa","lat":54.0201,"lon":19.7411044,"elevationM":120},{"id":"node:11594119099","kind":"peak","name":"Sarnia Góra","lat":54.2468281,"lon":19.5114297,"elevationM":198}]}