{"tileKey":"la_p40_lo_p46","version":"v1-1775891056926","entries":[{"id":"node:2898512740","kind":"peak","name":"Gamış","lat":40.2788218,"lon":46.358571,"elevationM":3724},{"id":"node:2898512781","kind":"peak","name":"Mount Arega","lat":40.3831741,"lon":46.6691251,"elevationM":1350},{"id":"node:3474566612","kind":"peak","name":"Kəpəz dağı","lat":40.3524731,"lon":46.3450611,"elevationM":3066},{"id":"node:3966740432","kind":"peak","name":"2646","lat":40.0367775,"lon":46.1173156,"elevationM":2646},{"id":"node:3991585866","kind":"peak","name":"Çiçəkli","lat":40.1862837,"lon":46.2136263,"elevationM":2267},{"id":"node:4738786020","kind":"peak","name":"Qoçdağ","lat":40.0946122,"lon":46.0943529,"elevationM":2526},{"id":"node:4738786152","kind":"peak","name":"Qarasar yüksəkliyi","lat":40.055691,"lon":46.0782879,"elevationM":2770},{"id":"node:4738786752","kind":"peak","name":"Çobandağ","lat":40.0098451,"lon":46.2645056,"elevationM":2265},{"id":"node:5183064523","kind":"peak","name":"Xocayurd","lat":40.0580213,"lon":46.4173972,"elevationM":2389},{"id":"node:5183114369","kind":"peak","name":"Ulubab","lat":40.0164155,"lon":46.7132519,"elevationM":1427},{"id":"node:5184379385","kind":"peak","name":"Köyükqayası","lat":40.0420064,"lon":46.3602876,"elevationM":2300},{"id":"node:5184382008","kind":"peak","name":"Ağbaba","lat":40.0624144,"lon":46.3020515,"elevationM":2276},{"id":"node:5184382865","kind":"peak","name":"2261","lat":40.1367062,"lon":46.2569797,"elevationM":2261},{"id":"node:5198684467","kind":"peak","name":"Ağdağ","lat":40.3130923,"lon":46.1273861,"elevationM":3200},{"id":"node:5198684496","kind":"peak","name":"Təkəqaya","lat":40.2936434,"lon":46.1239098,"elevationM":3125},{"id":"node:5198684497","kind":"peak","name":"Ağçınqıl dağı","lat":40.3116463,"lon":46.0229247,"elevationM":3300},{"id":"node:5198684981","kind":"peak","name":"Alaitinbaşı","lat":40.0049114,"lon":46.3492583,"elevationM":2115},{"id":"node:5200158834","kind":"peak","name":"Zincirli","lat":40.3208965,"lon":46.0948776,"elevationM":3054},{"id":"node:5200159271","kind":"peak","name":"Koroğludağ","lat":40.3110962,"lon":46.2320136,"elevationM":3462},{"id":"node:5200159553","kind":"peak","name":"Ömər dağ","lat":40.3038074,"lon":46.2796001,"elevationM":3396},{"id":"node:5200160037","kind":"peak","name":"Qabartı dağı","lat":40.0639335,"lon":46.4645397,"elevationM":2147},{"id":"node:5429913511","kind":"peak","name":"Gömürdağ","lat":40.2649955,"lon":46.0059287,"elevationM":3037},{"id":"node:5434766166","kind":"peak","name":"1767","lat":40.1575036,"lon":46.1876995,"elevationM":1767},{"id":"node:5434766654","kind":"peak","name":"Elliqədir","lat":40.0277295,"lon":46.3261324,"elevationM":2275},{"id":"node:5435212958","kind":"peak","name":"Susuzluq yüksəkliyi \\ Kəlbəcər","lat":40.2574623,"lon":46.2031258,"elevationM":2845},{"id":"node:5435512905","kind":"peak","name":"Atdağ","lat":40.0444787,"lon":46.2697041,"elevationM":2036},{"id":"node:5435513297","kind":"peak","name":"Ağqayanıbaşı","lat":40.0142384,"lon":46.3144541,"elevationM":2286},{"id":"node:5435515341","kind":"peak","name":"Sarıdağ","lat":40.2040668,"lon":46.3605666,"elevationM":2185},{"id":"node:6701022089","kind":"peak","name":"Şəkərdağ","lat":40.4957578,"lon":46.0909233,"elevationM":1903},{"id":"node:6701029614","kind":"peak","name":"Cavad Xan yüksəkliyi \\ Göygöl rayonu","lat":40.4730908,"lon":46.2929458,"elevationM":2119},{"id":"node:7966186438","kind":"peak","name":"Murov dağı","lat":40.2907525,"lon":46.4923114,"elevationM":3367},{"id":"node:7966186439","kind":"peak","name":"Ağuçuq Dağı","lat":40.2800465,"lon":46.5431539,"elevationM":2775},{"id":"node:7966186440","kind":"peak","name":"Keçəldağ","lat":40.2949878,"lon":46.6316069,"elevationM":2225},{"id":"node:7966223469","kind":"peak","name":"Bağırlı","lat":40.2230854,"lon":46.2588065,"elevationM":2298},{"id":"node:7966223471","kind":"peak","name":"Buzdux","lat":40.2152946,"lon":46.3185387,"elevationM":2374},{"id":"node:7966223472","kind":"peak","name":"Çiləbürt","lat":40.2380514,"lon":46.3750287,"elevationM":2599},{"id":"node:9260653084","kind":"peak","name":"Ərgələn təpə","lat":40.0229467,"lon":46.7908937,"elevationM":550},{"id":"node:11450080443","kind":"peak","name":"Laçın qaya","lat":40.1308859,"lon":46.2972592,"elevationM":1850},{"id":"node:12065336621","kind":"peak","name":"Fərrux dağı","lat":40.0132847,"lon":46.8111758,"elevationM":1007},{"id":"node:12084801204","kind":"peak","name":"Rizfanc təpəsi","lat":40.0132103,"lon":46.6877993,"elevationM":1100},{"id":"node:12135847835","kind":"peak","name":"Ağababa dağı","lat":40.0244814,"lon":46.6917147,"elevationM":1450},{"id":"node:12139856301","kind":"peak","name":"Güzxran təpəsi","lat":40.0298527,"lon":46.7507611,"elevationM":600},{"id":"node:12139870109","kind":"peak","name":"Yeddixırman dağı","lat":40.022293,"lon":46.8500205,"elevationM":914},{"id":"node:12147754171","kind":"peak","name":"Xaçınstroy dağı","lat":40.0293334,"lon":46.6973044,"elevationM":981},{"id":"node:12147785062","kind":"peak","name":"Rev dağı","lat":40.0011472,"lon":46.7052926,"elevationM":1309},{"id":"node:12147792964","kind":"peak","name":"Qazandağ","lat":40.0021976,"lon":46.7640105,"elevationM":1285},{"id":"node:12148487643","kind":"peak","name":"Salbab dağı","lat":40.0077549,"lon":46.6947694,"elevationM":1130},{"id":"node:12245012003","kind":"peak","name":"Tağ dağı","lat":40.2030979,"lon":46.747103,"elevationM":1040},{"id":"node:12423305838","kind":"peak","name":"Yüksəklik","lat":40.5273051,"lon":46.0756812,"elevationM":1900},{"id":"node:12475745785","kind":"peak","name":"Qaya","lat":40.3815649,"lon":46.0100221,"elevationM":null},{"id":"node:12475745819","kind":"peak","name":"Qaya","lat":40.3990644,"lon":46.0109675,"elevationM":null},{"id":"node:12479103530","kind":"peak","name":"Qaya \\ Gəncəçay","lat":40.3414481,"lon":46.0193615,"elevationM":null},{"id":"node:12479254277","kind":"peak","name":"Qoşqar dağı","lat":40.3760808,"lon":46.0009342,"elevationM":null},{"id":"node:12669041000","kind":"peak","name":"Kican dağı","lat":40.0714864,"lon":46.6485447,"elevationM":1510},{"id":"node:12669113946","kind":"peak","name":"Beşdağ","lat":40.145775,"lon":46.6667899,"elevationM":1333},{"id":"node:12669116934","kind":"peak","name":"Manikli dağı","lat":40.0730166,"lon":46.7443513,"elevationM":1150},{"id":"node:12669136412","kind":"peak","name":"Şıxavənd","lat":40.0815637,"lon":46.6896717,"elevationM":1020},{"id":"node:12669136872","kind":"peak","name":"Oratağ dağı","lat":40.1520392,"lon":46.6901602,"elevationM":1270},{"id":"node:12669154369","kind":"peak","name":"Alyataq dağı","lat":40.1422717,"lon":46.7547975,"elevationM":1050},{"id":"node:12669208944","kind":"peak","name":"Yarelli","lat":40.097456,"lon":46.5650458,"elevationM":1680},{"id":"node:12669219992","kind":"peak","name":"Banbaşı","lat":40.1376107,"lon":46.6365745,"elevationM":1200},{"id":"node:12669896373","kind":"peak","name":"Mincövhər dağı","lat":40.1941697,"lon":46.3953339,"elevationM":1840},{"id":"node:12682326581","kind":"peak","name":"Soltaş təpə","lat":40.0258802,"lon":46.6731816,"elevationM":730},{"id":"node:12682352941","kind":"peak","name":"Həngitan təpə","lat":40.0272486,"lon":46.7846127,"elevationM":630},{"id":"node:12682373405","kind":"peak","name":"Azadlı təpəsi","lat":40.014426,"lon":46.8337622,"elevationM":720},{"id":"node:12688797587","kind":"peak","name":"Səngərtəpə","lat":40.1925451,"lon":46.7949933,"elevationM":730},{"id":"node:12688825573","kind":"peak","name":"Qəmkeş təpə","lat":40.2392807,"lon":46.7868875,"elevationM":780},{"id":"node:12692012375","kind":"peak","name":"Ulduztəpə","lat":40.1189914,"lon":46.7796883,"elevationM":910},{"id":"node:12700585285","kind":"peak","name":"Qazara təpəsi","lat":40.1362219,"lon":46.6150764,"elevationM":960},{"id":"node:12700596428","kind":"peak","name":"Tuğqut dağı","lat":40.1221738,"lon":46.6363296,"elevationM":1250},{"id":"node:12705831734","kind":"peak","name":"Gəncə dağı","lat":40.0605297,"lon":46.5158065,"elevationM":1450},{"id":"node:12705833699","kind":"peak","name":"Həsəncəl dağı","lat":40.0697506,"lon":46.5569863,"elevationM":1450},{"id":"node:12706046952","kind":"peak","name":"Anabənd dağı","lat":40.0050583,"lon":46.7855986,"elevationM":1150},{"id":"node:12729493884","kind":"peak","name":"Ongəlçəkən dağı","lat":40.0662011,"lon":46.7374037,"elevationM":1200},{"id":"node:12729493885","kind":"peak","name":"Küledek zirvəsi","lat":40.0377884,"lon":46.5461197,"elevationM":1220},{"id":"node:12729766304","kind":"peak","name":"Gərravənd dağı","lat":40.0812947,"lon":46.7272474,"elevationM":1080},{"id":"node:12729911824","kind":"peak","name":"Sazbaday dağı","lat":40.0333734,"lon":46.5497761,"elevationM":1300},{"id":"node:12731774406","kind":"peak","name":"Quşqonmaz dağı","lat":40.1175402,"lon":46.3106846,"elevationM":2150},{"id":"node:12731788901","kind":"peak","name":"Urum dağı","lat":40.1130425,"lon":46.6683805,"elevationM":1170},{"id":"node:12731901703","kind":"peak","name":"Gəngər təpəsi","lat":40.1011387,"lon":46.8678386,"elevationM":null},{"id":"node:12734542415","kind":"peak","name":"Ləmbəran dağı","lat":40.026207,"lon":46.6825223,"elevationM":1030},{"id":"node:12736443633","kind":"peak","name":"Bayraqtəpə","lat":40.0091871,"lon":46.8920759,"elevationM":null},{"id":"node:12736443634","kind":"peak","name":"Bala təpə","lat":40.017557,"lon":46.8851578,"elevationM":null},{"id":"node:12736443635","kind":"peak","name":"Baş təpə","lat":40.0240377,"lon":46.8763132,"elevationM":null},{"id":"node:12736551462","kind":"peak","name":"Şəhərəgedər dağı","lat":40.0493788,"lon":46.4005062,"elevationM":2050},{"id":"node:12787813790","kind":"peak","name":"Qolandağ","lat":40.5002634,"lon":46.4782439,"elevationM":1239},{"id":"node:13374877632","kind":"peak","name":"Qlobus yüksəkliyi-Ağdərə","lat":40.171672,"lon":46.8055837,"elevationM":820}]}