{"tileKey":"la_p21_lo_m13","version":"v1-1775891056926","entries":[{"id":"node:7734435478","kind":"peak","name":"Guelb el Kemmoûn","lat":21.272972,"lon":-12.96408,"elevationM":null},{"id":"node:7734441890","kind":"peak","name":"Gleïbât el Mouçdâr","lat":21.61245,"lon":-12.933185,"elevationM":null},{"id":"node:7734441900","kind":"peak","name":"Guelb el Gheïcha","lat":21.801187,"lon":-12.864389,"elevationM":null},{"id":"node:7734442075","kind":"peak","name":"Guelb Akchît","lat":21.735314,"lon":-12.939033,"elevationM":null},{"id":"node:7734442104","kind":"peak","name":"Guelb Arâch","lat":21.311615,"lon":-12.953233,"elevationM":null},{"id":"node:7734442126","kind":"peak","name":"Zmeïla el Beïḍa","lat":21.670952,"lon":-12.769497,"elevationM":null},{"id":"node:7734442129","kind":"peak","name":"Guelb Berret","lat":21.3957046,"lon":-12.9467599,"elevationM":null},{"id":"node:7734442179","kind":"peak","name":"Stal Diago ستل دأغو","lat":21.566667,"lon":-13,"elevationM":null},{"id":"node:7734442243","kind":"peak","name":"Guelb el Ḥâlma","lat":21.830179,"lon":-12.812099,"elevationM":null},{"id":"node:7734442278","kind":"peak","name":"Zmeïla el Khaḍra","lat":21.604366,"lon":-12.790784,"elevationM":null},{"id":"node:7734442381","kind":"peak","name":"Gleïbât Oumm Khamlé","lat":21.616465,"lon":-12.846052,"elevationM":null},{"id":"node:7734442425","kind":"peak","name":"Guelb et Tâouorṭa","lat":21.4393116,"lon":-12.919388,"elevationM":null},{"id":"node:7734442447","kind":"peak","name":"Guelb Tikit","lat":21.716667,"lon":-12.8,"elevationM":null},{"id":"node:7740593345","kind":"peak","name":"’Âïdîyât el Grâne","lat":21.252425,"lon":-12.890811,"elevationM":null}]}