{"tileKey":"la_p59_lo_p142","version":"v1-1775891056926","entries":[{"id":"node:3673825432","kind":"peak","name":"Гремучая гора","lat":59.5234595,"lon":142.2300948,"elevationM":null},{"id":"node:3673825437","kind":"peak","name":"Молодёжная сопка","lat":59.5283541,"lon":142.9982004,"elevationM":null},{"id":"node:3673825440","kind":"peak","name":"Скальная гора","lat":59.3868545,"lon":142.0372859,"elevationM":null},{"id":"node:3673825445","kind":"peak","name":"гора Авлекит","lat":59.5385103,"lon":142.1056755,"elevationM":null},{"id":"node:3673825467","kind":"peak","name":"гора Падун","lat":59.4008922,"lon":142.0388659,"elevationM":null}]}