{"tileKey":"la_p43_lo_m110","version":"v1-1775891056926","entries":[{"id":"node:356499000","kind":"peak","name":"Bald Mountain","lat":43.519119,"lon":-109.744604,"elevationM":2989},{"id":"node:356499003","kind":"peak","name":"Bald Mountain","lat":43.8691223,"lon":-109.2820884,"elevationM":3179},{"id":"node:356499186","kind":"peak","name":"Bear Peak","lat":43.0699565,"lon":-109.2184665,"elevationM":3213},{"id":"node:356499466","kind":"peak","name":"Black Mountain","lat":43.5394013,"lon":-109.2165244,"elevationM":3100},{"id":"node:356499473","kind":"peak","name":"Black Mountain","lat":43.6382904,"lon":-109.5162638,"elevationM":2516},{"id":"node:356499615","kind":"peak","name":"Bold Mountain","lat":43.2149561,"lon":-109.3801399,"elevationM":3249},{"id":"node:356500370","kind":"peak","name":"Cottonwood Peak","lat":43.8207885,"lon":-109.0631886,"elevationM":3282},{"id":"node:356500384","kind":"peak","name":"County Peak","lat":43.7727341,"lon":-109.2534735,"elevationM":3668},{"id":"node:356500453","kind":"peak","name":"Crow Mountain","lat":43.1677344,"lon":-109.3087479,"elevationM":3149},{"id":"node:356500455","kind":"peak","name":"Crow Mountain","lat":43.5671792,"lon":-109.2729163,"elevationM":2855},{"id":"node:356500457","kind":"peak","name":"Crowheart Butte","lat":43.3102344,"lon":-109.0948522,"elevationM":2064},{"id":"node:356500573","kind":"peak","name":"Devils Graveyard","lat":43.878011,"lon":-109.5757159,"elevationM":3509},{"id":"node:356500654","kind":"peak","name":"Dollar Mountain","lat":43.8655116,"lon":-109.3732046,"elevationM":3617},{"id":"node:356500714","kind":"peak","name":"Downs Mountain","lat":43.3099514,"lon":-109.6723753,"elevationM":4063},{"id":"node:356500775","kind":"peak","name":"Dunrud Peak","lat":43.8574561,"lon":-109.3676485,"elevationM":3647},{"id":"node:356500778","kind":"peak","name":"Duran Peak","lat":43.0746705,"lon":-109.7154289,"elevationM":3238},{"id":"node:356500929","kind":"peak","name":"Elbow Peak","lat":43.1127268,"lon":-109.7034845,"elevationM":3639},{"id":"node:356501028","kind":"peak","name":"Entigo Peak","lat":43.0277342,"lon":-109.257634,"elevationM":3447},{"id":"node:356501575","kind":"peak","name":"Guiterrez Peak","lat":43.0830041,"lon":-109.7093176,"elevationM":3456},{"id":"node:356501788","kind":"peak","name":"Horse Mountain","lat":43.0146784,"lon":-109.3656929,"elevationM":3652},{"id":"node:356501980","kind":"peak","name":"Hunters Hump","lat":43.3232841,"lon":-109.7051545,"elevationM":3821},{"id":"node:356502320","kind":"peak","name":"Little Horse Peak","lat":43.0613454,"lon":-109.1931879,"elevationM":2996},{"id":"node:356502336","kind":"peak","name":"Castle Rocks","lat":43.7488442,"lon":-109.0423531,"elevationM":2944},{"id":"node:356502435","kind":"peak","name":"Lookout Mountain","lat":43.0432897,"lon":-109.2806904,"elevationM":3515},{"id":"node:356502448","kind":"peak","name":"Lost Ranger Top","lat":43.9902302,"lon":-109.6171107,"elevationM":3530},{"id":"node:356502460","kind":"peak","name":"Lower Table","lat":43.511345,"lon":-109.3912558,"elevationM":2398},{"id":"node:356502532","kind":"peak","name":"Maverick Spring Dome","lat":43.522733,"lon":-109.0084608,"elevationM":2265},{"id":"node:356502634","kind":"peak","name":"Mineral Mountain","lat":43.8677333,"lon":-109.2551424,"elevationM":3480},{"id":"node:356502797","kind":"peak","name":"Northwest Peak","lat":43.3121733,"lon":-109.6840424,"elevationM":3984},{"id":"node:356503040","kind":"peak","name":"Photographers Point","lat":43.0252264,"lon":-109.695149,"elevationM":3076},{"id":"node:356503498","kind":"peak","name":"Red Peak","lat":43.5727339,"lon":-109.1254102,"elevationM":2463},{"id":"node:356503525","kind":"peak","name":"Red Tops","lat":43.9663419,"lon":-109.612943,"elevationM":3717},{"id":"node:356504243","kind":"peak","name":"Mount Sniffel","lat":43.8644001,"lon":-109.3020895,"elevationM":3237},{"id":"node:356504320","kind":"peak","name":"Spar Mountain","lat":43.8580113,"lon":-109.282366,"elevationM":3638},{"id":"node:356504341","kind":"peak","name":"Spider Peak","lat":43.3243963,"lon":-109.6512637,"elevationM":3711},{"id":"node:356504379","kind":"peak","name":"Spring Mountain","lat":43.6213445,"lon":-109.0662417,"elevationM":2954},{"id":"node:356504481","kind":"peak","name":"Steamboat Rock","lat":43.7641242,"lon":-109.3701463,"elevationM":3377},{"id":"node:356504737","kind":"peak","name":"The Guardian","lat":43.3496743,"lon":-109.6495974,"elevationM":3406},{"id":"node:356504938","kind":"peak","name":"Torrey Peak","lat":43.3527304,"lon":-109.6251521,"elevationM":3680},{"id":"node:356505114","kind":"peak","name":"Tybo Peak","lat":43.0677343,"lon":-109.268468,"elevationM":3378},{"id":"node:356505163","kind":"peak","name":"Upper Table","lat":43.5755122,"lon":-109.3945899,"elevationM":2482},{"id":"node:356505593","kind":"peak","name":"Mount Windy","lat":43.0755122,"lon":-109.2681902,"elevationM":3427},{"id":"node:356505646","kind":"peak","name":"Yukon Peak","lat":43.2655062,"lon":-109.6901528,"elevationM":3884},{"id":"node:356505699","kind":"peak","name":"Teapot Butte","lat":43.371067,"lon":-109.0056825,"elevationM":1969},{"id":"node:356505794","kind":"peak","name":"Coffin Butte","lat":43.7943975,"lon":-109.8721167,"elevationM":3445},{"id":"node:356505802","kind":"peak","name":"American Legion Peak","lat":43.1471307,"lon":-109.6655307,"elevationM":4002},{"id":"node:356505809","kind":"peak","name":"Angel Peak","lat":43.0213428,"lon":-109.5545883,"elevationM":3767},{"id":"node:356505825","kind":"peak","name":"Arrow Mountain","lat":43.3732873,"lon":-109.55765,"elevationM":3521},{"id":"node:356505826","kind":"peak","name":"Mount Arrowhead","lat":43.1445162,"lon":-109.6774182,"elevationM":3930},{"id":"node:356505829","kind":"peak","name":"Ash Mountain","lat":43.9988406,"lon":-109.6579467,"elevationM":3395},{"id":"node:356505843","kind":"peak","name":"Bald Mountain","lat":43.6310673,"lon":-109.1509674,"elevationM":3054},{"id":"node:356505866","kind":"peak","name":"Bastion Peak","lat":43.2060619,"lon":-109.6648732,"elevationM":4103},{"id":"node:356505872","kind":"peak","name":"Battleship Mountain","lat":43.253835,"lon":-109.8973832,"elevationM":3521},{"id":"node:356505874","kind":"peak","name":"Battrum Mountain","lat":43.6313437,"lon":-109.692104,"elevationM":2541},{"id":"node:356505897","kind":"peak","name":"Big Flattop Mountain","lat":43.0638336,"lon":-109.8715455,"elevationM":2840},{"id":"node:356505900","kind":"peak","name":"Big Sheep Mountain","lat":43.2752245,"lon":-109.8782162,"elevationM":3533},{"id":"node:356505919","kind":"peak","name":"Bobs Towers","lat":43.1618956,"lon":-109.6434829,"elevationM":3963},{"id":"node:356505925","kind":"peak","name":"Bow Mountain","lat":43.1441166,"lon":-109.683762,"elevationM":3957},{"id":"node:356505933","kind":"peak","name":"Brimstone Mountain","lat":43.1480053,"lon":-109.6898734,"elevationM":3878},{"id":"node:356505936","kind":"peak","name":"Brown Mountain","lat":43.8941221,"lon":-109.3145909,"elevationM":3703},{"id":"node:356505956","kind":"peak","name":"Mount Burwell","lat":43.9274551,"lon":-109.44071,"elevationM":3735},{"id":"node:356505979","kind":"peak","name":"Chief Mountain","lat":43.9149551,"lon":-109.284034,"elevationM":3651},{"id":"node:356506000","kind":"peak","name":"Coffman Butte","lat":43.8663443,"lon":-109.5971056,"elevationM":3282},{"id":"node:356506022","kind":"peak","name":"Crescent Mountain","lat":43.8321749,"lon":-109.8557282,"elevationM":3430},{"id":"node:356506023","kind":"peak","name":"Crescent Top","lat":43.8702338,"lon":-109.5398806,"elevationM":3541},{"id":"node:356506025","kind":"peak","name":"Mount Crosby","lat":43.8769001,"lon":-109.3337582,"elevationM":3791},{"id":"node:356506046","kind":"peak","name":"Desolation Peak","lat":43.2016171,"lon":-109.6793181,"elevationM":4000},{"id":"node:356506053","kind":"peak","name":"Dinwoody Peak","lat":43.2857883,"lon":-109.4998682,"elevationM":3538},{"id":"node:356506058","kind":"peak","name":"Dome Mountain","lat":43.7580118,"lon":-109.2090268,"elevationM":3791},{"id":"node:356506059","kind":"peak","name":"Dome Peak","lat":43.1602236,"lon":-109.8618246,"elevationM":3422},{"id":"node:356506061","kind":"peak","name":"Doublet Peak","lat":43.1632849,"lon":-109.6295934,"elevationM":4143},{"id":"node:356506062","kind":"peak","name":"Doubletop Mountain","lat":43.1280291,"lon":-109.8318265,"elevationM":3274},{"id":"node:356506063","kind":"peak","name":"Douglas Peak","lat":43.064955,"lon":-109.522921,"elevationM":3713},{"id":"node:356506073","kind":"peak","name":"Dundee Mountain","lat":43.8957885,"lon":-109.2434759,"elevationM":3597},{"id":"node:356506075","kind":"peak","name":"E A Mountain","lat":43.6291221,"lon":-109.6429353,"elevationM":2589},{"id":"node:356506085","kind":"peak","name":"East Sentinel","lat":43.1774518,"lon":-109.6245934,"elevationM":3897},{"id":"node:356506090","kind":"peak","name":"Elephant Head","lat":43.088563,"lon":-109.6101471,"elevationM":3710},{"id":"node:356506115","kind":"peak","name":"Mount Febbas","lat":43.1760635,"lon":-109.6015369,"elevationM":4100},{"id":"node:356506122","kind":"peak","name":"Fish Lake Mountain","lat":43.5491154,"lon":-109.9640596,"elevationM":3065},{"id":"node:356506130","kind":"peak","name":"Flat Top Mountain","lat":43.2918933,"lon":-109.7796014,"elevationM":3602},{"id":"node:356506146","kind":"peak","name":"Fourts Horn","lat":43.2230086,"lon":-109.5851481,"elevationM":3609},{"id":"node:356506147","kind":"peak","name":"Francs Peak","lat":43.9612808,"lon":-109.3392312,"elevationM":3801},{"id":"node:356506151","kind":"peak","name":"Fremont Peak","lat":43.124674,"lon":-109.6179257,"elevationM":4177},{"id":"node:356506158","kind":"peak","name":"Gannett Peak","lat":43.1843954,"lon":-109.6540391,"elevationM":4206},{"id":"node:356506162","kind":"peak","name":"Glover Peak","lat":43.1588366,"lon":-109.7645987,"elevationM":3658},{"id":"node:356506206","kind":"peak","name":"Gypsum Hill","lat":43.2354996,"lon":-109.9901643,"elevationM":2574},{"id":"node:356506207","kind":"peak","name":"Gypsum Mountain","lat":43.2716128,"lon":-109.9059951,"elevationM":3501},{"id":"node:356506220","kind":"peak","name":"Hardluck Mountain","lat":43.9807854,"lon":-109.6571127,"elevationM":3579},{"id":"node:356506225","kind":"peak","name":"Hat Butte","lat":43.6002301,"lon":-109.819887,"elevationM":2547},{"id":"node:356506233","kind":"peak","name":"Heap Steep Peak","lat":43.1741186,"lon":-109.62126,"elevationM":3917},{"id":"node:356506236","kind":"peak","name":"Mount Helen","lat":43.1510626,"lon":-109.6309822,"elevationM":4128},{"id":"node:356506238","kind":"peak","name":"Henderson Peak","lat":43.1374505,"lon":-109.6609832,"elevationM":3977},{"id":"node:356506310","kind":"peak","name":"Jackson Peak","lat":43.1193967,"lon":-109.6032028,"elevationM":4114},{"id":"node:356506316","kind":"peak","name":"Jojo Mountain","lat":43.9627324,"lon":-109.2784793,"elevationM":3826},{"id":"node:356506320","kind":"peak","name":"Kendall Mountain","lat":43.1849452,"lon":-109.9084935,"elevationM":3360},{"id":"node:356506322","kind":"peak","name":"Mount Kent","lat":43.7499589,"lon":-109.4829299,"elevationM":3347},{"id":"node:356506327","kind":"peak","name":"Klondike Peak","lat":43.2363393,"lon":-109.6879301,"elevationM":3977},{"id":"node:356506329","kind":"peak","name":"Knife Point Mountain","lat":43.0996753,"lon":-109.5768126,"elevationM":3891},{"id":"node:356506330","kind":"peak","name":"Mount Koven","lat":43.1949509,"lon":-109.6573728,"elevationM":3975},{"id":"node:356506332","kind":"peak","name":"Ladd Peak","lat":43.1752274,"lon":-109.7020965,"elevationM":3946},{"id":"node:356506355","kind":"peak","name":"Mount Lester","lat":43.0657847,"lon":-109.6232028,"elevationM":3734},{"id":"node:356506361","kind":"peak","name":"Little Flattop Mountain","lat":43.0739184,"lon":-109.9305194,"elevationM":2583},{"id":"node:356506370","kind":"peak","name":"Little Sheep Mountain","lat":43.3196684,"lon":-109.9309972,"elevationM":3113},{"id":"node:356506394","kind":"peak","name":"Lost Eagle Peak","lat":43.26106,"lon":-109.7607111,"elevationM":3607},{"id":"node:356506471","kind":"peak","name":"Middle Mountain","lat":43.3766193,"lon":-109.6309862,"elevationM":3618},{"id":"node:356506487","kind":"peak","name":"Miriam Peak","lat":43.1630069,"lon":-109.6409828,"elevationM":3994},{"id":"node:356506506","kind":"peak","name":"Muddy Monument Peak","lat":43.6699564,"lon":-109.1984697,"elevationM":3550},{"id":"node:356506525","kind":"peak","name":"New Fork Lookout Point","lat":43.1440995,"lon":-109.9399007,"elevationM":2926},{"id":"node:356506536","kind":"peak","name":"Noon Rocks","lat":43.4543975,"lon":-109.6320988,"elevationM":3158},{"id":"node:356506549","kind":"peak","name":"Mount Oeneis","lat":43.1452266,"lon":-109.7195967,"elevationM":3726},{"id":"node:356506550","kind":"peak","name":"Osborn Mountain","lat":43.3241158,"lon":-109.7876578,"elevationM":3600},{"id":"node:356506584","kind":"peak","name":"Pedestal Peak","lat":43.2213396,"lon":-109.674596,"elevationM":4064},{"id":"node:356506586","kind":"peak","name":"Pendergraft Peak","lat":43.8849508,"lon":-109.951845,"elevationM":3227},{"id":"node:356506594","kind":"peak","name":"Philsmith Peak","lat":43.2260627,"lon":-109.6393169,"elevationM":3841},{"id":"node:356506607","kind":"peak","name":"Pine Mountain","lat":43.0757795,"lon":-109.797932,"elevationM":3151},{"id":"node:356506609","kind":"peak","name":"Pinnacle Buttes","lat":43.7485631,"lon":-109.9576755,"elevationM":3504},{"id":"node:356506641","kind":"peak","name":"Pyramid Peak","lat":43.9368993,"lon":-109.3807068,"elevationM":3574},{"id":"node:356506643","kind":"peak","name":"Mount Quintet","lat":43.0499553,"lon":-109.5131982,"elevationM":3617},{"id":"node:356506647","kind":"peak","name":"Raggedtop Mountain","lat":43.8366214,"lon":-109.7065544,"elevationM":3605},{"id":"node:356506650","kind":"peak","name":"Rampart Peak","lat":43.2024508,"lon":-109.6662621,"elevationM":4054},{"id":"node:356506653","kind":"peak","name":"Ramshorn Peak","lat":43.7221781,"lon":-109.7273848,"elevationM":3509},{"id":"node:356506672","kind":"peak","name":"Red Hill","lat":43.2641109,"lon":-109.9948874,"elevationM":2720},{"id":"node:356506720","kind":"peak","name":"Mount Sacagawea","lat":43.1366183,"lon":-109.6248629,"elevationM":4119},{"id":"node:356506727","kind":"peak","name":"Saltlick Mountain","lat":43.2349455,"lon":-109.9162725,"elevationM":3351},{"id":"node:356506728","kind":"peak","name":"Sand Butte","lat":43.5932846,"lon":-109.863778,"elevationM":2584},{"id":"node:356506748","kind":"peak","name":"Shale Mountain","lat":43.3746734,"lon":-109.7076555,"elevationM":3770},{"id":"node:356506794","kind":"peak","name":"Sky Pilot Peak","lat":43.1355044,"lon":-109.7154297,"elevationM":3694},{"id":"node:356506796","kind":"peak","name":"Skyline Peak","lat":43.1630067,"lon":-109.6462608,"elevationM":3917},{"id":"node:356506811","kind":"peak","name":"Mount Solitude","lat":43.20495,"lon":-109.6954299,"elevationM":3832},{"id":"node:356506822","kind":"peak","name":"Split Mountain","lat":43.164117,"lon":-109.6723729,"elevationM":3989},{"id":"node:356506824","kind":"peak","name":"Square Top Mountain","lat":43.383284,"lon":-109.7437682,"elevationM":3530},{"id":"node:356506828","kind":"peak","name":"Standard Peak","lat":43.8252336,"lon":-109.2445854,"elevationM":3619},{"id":"node:356506848","kind":"peak","name":"Stroud Peak","lat":43.1482827,"lon":-109.7007071,"elevationM":3708},{"id":"node:356506872","kind":"peak","name":"Sulphur Peak","lat":43.1499497,"lon":-109.68904,"elevationM":3904},{"id":"node:356506881","kind":"peak","name":"Sunbeam Peak","lat":43.1705076,"lon":-109.6176486,"elevationM":4092},{"id":"node:356506924","kind":"peak","name":"Table Mountain","lat":43.4010665,"lon":-109.4532017,"elevationM":2250},{"id":"node:356506926","kind":"peak","name":"Table Mountain","lat":43.5510664,"lon":-109.5412639,"elevationM":2475},{"id":"node:356506979","kind":"peak","name":"The Fortress","lat":43.0805101,"lon":-109.5340328,"elevationM":3625},{"id":"node:356506995","kind":"peak","name":"The Ramshorn","lat":43.767178,"lon":-109.7440534,"elevationM":3625},{"id":"node:356507004","kind":"peak","name":"The Sphinx","lat":43.1655067,"lon":-109.6479275,"elevationM":4024},{"id":"node:356507039","kind":"peak","name":"Thorofare Mountain","lat":43.9813394,"lon":-109.8393435,"elevationM":3663},{"id":"node:356507097","kind":"peak","name":"Turret Peak","lat":43.1646741,"lon":-109.6187597,"elevationM":4147},{"id":"node:356507115","kind":"peak","name":"Twin Peaks","lat":43.1599507,"lon":-109.6584834,"elevationM":3965},{"id":"node:356507118","kind":"peak","name":"Twin Peaks","lat":43.7805115,"lon":-109.1829151,"elevationM":3602},{"id":"node:356507133","kind":"peak","name":"Union Peak","lat":43.4555063,"lon":-109.7876602,"elevationM":3501},{"id":"node:356507155","kind":"peak","name":"Wall Mountain","lat":43.9193963,"lon":-109.802951,"elevationM":3498},{"id":"node:356507162","kind":"peak","name":"Warm Spring Mountain","lat":43.5571743,"lon":-109.7912736,"elevationM":2894},{"id":"node:356507164","kind":"peak","name":"Mount Warren","lat":43.1635627,"lon":-109.6279267,"elevationM":4093},{"id":"node:356507175","kind":"peak","name":"West Sentinel","lat":43.1896737,"lon":-109.6357052,"elevationM":3829},{"id":"node:356507180","kind":"peak","name":"Whiskey Mountain","lat":43.4302309,"lon":-109.6226535,"elevationM":3394},{"id":"node:356507182","kind":"peak","name":"Mount Whitecap","lat":43.1685609,"lon":-109.692096,"elevationM":3952},{"id":"node:356507183","kind":"peak","name":"Wiggins Peak","lat":43.8205126,"lon":-109.4190393,"elevationM":3713},{"id":"node:356507192","kind":"peak","name":"Windy Mountain","lat":43.4924525,"lon":-109.6959907,"elevationM":3016},{"id":"node:356507194","kind":"peak","name":"Windy Peak","lat":43.0374562,"lon":-109.3762491,"elevationM":3529},{"id":"node:356507196","kind":"peak","name":"Winifred Peak","lat":43.1510617,"lon":-109.6618167,"elevationM":3886},{"id":"node:356507197","kind":"peak","name":"Wittombona Peak","lat":43.0810673,"lon":-109.3754161,"elevationM":2897},{"id":"node:356507208","kind":"peak","name":"Mount Woodrow Wilson","lat":43.1668954,"lon":-109.6515387,"elevationM":4094},{"id":"node:356507214","kind":"peak","name":"Younts Peak","lat":43.9821725,"lon":-109.866556,"elevationM":3691},{"id":"node:356507250","kind":"peak","name":"Du Noir Butte","lat":43.7913418,"lon":-109.8860062,"elevationM":3345},{"id":"node:356507286","kind":"peak","name":"Bears Tooth","lat":43.2668963,"lon":-109.6365397,"elevationM":3503},{"id":"node:356507458","kind":"peak","name":"Boedeker Butte","lat":43.7646794,"lon":-109.6326594,"elevationM":3193},{"id":"node:356507459","kind":"peak","name":"Cathedral Peak","lat":43.799956,"lon":-109.6671067,"elevationM":3399},{"id":"node:356510995","kind":"peak","name":"Dinwoody Peak","lat":43.1635626,"lon":-109.6318157,"elevationM":4115},{"id":"node:356510998","kind":"peak","name":"Harrower Peak","lat":43.0941192,"lon":-109.5951465,"elevationM":3935},{"id":"node:356511227","kind":"peak","name":"Flagstone Peak","lat":43.2152284,"lon":-109.6757071,"elevationM":4079},{"id":"node:356511244","kind":"peak","name":"Squaretop Mountain","lat":43.2241146,"lon":-109.7901561,"elevationM":3567},{"id":"node:8069444860","kind":"peak","name":"Spring Mountain","lat":43.6528605,"lon":-109.5832157,"elevationM":null},{"id":"node:8292414742","kind":"peak","name":"Goodwin Mountain","lat":43.5324995,"lon":-109.6903894,"elevationM":2467},{"id":"node:8810195647","kind":"peak","name":"Buffalo Plateau","lat":43.9002298,"lon":-109.9068954,"elevationM":3261},{"id":"node:8810195648","kind":"peak","name":"Huff Peak","lat":43.921706,"lon":-109.9581723,"elevationM":3096}]}