{"tileKey":"la_p4_lo_m73","version":"v1-1775891056926","entries":[{"id":"node:618029711","kind":"peak","name":"Mesa de Caribayona","lat":4.516667,"lon":-72.766667,"elevationM":182},{"id":"node:618029735","kind":"peak","name":"Loma Silbadero","lat":4.877778,"lon":-72.965833,"elevationM":953},{"id":"node:703249822","kind":"peak","name":"Cerro El Palmito","lat":4.9210872,"lon":-72.9867287,"elevationM":1383},{"id":"node:703249829","kind":"peak","name":"Loma Buenavista","lat":4.8315088,"lon":-72.8711837,"elevationM":507},{"id":"node:703476770","kind":"peak","name":"Cerro El Morroco","lat":4.0189169,"lon":-72.910358,"elevationM":198},{"id":"node:703476771","kind":"peak","name":"Cerro La Guaca","lat":4.0146534,"lon":-72.9374046,"elevationM":207},{"id":"node:703476772","kind":"peak","name":"Cerro Cojucha","lat":4.0185172,"lon":-72.8941034,"elevationM":214},{"id":"node:703476810","kind":"peak","name":"Alto De Menegua","lat":4.1204475,"lon":-72.8886466,"elevationM":231},{"id":"node:703477139","kind":"peak","name":"Alto De Maicao","lat":4.1626746,"lon":-72.0265597,"elevationM":221}]}