{"tileKey":"la_p48_lo_m101","version":"v1-1775891056926","entries":[{"id":"node:357752381","kind":"peak","name":"Bald Butte","lat":48.1394468,"lon":-100.3468047,"elevationM":521},{"id":"node:357752939","kind":"peak","name":"Boundary Butte","lat":48.9994588,"lon":-100.4295915,"elevationM":765},{"id":"node:357753094","kind":"peak","name":"Buffalo Lodge Butte","lat":48.3261182,"lon":-100.770417,"elevationM":485},{"id":"node:357753152","kind":"peak","name":"Butte Saint Paul","lat":48.8516696,"lon":-100.1959674,"elevationM":695},{"id":"node:357753576","kind":"peak","name":"Copperdahl Hill","lat":48.2291687,"lon":-100.4443038,"elevationM":478},{"id":"node:357757094","kind":"peak","name":"Mikes Peak","lat":48.2152861,"lon":-100.7948647,"elevationM":490},{"id":"node:4461531369","kind":"peak","name":"Turtle Mountain","lat":48.9865953,"lon":-100.0349564,"elevationM":735},{"id":"node:12566234799","kind":"peak","name":"Bison","lat":48.064286,"lon":-100.2698365,"elevationM":512}]}