{"tileKey":"la_p68_lo_p31","version":"v1-1775891056926","entries":[{"id":"node:5188767579","kind":"peak","name":"Мутюшкевлик Вайвишь","lat":68.9668024,"lon":31.9801711,"elevationM":381},{"id":"node:5188858818","kind":"peak","name":"Кошкесвайвишь","lat":68.8833778,"lon":31.7418194,"elevationM":376},{"id":"node:5188867987","kind":"peak","name":"Мотьвайвишь","lat":68.8512962,"lon":31.678369,"elevationM":346},{"id":"node:5188937535","kind":"peak","name":"Реудвыд","lat":68.9287094,"lon":31.6344881,"elevationM":327},{"id":"node:5188972902","kind":"peak","name":"Мал. Мочесвайвишь","lat":68.8691027,"lon":31.6138458,"elevationM":376},{"id":"node:5188972903","kind":"peak","name":"Бол. Мочесвайвишь","lat":68.8806411,"lon":31.5877103,"elevationM":402},{"id":"node:5188995242","kind":"peak","name":"Туолпвайвишь","lat":68.8286402,"lon":31.5504598,"elevationM":395},{"id":"node:5189027809","kind":"peak","name":"Виймвид","lat":68.8037034,"lon":31.6472339,"elevationM":452},{"id":"node:5189063615","kind":"peak","name":"Вертишварь","lat":68.6394609,"lon":31.6358185,"elevationM":114},{"id":"node:5197422178","kind":"peak","name":"Цоовар","lat":68.5234904,"lon":31.1323786,"elevationM":160},{"id":"node:5197445799","kind":"peak","name":"Пуровар","lat":68.5367004,"lon":31.4084959,"elevationM":227},{"id":"node:5197464935","kind":"peak","name":"Три Брата","lat":68.433327,"lon":31.265974,"elevationM":293},{"id":"node:5199691588","kind":"peak","name":"Конья","lat":68.31193,"lon":31.2432718,"elevationM":381},{"id":"node:5199877122","kind":"peak","name":"Курбышварыш","lat":68.3369584,"lon":31.1553812,"elevationM":575},{"id":"node:5207796106","kind":"peak","name":"Чиль","lat":68.322375,"lon":31.0428572,"elevationM":801},{"id":"node:5207798570","kind":"peak","name":"Малая Конья","lat":68.2904778,"lon":31.0048126,"elevationM":859},{"id":"node:5208242531","kind":"peak","name":"Пыршинуайвиш","lat":68.2685844,"lon":31.3778972,"elevationM":709},{"id":"node:5208252014","kind":"peak","name":"Коодыш","lat":68.2326375,"lon":31.4772892,"elevationM":507},{"id":"node:5217546890","kind":"peak","name":"Застейд 1-я","lat":68.1832967,"lon":31.5437758,"elevationM":697},{"id":"node:5217577752","kind":"peak","name":"Застейд 2-я","lat":68.1585464,"lon":31.6132021,"elevationM":724},{"id":"node:5219289530","kind":"peak","name":"Вуим","lat":68.1240415,"lon":31.2727546,"elevationM":943},{"id":"node:5219305082","kind":"peak","name":"Элгорас","lat":68.1024846,"lon":31.5610814,"elevationM":997},{"id":"node:5219307367","kind":"peak","name":"Подасуайв","lat":68.1412645,"lon":31.6677045,"elevationM":609},{"id":"node:5219314265","kind":"peak","name":"Тиртший","lat":68.0684485,"lon":31.6846132,"elevationM":653},{"id":"node:5219322122","kind":"peak","name":"Чортуй","lat":68.0786086,"lon":31.3937974,"elevationM":596},{"id":"node:5219326172","kind":"peak","name":"Савельуайвиш","lat":68.2316986,"lon":31.9252395,"elevationM":462},{"id":"node:5219605659","kind":"peak","name":"Пейдас","lat":68.16895,"lon":31.948328,"elevationM":452},{"id":"node:5219743674","kind":"peak","name":"Пейдасварака","lat":68.1323789,"lon":31.937685,"elevationM":457},{"id":"node:5342305073","kind":"peak","name":"Чермварака","lat":68.7759656,"lon":31.0828328,"elevationM":255},{"id":"node:5342822239","kind":"peak","name":"Пауст","lat":68.6988747,"lon":31.2759304,"elevationM":143},{"id":"node:6632188643","kind":"peak","name":"Попова Тундра","lat":68.9539836,"lon":31.0551738,"elevationM":371},{"id":"node:12313427505","kind":"peak","name":"Леуней","lat":68.1656278,"lon":31.3676898,"elevationM":752},{"id":"node:12313427506","kind":"peak","name":"Леуней","lat":68.1780255,"lon":31.4151355,"elevationM":694}]}