{"tileKey":"la_p51_lo_p1","version":"v1-1775891056926","entries":[{"id":"node:97039511","kind":"peak","name":"Castle Hill","lat":51.0977948,"lon":1.1605457,"elevationM":126},{"id":"node:266386561","kind":"peak","name":"Sugarloaf Hill","lat":51.0979773,"lon":1.1741227,"elevationM":null},{"id":"node:266387709","kind":"peak","name":"Tolsford Hill","lat":51.1028471,"lon":1.0780776,"elevationM":181},{"id":"node:1498786815","kind":"peak","name":"Summerhouse Hill","lat":51.0980186,"lon":1.093422,"elevationM":148},{"id":"node:4811518601","kind":"peak","name":"Cobbs Hill","lat":51.1301859,"lon":1.0437765,"elevationM":180},{"id":"node:8657268557","kind":"peak","name":"Bab's Hill","lat":51.2768258,"lon":1.0979457,"elevationM":null},{"id":"node:9603666779","kind":"peak","name":"Round Hill","lat":51.1015597,"lon":1.1682049,"elevationM":null},{"id":"node:12118880757","kind":"peak","name":"Cherry Garden Hill","lat":51.0987776,"lon":1.152757,"elevationM":null}]}