{"tileKey":"la_p36_lo_p45","version":"v1-1775891056926","entries":[{"id":"node:2480241728","kind":"peak","name":"چیای سەرقولان","lat":36.6379633,"lon":45.035685,"elevationM":null},{"id":"node:2480241730","kind":"peak","name":"سه کانیان","lat":36.642499,"lon":45.073019,"elevationM":null},{"id":"node:2486436025","kind":"peak","name":"دوپەزە","lat":36.168949,"lon":45.320147,"elevationM":null},{"id":"node:2486436288","kind":"peak","name":"بولفات","lat":36.202146,"lon":45.33678,"elevationM":null},{"id":"node:2486439459","kind":"peak","name":"ئاسۆس","lat":36.085732,"lon":45.101882,"elevationM":null},{"id":"node:2486439723","kind":"peak","name":"بردوناز","lat":36.600887,"lon":45.027555,"elevationM":null},{"id":"node:2486439788","kind":"peak","name":"جبل بزركان","lat":36.729815,"lon":45.012551,"elevationM":null},{"id":"node:2486440061","kind":"peak","name":"کوڕکوڕ","lat":36.017355,"lon":45.219476,"elevationM":2520},{"id":"node:2486440799","kind":"peak","name":"جبل ملا كوزهو","lat":36.173799,"lon":45.275962,"elevationM":null},{"id":"node:2486440888","kind":"peak","name":"چیای قەندیل","lat":36.51601,"lon":45.0095563,"elevationM":null},{"id":"node:2486441112","kind":"peak","name":"چیای سەری بی","lat":36.6303137,"lon":45.0699613,"elevationM":null},{"id":"node:2486441356","kind":"peak","name":"سندولان","lat":36.213745,"lon":45.32892,"elevationM":null},{"id":"node:2486441782","kind":"peak","name":"كينك","lat":36.698843,"lon":45.037581,"elevationM":2620},{"id":"node:2486442401","kind":"peak","name":"کوه هوار بر خلا","lat":36.6149371,"lon":45.0619226,"elevationM":null},{"id":"node:2486442435","kind":"peak","name":"خدر شرفان","lat":36.7260406,"lon":45.0365452,"elevationM":3072},{"id":"node:2486442543","kind":"peak","name":"کوه دانی کووز","lat":36.065119,"lon":45.375776,"elevationM":null},{"id":"node:2486442564","kind":"peak","name":"کوه دو بازة","lat":36.184172,"lon":45.298931,"elevationM":null},{"id":"node:2486442636","kind":"peak","name":"زیروینە","lat":36.373757,"lon":45.268626,"elevationM":null},{"id":"node:2486442663","kind":"peak","name":"کم بران","lat":36.7561488,"lon":45.0150004,"elevationM":3331},{"id":"node:2486442803","kind":"peak","name":"بولووگێن","lat":36.182222,"lon":45.0175,"elevationM":null},{"id":"node:2486443040","kind":"peak","name":"قرة عدول یاکة شکتان","lat":36.496964,"lon":45.045002,"elevationM":null},{"id":"node:2486444292","kind":"peak","name":"کانی کەڵوان","lat":36.123533,"lon":45.340974,"elevationM":null},{"id":"node:2486444682","kind":"peak","name":"مەرموون","lat":36.4460726,"lon":45.0795328,"elevationM":2892},{"id":"node:2486445870","kind":"peak","name":"سری کوری بنکی","lat":36.37149,"lon":45.225719,"elevationM":null},{"id":"node:2486445897","kind":"peak","name":"کێلەوکێل","lat":36.395585,"lon":45.156953,"elevationM":null},{"id":"node:2486445910","kind":"peak","name":"سری مرة ستة","lat":36.394364,"lon":45.234639,"elevationM":null},{"id":"node:2486446074","kind":"peak","name":"ساری موزة رنی","lat":36.4000613,"lon":45.2329969,"elevationM":null},{"id":"node:2486447031","kind":"peak","name":"سری موزة رنی","lat":36.3994337,"lon":45.2330604,"elevationM":null},{"id":"node:2488204216","kind":"peak","name":"چیای بەرمەرک سەیر","lat":36.614287,"lon":45.012776,"elevationM":null},{"id":"node:2689592297","kind":"peak","name":"برده زرد","lat":36.9708465,"lon":45.6439318,"elevationM":1430},{"id":"node:2920696749","kind":"peak","name":"قله فرعی","lat":36.55031,"lon":45.00427,"elevationM":3583},{"id":"node:2968024638","kind":"peak","name":"تەخته سنگی","lat":36.4256076,"lon":45.2416507,"elevationM":null},{"id":"node:2968027394","kind":"peak","name":"دوخوم","lat":36.4179156,"lon":45.164039,"elevationM":2710},{"id":"node:3515030795","kind":"peak","name":"کره سوته","lat":36.1526364,"lon":45.9516662,"elevationM":2350},{"id":"node:3515030796","kind":"peak","name":"پیرچوپان","lat":36.1998642,"lon":45.9251328,"elevationM":2330},{"id":"node:4441623329","kind":"peak","name":"مالیموس","lat":36.2383569,"lon":45.3314658,"elevationM":2030},{"id":"node:4753524315","kind":"peak","name":"تاژندره","lat":36.2087537,"lon":45.4121751,"elevationM":2180},{"id":"node:6219104170","kind":"peak","name":"ابراهیم جلال","lat":36.3593008,"lon":45.5329087,"elevationM":2330},{"id":"node:7217008952","kind":"peak","name":"مال بران","lat":36.5038749,"lon":45.1511178,"elevationM":3027},{"id":"node:8741291184","kind":"peak","name":"شیخان","lat":36.4775554,"lon":45.1515342,"elevationM":3035},{"id":"node:8741291185","kind":"peak","name":"میدان استر","lat":36.5325547,"lon":45.4866477,"elevationM":2818},{"id":"node:8741291186","kind":"peak","name":"لندی شیخان","lat":36.6415182,"lon":45.4509919,"elevationM":2788},{"id":"node:10658871778","kind":"peak","name":"بزمرگه سیر","lat":36.5470916,"lon":45.0070103,"elevationM":3587},{"id":"node:10658871779","kind":"peak","name":"مزگه وته","lat":36.5353178,"lon":45.0025512,"elevationM":3572},{"id":"node:10658871781","kind":"peak","name":"قندیل بزرگ (که و کز)","lat":36.5166535,"lon":45.0321232,"elevationM":3437},{"id":"node:10658871782","kind":"peak","name":"قندیل کوچک(حصار)","lat":36.508365,"lon":45.0557874,"elevationM":3274},{"id":"node:11097649818","kind":"peak","name":"قوچی کاران","lat":36.5208901,"lon":45.0118361,"elevationM":3441},{"id":"node:11097767211","kind":"peak","name":"ساوا","lat":36.5383313,"lon":45.0406,"elevationM":3290},{"id":"node:11097767213","kind":"peak","name":"حاجی ابراهیم","lat":36.5640771,"lon":45.0487075,"elevationM":3344},{"id":"node:11118384485","kind":"peak","name":"ساوین","lat":36.4751532,"lon":45.0594745,"elevationM":3167},{"id":"node:11118384486","kind":"peak","name":"قلاع دوکان","lat":36.4233904,"lon":45.0868252,"elevationM":3028},{"id":"node:11118384487","kind":"peak","name":"گلاله","lat":36.4156958,"lon":45.1042284,"elevationM":3068},{"id":"node:11118384488","kind":"peak","name":"پانه سر","lat":36.4050683,"lon":45.1483189,"elevationM":2935},{"id":"node:11118384489","kind":"peak","name":"کاسه بردیان(کۆتراڵ)","lat":36.4293745,"lon":45.2169448,"elevationM":2839},{"id":"node:11118430560","kind":"peak","name":"سپی سنگ","lat":36.5584624,"lon":45.4620216,"elevationM":2666},{"id":"node:11118430561","kind":"peak","name":"قلات شاه","lat":36.6179865,"lon":45.4349849,"elevationM":2716},{"id":"node:11118430562","kind":"peak","name":"سربستان","lat":36.5933947,"lon":45.4203066,"elevationM":2649},{"id":"node:11125959053","kind":"peak","name":"گابه لک","lat":36.5765042,"lon":45.0824791,"elevationM":3079},{"id":"node:11740348814","kind":"peak","name":"تپه سیران برج ئاسمان","lat":36.7754837,"lon":45.7093114,"elevationM":null},{"id":"node:11867216763","kind":"peak","name":"گرگ هلالان","lat":36.5760085,"lon":45.1095978,"elevationM":2957},{"id":"node:12492894526","kind":"peak","name":"قلات هیلم","lat":36.633643,"lon":45.4469642,"elevationM":2765},{"id":"node:12492915525","kind":"peak","name":"قلات مصطفی بگ","lat":36.6303624,"lon":45.3770692,"elevationM":2638},{"id":"node:13006001584","kind":"peak","name":"پاشا ماچ","lat":36.0676221,"lon":45.4241806,"elevationM":2405}]}