{"tileKey":"la_p28_lo_m111","version":"v1-1775891056926","entries":[{"id":"node:7103342422","kind":"peak","name":"Cerro El Venado","lat":28.0379123,"lon":-110.9650628,"elevationM":null},{"id":"node:7103342423","kind":"peak","name":"Cerro El Pato","lat":28.1775451,"lon":-110.9595973,"elevationM":null},{"id":"node:7103342424","kind":"peak","name":"Cerro El Bayo","lat":28.2173128,"lon":-110.9774022,"elevationM":null},{"id":"node:7103342425","kind":"peak","name":"Cerro el Huerfano","lat":28.2435831,"lon":-110.9990381,"elevationM":null},{"id":"node:7103342427","kind":"peak","name":"Cerro Gavilan","lat":28.8216069,"lon":-110.9413283,"elevationM":null},{"id":"node:7103342428","kind":"peak","name":"Cerro Viejo","lat":28.8346342,"lon":-110.9374874,"elevationM":null},{"id":"node:9181020132","kind":"peak","name":"Moscobampo","lat":28.2934007,"lon":-110.457473,"elevationM":null},{"id":"node:10131748630","kind":"peak","name":"Cerro de la Virgen","lat":28.9923559,"lon":-110.9832807,"elevationM":null},{"id":"node:10131748631","kind":"peak","name":"Cerro Agua Lurca","lat":28.9792378,"lon":-110.9454423,"elevationM":null}]}