{"tileKey":"la_p5_lo_m73","version":"v1-1775891056926","entries":[{"id":"node:496173989","kind":"peak","name":"Loma La Mesa","lat":5.933333,"lon":-72.916667,"elevationM":null},{"id":"node:496173993","kind":"peak","name":"Alto Molina","lat":5.8,"lon":-72.883333,"elevationM":null},{"id":"node:618029695","kind":"peak","name":"Cerro Pan de Azúcar","lat":5.283333,"lon":-72.866667,"elevationM":1724},{"id":"node:618030305","kind":"peak","name":"Cerro Zamaricote","lat":5.833333,"lon":-72.033333,"elevationM":1024},{"id":"node:629027755","kind":"peak","name":"Cerro Bacatá","lat":5.333333,"lon":-72.95,"elevationM":null},{"id":"node:629027756","kind":"peak","name":"Par de Suse","lat":5.4337175,"lon":-72.9533474,"elevationM":null},{"id":"node:629027758","kind":"peak","name":"Cerro Visague","lat":5.35,"lon":-72.866667,"elevationM":3343},{"id":"node:629027760","kind":"peak","name":"Cerro Negro","lat":5.6,"lon":-72.8,"elevationM":null},{"id":"node:629027762","kind":"peak","name":"Alto Perico","lat":5.433333,"lon":-72.566667,"elevationM":null},{"id":"node:629027763","kind":"peak","name":"Alto de Comijoque","lat":5.528976,"lon":-72.6724177,"elevationM":null},{"id":"node:629027764","kind":"peak","name":"Cerro Las Mesas","lat":5.6,"lon":-72.75,"elevationM":null},{"id":"node:629027766","kind":"peak","name":"Cerro de La Vieja","lat":5.566667,"lon":-72.533333,"elevationM":null},{"id":"node:629027862","kind":"peak","name":"Alto Los Caballeros","lat":5.95,"lon":-72.866667,"elevationM":null},{"id":"node:629027865","kind":"peak","name":"Alto Peña Blanca","lat":5.666667,"lon":-72.533333,"elevationM":null},{"id":"node:629027866","kind":"peak","name":"Alto Canelas","lat":5.833333,"lon":-72.766667,"elevationM":null},{"id":"node:629027867","kind":"peak","name":"Alto Pregonero","lat":5.883333,"lon":-72.716667,"elevationM":null},{"id":"node:629027868","kind":"peak","name":"Alto Ermitaño","lat":5.9154931,"lon":-72.7091088,"elevationM":null},{"id":"node:703227788","kind":"peak","name":"Cerro Pabellon","lat":5.068552,"lon":-72.9094253,"elevationM":null},{"id":"node:703227910","kind":"peak","name":"Cuchilla El Pabellon","lat":5.3770978,"lon":-72.8541408,"elevationM":null},{"id":"node:703227941","kind":"peak","name":"Loma Donsiqura","lat":5.5191159,"lon":-72.9926765,"elevationM":null},{"id":"node:703227944","kind":"peak","name":"Alto Morigata","lat":5.5050179,"lon":-72.9939437,"elevationM":null},{"id":"node:703227963","kind":"peak","name":"Alto Mocuala","lat":5.5734253,"lon":-72.9862557,"elevationM":2735},{"id":"node:703227964","kind":"peak","name":"Cerro San Bartolo","lat":5.5559316,"lon":-72.9655118,"elevationM":3192},{"id":"node:703227965","kind":"peak","name":"Loma De Cardon","lat":5.5363162,"lon":-72.9754786,"elevationM":3183},{"id":"node:703227966","kind":"peak","name":"Alto Saguata","lat":5.5592246,"lon":-72.9583605,"elevationM":3125},{"id":"node:703227967","kind":"peak","name":"Loma Puntalarga","lat":5.5429478,"lon":-72.948164,"elevationM":3183},{"id":"node:703227969","kind":"peak","name":"Loma De Pascangu","lat":5.5404704,"lon":-72.9699061,"elevationM":3194},{"id":"node:703227972","kind":"peak","name":"Cuchilla Diagota","lat":5.6006946,"lon":-72.9492735,"elevationM":null},{"id":"node:703227976","kind":"peak","name":"Cuchilla San Miguel","lat":5.5983185,"lon":-72.9670149,"elevationM":null},{"id":"node:703227977","kind":"peak","name":"Alto El Picacho","lat":5.6163767,"lon":-72.9614707,"elevationM":null},{"id":"node:703227978","kind":"peak","name":"Alto Palenque","lat":5.6203368,"lon":-72.9750935,"elevationM":null},{"id":"node:703227982","kind":"peak","name":"Serrania De Romero","lat":5.464811,"lon":-72.8067003,"elevationM":3675},{"id":"node:703227983","kind":"peak","name":"Alto Santa Barbara","lat":5.4844252,"lon":-72.8629427,"elevationM":null},{"id":"node:703227986","kind":"peak","name":"Cuchilla Pipe","lat":5.5062851,"lon":-72.8146291,"elevationM":null},{"id":"node:703227992","kind":"peak","name":"Cerros Organos","lat":5.4493827,"lon":-72.8149998,"elevationM":null},{"id":"node:703228024","kind":"peak","name":"Alto El Cajon","lat":5.5458864,"lon":-72.8765655,"elevationM":null},{"id":"node:703228025","kind":"peak","name":"Cerro El Viejo","lat":5.5786262,"lon":-72.8654178,"elevationM":3605},{"id":"node:703228027","kind":"peak","name":"Alto La Copa","lat":5.5998718,"lon":-72.8672751,"elevationM":null},{"id":"node:703228028","kind":"peak","name":"Loma Buenavista","lat":5.5961776,"lon":-72.8807932,"elevationM":null},{"id":"node:703228031","kind":"peak","name":"Cuchilla Maderal","lat":5.5905191,"lon":-72.8648113,"elevationM":null},{"id":"node:703228033","kind":"peak","name":"Alto Llano Grande","lat":5.6095653,"lon":-72.9301065,"elevationM":null},{"id":"node:703228047","kind":"peak","name":"Loma Piedrehierro","lat":5.6201784,"lon":-72.9261463,"elevationM":null},{"id":"node:703228050","kind":"peak","name":"Alto El Pedrisco","lat":5.5374909,"lon":-72.8312616,"elevationM":null},{"id":"node:703228062","kind":"peak","name":"Cuchilla La Ladera","lat":5.5542819,"lon":-72.8368058,"elevationM":null},{"id":"node:703228064","kind":"peak","name":"Cuchilla Minas","lat":5.5722842,"lon":-72.7826611,"elevationM":3214},{"id":"node:703228065","kind":"peak","name":"Cuchilla La Cañada","lat":5.5723401,"lon":-72.8394987,"elevationM":null},{"id":"node:703228068","kind":"peak","name":"Pico Peñasnegras","lat":5.564103,"lon":-72.8090849,"elevationM":null},{"id":"node:703228069","kind":"peak","name":"Loma Iglesia","lat":5.601645,"lon":-72.8013231,"elevationM":null},{"id":"node:703228073","kind":"peak","name":"Cuchilla Peña Leon","lat":5.5999288,"lon":-72.7738889,"elevationM":null},{"id":"node:703228075","kind":"peak","name":"Cuchilla Las Lisas","lat":5.6023596,"lon":-72.7862928,"elevationM":3630},{"id":"node:703228098","kind":"peak","name":"Cuchilla De Sarna","lat":5.611717,"lon":-72.8516265,"elevationM":null},{"id":"node:703228104","kind":"peak","name":"Alto Majacinta","lat":5.3228665,"lon":-72.6842306,"elevationM":null},{"id":"node:703228134","kind":"peak","name":"Cuchilla De Comejoque","lat":5.4280516,"lon":-72.6891108,"elevationM":null},{"id":"node:703228157","kind":"peak","name":"Loma Peña Brava","lat":5.5079638,"lon":-72.625885,"elevationM":null},{"id":"node:703228158","kind":"peak","name":"Cerro De Uchuvitas","lat":5.5414315,"lon":-72.6003628,"elevationM":null},{"id":"node:703228160","kind":"peak","name":"Cuchilla Tunaga","lat":5.5273127,"lon":-72.610025,"elevationM":null},{"id":"node:703228162","kind":"peak","name":"Cuchilla De Candelas","lat":5.570692,"lon":-72.7578655,"elevationM":3610},{"id":"node:703228163","kind":"peak","name":"Cerro Negro","lat":5.5493348,"lon":-72.7612634,"elevationM":3685},{"id":"node:703228164","kind":"peak","name":"Peña De Arnical","lat":5.5550727,"lon":-72.742745,"elevationM":3611},{"id":"node:703228167","kind":"peak","name":"Cuchilla Alto De Enmedio","lat":5.596686,"lon":-72.7573108,"elevationM":null},{"id":"node:703228168","kind":"peak","name":"Cerro Las Mesas","lat":5.6008488,"lon":-72.7405054,"elevationM":null},{"id":"node:703228169","kind":"peak","name":"Peña Las Puntas","lat":5.6109469,"lon":-72.7382404,"elevationM":3672},{"id":"node:703228171","kind":"peak","name":"Cuchilla La Rastra","lat":5.6176542,"lon":-72.6913228,"elevationM":null},{"id":"node:703228178","kind":"peak","name":"Serrania El Bizcocho","lat":5.5401644,"lon":-72.6631376,"elevationM":3090},{"id":"node:703228179","kind":"peak","name":"Alto De La Cruz","lat":5.5748688,"lon":-72.617993,"elevationM":null},{"id":"node:703228186","kind":"peak","name":"Loma La Paja","lat":5.6239755,"lon":-72.6624915,"elevationM":null},{"id":"node:703228190","kind":"peak","name":"Cuchilla Del Desgarradero","lat":5.5844018,"lon":-72.6108929,"elevationM":2060},{"id":"node:703228197","kind":"peak","name":"Cuchilla Comejoque","lat":5.5216015,"lon":-72.5711413,"elevationM":null},{"id":"node:703228201","kind":"peak","name":"Loma Los Santos","lat":5.5186721,"lon":-72.5150206,"elevationM":null},{"id":"node:703228202","kind":"peak","name":"Alto Rionegro","lat":5.5023293,"lon":-72.5155602,"elevationM":null},{"id":"node:703228207","kind":"peak","name":"Cuchilla De Alferez","lat":5.5243767,"lon":-72.4772471,"elevationM":null},{"id":"node:703228209","kind":"peak","name":"Alto Mohan","lat":5.5197514,"lon":-72.4545058,"elevationM":null},{"id":"node:703228212","kind":"peak","name":"Cuchilla De Las Barras","lat":5.4953913,"lon":-72.4856497,"elevationM":null},{"id":"node:703228214","kind":"peak","name":"Cerro De La Vieja","lat":5.5769513,"lon":-72.5304384,"elevationM":null},{"id":"node:703228216","kind":"peak","name":"Loma De Higado","lat":5.5558289,"lon":-72.556186,"elevationM":null},{"id":"node:703228221","kind":"peak","name":"Loma De La Paja","lat":5.5963777,"lon":-72.571758,"elevationM":null},{"id":"node:703228230","kind":"peak","name":"Alto De Saucia","lat":5.6199668,"lon":-72.5877925,"elevationM":null},{"id":"node:703228231","kind":"peak","name":"Cuchilla De Saucia","lat":5.6156499,"lon":-72.5779251,"elevationM":null},{"id":"node:703228238","kind":"peak","name":"Cuchilla De Murillo","lat":5.6017739,"lon":-72.5480146,"elevationM":null},{"id":"node:703228240","kind":"peak","name":"Cerro De Pan De Azucar","lat":5.5835809,"lon":-72.5227295,"elevationM":null},{"id":"node:703228241","kind":"peak","name":"Cerro De Branza","lat":5.5969944,"lon":-72.5151748,"elevationM":null},{"id":"node:703228245","kind":"peak","name":"Cerro El Gaital","lat":5.6164208,"lon":-72.5350637,"elevationM":null},{"id":"node:703228248","kind":"peak","name":"Cuchilla Del Retiro","lat":5.5379443,"lon":-72.4750886,"elevationM":null},{"id":"node:703228252","kind":"peak","name":"Cuchilla De Chaguana","lat":5.5510494,"lon":-72.494515,"elevationM":null},{"id":"node:703228253","kind":"peak","name":"Alto De Retiro","lat":5.5700133,"lon":-72.4425571,"elevationM":null},{"id":"node:703228255","kind":"peak","name":"Alto De La Cruz","lat":5.5771055,"lon":-72.4723134,"elevationM":null},{"id":"node:703228256","kind":"peak","name":"Alto De Chitan","lat":5.5425697,"lon":-72.4551996,"elevationM":null},{"id":"node:703228257","kind":"peak","name":"Cuchilla Estoriange","lat":5.5686257,"lon":-72.4601333,"elevationM":null},{"id":"node:703228266","kind":"peak","name":"Alto De Tibayoque","lat":5.5956068,"lon":-72.4527328,"elevationM":null},{"id":"node:703228274","kind":"peak","name":"Cuchilla Del Guacal","lat":5.5954526,"lon":-72.4946691,"elevationM":null},{"id":"node:703228277","kind":"peak","name":"Cuchilla De Tibayoque","lat":5.5903647,"lon":-72.4437905,"elevationM":null},{"id":"node:703228278","kind":"peak","name":"Alto El Puerto","lat":5.5050672,"lon":-72.3210348,"elevationM":487},{"id":"node:703228279","kind":"peak","name":"Alto La Rusia","lat":5.5307301,"lon":-72.321968,"elevationM":691},{"id":"node:703228282","kind":"peak","name":"Loma Centro De Piedra","lat":5.5735015,"lon":-72.3714273,"elevationM":null},{"id":"node:703228283","kind":"peak","name":"Alto De Padilla","lat":5.5714796,"lon":-72.4149764,"elevationM":null},{"id":"node:703228284","kind":"peak","name":"Cerro Del Zanjon","lat":5.580656,"lon":-72.4016006,"elevationM":null},{"id":"node:703228285","kind":"peak","name":"Cerro De La Antigua","lat":5.5773898,"lon":-72.4059556,"elevationM":null},{"id":"node:703228289","kind":"peak","name":"Alto Goreta","lat":5.6223387,"lon":-72.374849,"elevationM":null},{"id":"node:703228292","kind":"peak","name":"Alto Burinche","lat":5.6077187,"lon":-72.3930464,"elevationM":null},{"id":"node:703228296","kind":"peak","name":"Cerro Guadual","lat":5.5957427,"lon":-72.4062666,"elevationM":null},{"id":"node:703228297","kind":"peak","name":"Cerro Padilla","lat":5.5831445,"lon":-72.4173094,"elevationM":null},{"id":"node:703228298","kind":"peak","name":"Cuchilla De Oriente","lat":5.6053857,"lon":-72.3767154,"elevationM":null},{"id":"node:703228299","kind":"peak","name":"Cerro Piedra Pintada","lat":5.5979201,"lon":-72.3524524,"elevationM":null},{"id":"node:703228304","kind":"peak","name":"Cerro La Magdalena","lat":5.6136289,"lon":-72.3535411,"elevationM":null},{"id":"node:703228306","kind":"peak","name":"Cerro Monserrate","lat":5.5728794,"lon":-72.3328553,"elevationM":null},{"id":"node:703228308","kind":"peak","name":"Cerro Aguacaliente","lat":5.6158064,"lon":-72.2913281,"elevationM":null},{"id":"node:703228311","kind":"peak","name":"Alto El Algarrobo","lat":5.6224943,"lon":-72.3157467,"elevationM":null},{"id":"node:703230188","kind":"peak","name":"Lomas De Golua","lat":5.649325,"lon":-72.9671733,"elevationM":null},{"id":"node:703230196","kind":"peak","name":"Alto La Fragua","lat":5.6301579,"lon":-72.9625795,"elevationM":null},{"id":"node:703230198","kind":"peak","name":"Loma La Quesada","lat":5.6342765,"lon":-72.9738263,"elevationM":null},{"id":"node:703230199","kind":"peak","name":"Alto El Burro","lat":5.6426719,"lon":-72.966698,"elevationM":null},{"id":"node:703230230","kind":"peak","name":"Loma Piedras Negras","lat":5.7289705,"lon":-72.9617504,"elevationM":null},{"id":"node:703230241","kind":"peak","name":"Alto De Culebra","lat":5.7746071,"lon":-72.9549666,"elevationM":null},{"id":"node:703230252","kind":"peak","name":"La Pirámide","lat":5.6679558,"lon":-72.8980476,"elevationM":null},{"id":"node:703230254","kind":"peak","name":"Alto Piedras Gordas","lat":5.6612054,"lon":-72.9036528,"elevationM":null},{"id":"node:703230256","kind":"peak","name":"Alto Moniquira","lat":5.6677,"lon":-72.9389771,"elevationM":null},{"id":"node:703230257","kind":"peak","name":"Alto Los Cinco Grandes","lat":5.6344349,"lon":-72.9461054,"elevationM":null},{"id":"node:703230258","kind":"peak","name":"Loma El Tunal","lat":5.6402959,"lon":-72.9366011,"elevationM":null},{"id":"node:703230271","kind":"peak","name":"Loma Camino Blanco","lat":5.625881,"lon":-72.9446797,"elevationM":null},{"id":"node:703230274","kind":"peak","name":"Alto El Medio","lat":5.6729273,"lon":-72.8878123,"elevationM":null},{"id":"node:703230277","kind":"peak","name":"Alto Volador","lat":5.6745114,"lon":-72.9122067,"elevationM":null},{"id":"node:703230280","kind":"peak","name":"Cerro El Morro","lat":5.6638619,"lon":-72.8033396,"elevationM":3890},{"id":"node:703230282","kind":"peak","name":"Cuchilla El Temblador","lat":5.643397,"lon":-72.8175763,"elevationM":null},{"id":"node:703230283","kind":"peak","name":"Cerro El Salitre","lat":5.6459317,"lon":-72.7967019,"elevationM":null},{"id":"node:703230284","kind":"peak","name":"Peña Las Cintas","lat":5.6431472,"lon":-72.8418748,"elevationM":null},{"id":"node:703230288","kind":"peak","name":"Pico Negro","lat":5.6630311,"lon":-72.7766302,"elevationM":3752},{"id":"node:703230289","kind":"peak","name":"Loma La Laguna","lat":5.6546025,"lon":-72.7817931,"elevationM":null},{"id":"node:703230290","kind":"peak","name":"Cuchilla Balcones","lat":5.6731924,"lon":-72.7907952,"elevationM":null},{"id":"node:703230291","kind":"peak","name":"Cerro Oceta","lat":5.6945345,"lon":-72.79913,"elevationM":3887},{"id":"node:703230297","kind":"peak","name":"Loma Peña Negra","lat":5.6862334,"lon":-72.8562896,"elevationM":null},{"id":"node:703230298","kind":"peak","name":"Alto El Pulpito","lat":5.6716601,"lon":-72.8410827,"elevationM":null},{"id":"node:703230300","kind":"peak","name":"Cuchilla De Balcanes","lat":5.7067954,"lon":-72.7807364,"elevationM":null},{"id":"node:703230302","kind":"peak","name":"Cerro Tacus","lat":5.710875,"lon":-72.7847417,"elevationM":null},{"id":"node:703230305","kind":"peak","name":"Alto De La Cruz","lat":5.7169446,"lon":-72.8661603,"elevationM":null},{"id":"node:703230309","kind":"peak","name":"Cuchilla Santa Barbara","lat":5.7325166,"lon":-72.9006961,"elevationM":null},{"id":"node:703230326","kind":"peak","name":"Alto Molina","lat":5.7926459,"lon":-72.8845074,"elevationM":null},{"id":"node:703230333","kind":"peak","name":"Cuchilla Barronegro","lat":5.7360626,"lon":-72.8599931,"elevationM":null},{"id":"node:703230342","kind":"peak","name":"Alto Llano Grande","lat":5.7471634,"lon":-72.8236072,"elevationM":null},{"id":"node:703230345","kind":"peak","name":"Cerro Diagua","lat":5.7199283,"lon":-72.7991195,"elevationM":null},{"id":"node:703230346","kind":"peak","name":"Cuchilla Peña Negra","lat":5.7100439,"lon":-72.7971688,"elevationM":3885},{"id":"node:703230348","kind":"peak","name":"Loma Gorda","lat":5.7369877,"lon":-72.7909215,"elevationM":null},{"id":"node:703230350","kind":"peak","name":"Loma De Cruz Alta","lat":5.7470093,"lon":-72.7804375,"elevationM":null},{"id":"node:703230353","kind":"peak","name":"Cerro Cucurua","lat":5.7835494,"lon":-72.8226821,"elevationM":null},{"id":"node:703230357","kind":"peak","name":"Cerro Sotara","lat":5.7864787,"lon":-72.7879922,"elevationM":null},{"id":"node:703230359","kind":"peak","name":"Cerro Culatas","lat":5.7921833,"lon":-72.8431878,"elevationM":null},{"id":"node:703230360","kind":"peak","name":"Loma Tumba","lat":5.7574933,"lon":-72.8080353,"elevationM":null},{"id":"node:703230387","kind":"peak","name":"Cerro Tugon","lat":5.8144453,"lon":-72.9662601,"elevationM":null},{"id":"node:703230401","kind":"peak","name":"Loma Volcanes","lat":5.8151558,"lon":-72.9637547,"elevationM":null},{"id":"node:703230415","kind":"peak","name":"Loma Careperra","lat":5.8871568,"lon":-72.9555833,"elevationM":null},{"id":"node:703230448","kind":"peak","name":"Loma El Calvario","lat":5.9679459,"lon":-72.9511122,"elevationM":null},{"id":"node:703230451","kind":"peak","name":"Cerro Tugon","lat":5.8068302,"lon":-72.9420157,"elevationM":null},{"id":"node:703230454","kind":"peak","name":"Loma De Abanda","lat":5.8022049,"lon":-72.930144,"elevationM":null},{"id":"node:703230468","kind":"peak","name":"Loma El Tobo","lat":5.8156183,"lon":-72.8894411,"elevationM":null},{"id":"node:703230469","kind":"peak","name":"Loma Potrero","lat":5.8310361,"lon":-72.8948373,"elevationM":null},{"id":"node:703230470","kind":"peak","name":"Alto Candela","lat":5.8382824,"lon":-72.873715,"elevationM":null},{"id":"node:703230472","kind":"peak","name":"Alto De Torres","lat":5.8199353,"lon":-72.8738691,"elevationM":null},{"id":"node:703230485","kind":"peak","name":"Cuchilla Cerro Negro","lat":5.8879277,"lon":-72.9341526,"elevationM":null},{"id":"node:703230489","kind":"peak","name":"Cerro Cruz De Piedra","lat":5.8851767,"lon":-72.8863251,"elevationM":null},{"id":"node:703230497","kind":"peak","name":"Cerro Ruiz","lat":5.8142307,"lon":-72.7790499,"elevationM":null},{"id":"node:703230508","kind":"peak","name":"Cuchilla Potosi","lat":5.8174685,"lon":-72.8166692,"elevationM":null},{"id":"node:703230511","kind":"peak","name":"Alto Laguna Negra","lat":5.8227105,"lon":-72.7944676,"elevationM":null},{"id":"node:703230514","kind":"peak","name":"Loma Los Perez","lat":5.8532377,"lon":-72.8522843,"elevationM":null},{"id":"node:703230522","kind":"peak","name":"Loma Las Cuadras","lat":5.8763643,"lon":-72.7967803,"elevationM":null},{"id":"node:703230523","kind":"peak","name":"Loma Peña Blanca","lat":5.8809897,"lon":-72.8100396,"elevationM":null},{"id":"node:703230535","kind":"peak","name":"Alto La Capilla","lat":5.9223093,"lon":-72.937082,"elevationM":null},{"id":"node:703230536","kind":"peak","name":"Loma La Mesa","lat":5.9061206,"lon":-72.9056297,"elevationM":null},{"id":"node:703230540","kind":"peak","name":"Alto El Uche","lat":5.9409648,"lon":-72.8892869,"elevationM":null},{"id":"node:703230541","kind":"peak","name":"Alto Los Caballeros","lat":5.9481424,"lon":-72.8734066,"elevationM":null},{"id":"node:703230542","kind":"peak","name":"Morro Tinaco","lat":5.971492,"lon":-72.8863575,"elevationM":null},{"id":"node:703230544","kind":"peak","name":"Morro Cabezon","lat":5.9759631,"lon":-72.9099467,"elevationM":null},{"id":"node:703230545","kind":"peak","name":"Cerro El Palmar","lat":5.9560742,"lon":-72.8717107,"elevationM":null},{"id":"node:703230549","kind":"peak","name":"Alto Rancheria","lat":5.8910112,"lon":-72.8279242,"elevationM":null},{"id":"node:703230556","kind":"peak","name":"Loma El Tahur","lat":5.9150629,"lon":-72.7892256,"elevationM":null},{"id":"node:703230557","kind":"peak","name":"Cuchilla Duga","lat":5.9543794,"lon":-72.829845,"elevationM":null},{"id":"node:703230565","kind":"peak","name":"Alto Volcan Partido","lat":5.9642456,"lon":-72.8418002,"elevationM":null},{"id":"node:703230570","kind":"peak","name":"Morro Chisaca","lat":5.958541,"lon":-72.8092687,"elevationM":null},{"id":"node:703230571","kind":"peak","name":"Alto Las Pinitas","lat":5.9466694,"lon":-72.8559845,"elevationM":null},{"id":"node:703230572","kind":"peak","name":"Alto Duga","lat":5.974113,"lon":-72.8296201,"elevationM":null},{"id":"node:703230576","kind":"peak","name":"Alto El Chulo","lat":5.9457443,"lon":-72.8203695,"elevationM":null},{"id":"node:703230580","kind":"peak","name":"Cuchilla Mundo Nuevo","lat":5.6574379,"lon":-72.7238528,"elevationM":3565},{"id":"node:703230583","kind":"peak","name":"Peña Laja Blanca","lat":5.6399092,"lon":-72.7341393,"elevationM":3594},{"id":"node:703230584","kind":"peak","name":"Cuchilla Peña Blanca","lat":5.6964582,"lon":-72.7408743,"elevationM":null},{"id":"node:703230585","kind":"peak","name":"Loma El Miradero","lat":5.6913511,"lon":-72.7566941,"elevationM":null},{"id":"node:703230586","kind":"peak","name":"Loma Leona","lat":5.673929,"lon":-72.760086,"elevationM":null},{"id":"node:703230587","kind":"peak","name":"Lomas El Miradero","lat":5.6708455,"lon":-72.7480602,"elevationM":null},{"id":"node:703230590","kind":"peak","name":"Lomas El Chital","lat":5.6508024,"lon":-72.6330436,"elevationM":null},{"id":"node:703230605","kind":"peak","name":"Cuchilla Perquilla","lat":5.7118567,"lon":-72.615159,"elevationM":null},{"id":"node:703230606","kind":"peak","name":"Loma El Cochal","lat":5.6969015,"lon":-72.6606414,"elevationM":null},{"id":"node:703230615","kind":"peak","name":"Lomas El Ofrecedero","lat":5.7309748,"lon":-72.731409,"elevationM":null},{"id":"node:703230616","kind":"peak","name":"Alto San Ignacio","lat":5.7445424,"lon":-72.7226208,"elevationM":null},{"id":"node:703230617","kind":"peak","name":"Peñas Los Lajes","lat":5.719874,"lon":-72.7121368,"elevationM":null},{"id":"node:703230618","kind":"peak","name":"Loma Tuevaquia","lat":5.7921833,"lon":-72.7716493,"elevationM":null},{"id":"node:703230627","kind":"peak","name":"Loma De Los Godos","lat":5.7949585,"lon":-72.7636321,"elevationM":null},{"id":"node:703230628","kind":"peak","name":"Cerro Peñanegra","lat":5.7904874,"lon":-72.738347,"elevationM":null},{"id":"node:703230629","kind":"peak","name":"Cuchilla Cucuato","lat":5.7975795,"lon":-72.7346467,"elevationM":null},{"id":"node:703230630","kind":"peak","name":"Alto Cruz De Piedra","lat":5.7610394,"lon":-72.7153745,"elevationM":null},{"id":"node:703230631","kind":"peak","name":"Alto De Montones","lat":5.7631979,"lon":-72.7483685,"elevationM":null},{"id":"node:703230632","kind":"peak","name":"Serrania Del Paramo De San Ignacio","lat":5.7692108,"lon":-72.6919395,"elevationM":null},{"id":"node:703230634","kind":"peak","name":"Cuchilla Novaca","lat":5.7490136,"lon":-72.5984307,"elevationM":null},{"id":"node:703230637","kind":"peak","name":"Loma Barandilla","lat":5.7177155,"lon":-72.6512366,"elevationM":null},{"id":"node:703230638","kind":"peak","name":"Cerro El Tierrato","lat":5.790179,"lon":-72.6526242,"elevationM":null},{"id":"node:703230639","kind":"peak","name":"Cuchilla El Carare","lat":5.7960378,"lon":-72.6373606,"elevationM":null},{"id":"node:703230642","kind":"peak","name":"Alto De Macanal","lat":5.6454062,"lon":-72.5794669,"elevationM":null},{"id":"node:703230650","kind":"peak","name":"Alto De Chital","lat":5.6273674,"lon":-72.5729914,"elevationM":null},{"id":"node:703230653","kind":"peak","name":"Cerro De Patagua","lat":5.6421684,"lon":-72.5748415,"elevationM":null},{"id":"node:703230660","kind":"peak","name":"Cerro De La Concepcion","lat":5.6606698,"lon":-72.5708329,"elevationM":null},{"id":"node:703230663","kind":"peak","name":"Cerro Del Gramal","lat":5.6526525,"lon":-72.5191834,"elevationM":null},{"id":"node:703230664","kind":"peak","name":"Cerro Los Farallones","lat":5.6666827,"lon":-72.5467812,"elevationM":null},{"id":"node:703230667","kind":"peak","name":"Cuchilla Peñablanca","lat":5.7100066,"lon":-72.5651283,"elevationM":null},{"id":"node:703230669","kind":"peak","name":"Cerro El Crisol","lat":5.7109317,"lon":-72.5893342,"elevationM":null},{"id":"node:703230675","kind":"peak","name":"Alto Peña Del Tigre","lat":5.6389307,"lon":-72.4883478,"elevationM":null},{"id":"node:703230687","kind":"peak","name":"Cuchilla De Tulosa","lat":5.6580487,"lon":-72.4567414,"elevationM":null},{"id":"node:703230688","kind":"peak","name":"Cerro De Morro","lat":5.6648326,"lon":-72.4357733,"elevationM":null},{"id":"node:703230695","kind":"peak","name":"Alto De Tuso","lat":5.7067689,"lon":-72.4991403,"elevationM":null},{"id":"node:703230702","kind":"peak","name":"Alto Las Mazorcas","lat":5.6731581,"lon":-72.4556622,"elevationM":null},{"id":"node:703230705","kind":"peak","name":"Loma Cañaverales","lat":5.7403796,"lon":-72.5679035,"elevationM":null},{"id":"node:703230706","kind":"peak","name":"Serrania De Farasi","lat":5.7955752,"lon":-72.5427726,"elevationM":null},{"id":"node:703230707","kind":"peak","name":"Alto La Horqueta","lat":5.7685941,"lon":-72.5742248,"elevationM":null},{"id":"node:703230708","kind":"peak","name":"Alto Faresi","lat":5.7439257,"lon":-72.5392265,"elevationM":null},{"id":"node:703230710","kind":"peak","name":"Loma La Florida","lat":5.7718319,"lon":-72.4635252,"elevationM":null},{"id":"node:703230714","kind":"peak","name":"Loma San Agustin","lat":5.7443882,"lon":-72.4829516,"elevationM":null},{"id":"node:703230715","kind":"peak","name":"Loma Buenavista","lat":5.7750696,"lon":-72.4462573,"elevationM":null},{"id":"node:703230716","kind":"peak","name":"Cerro Monrivita","lat":5.7402254,"lon":-72.5113203,"elevationM":null},{"id":"node:703230717","kind":"peak","name":"Cuchilla El Paramo","lat":5.7140152,"lon":-72.5127079,"elevationM":null},{"id":"node:703230718","kind":"peak","name":"Cerro Loma Brava","lat":5.719874,"lon":-72.4556622,"elevationM":null},{"id":"node:703230719","kind":"peak","name":"Loma El Oso","lat":5.7194115,"lon":-72.5938054,"elevationM":null},{"id":"node:703230721","kind":"peak","name":"Cerro El Cazadero","lat":5.8436787,"lon":-72.7559232,"elevationM":null},{"id":"node:703230722","kind":"peak","name":"Cerro Las Panelas","lat":5.8113013,"lon":-72.7506812,"elevationM":null},{"id":"node:703230724","kind":"peak","name":"Pico El Caracol","lat":5.8176226,"lon":-72.6907061,"elevationM":null},{"id":"node:703230727","kind":"peak","name":"Alto De Las Cruces","lat":5.8077553,"lon":-72.7375761,"elevationM":null},{"id":"node:703230728","kind":"peak","name":"Alto El Pulpito","lat":5.8015882,"lon":-72.7317173,"elevationM":null},{"id":"node:703230729","kind":"peak","name":"Alto El Pregonero","lat":5.8335029,"lon":-72.696719,"elevationM":null},{"id":"node:703230730","kind":"peak","name":"Alto Los Bancos","lat":5.8163892,"lon":-72.7543814,"elevationM":null},{"id":"node:703230732","kind":"peak","name":"Alto Pico El Mosco","lat":5.8538497,"lon":-72.7174302,"elevationM":null},{"id":"node:703230733","kind":"peak","name":"Pico Guatinaja","lat":5.852621,"lon":-72.7631696,"elevationM":null},{"id":"node:703230734","kind":"peak","name":"Cerro Banco El Moda","lat":5.876981,"lon":-72.7660989,"elevationM":null},{"id":"node:703230736","kind":"peak","name":"Cuchilla Peña Negra","lat":5.8680387,"lon":-72.7048904,"elevationM":null},{"id":"node:703230737","kind":"peak","name":"Pico El Mosco","lat":5.8746684,"lon":-72.7008818,"elevationM":null},{"id":"node:703230738","kind":"peak","name":"Cuchilla Corral Chiquito","lat":5.8626425,"lon":-72.6920937,"elevationM":null},{"id":"node:703230741","kind":"peak","name":"Alto Landinez","lat":5.8877735,"lon":-72.7050446,"elevationM":null},{"id":"node:703230746","kind":"peak","name":"Cuchilla Las Guaicas","lat":5.8203978,"lon":-72.6666543,"elevationM":null},{"id":"node:703230747","kind":"peak","name":"Lomas De Frailejonales","lat":5.8079094,"lon":-72.6606414,"elevationM":null},{"id":"node:703230763","kind":"peak","name":"Cuchilla Monacitos","lat":5.8930155,"lon":-72.6899352,"elevationM":null},{"id":"node:703230765","kind":"peak","name":"Cerro Hermitaño","lat":5.9298482,"lon":-72.7056582,"elevationM":null},{"id":"node:703230770","kind":"peak","name":"Alto Tiraqui","lat":5.9389605,"lon":-72.7033486,"elevationM":null},{"id":"node:703230778","kind":"peak","name":"Cuchilla Las Panelas","lat":5.9334101,"lon":-72.7292505,"elevationM":null},{"id":"node:703230780","kind":"peak","name":"Cerro Nariz De Perro","lat":5.9522197,"lon":-72.7095157,"elevationM":null},{"id":"node:703230781","kind":"peak","name":"Serrania De Peña Negra","lat":5.9043147,"lon":-72.6034813,"elevationM":3710},{"id":"node:703230782","kind":"peak","name":"Alto El Gavilan","lat":5.9163882,"lon":-72.6334334,"elevationM":3834},{"id":"node:703230783","kind":"peak","name":"Peñas De Los Tendidos","lat":5.9102563,"lon":-72.6751233,"elevationM":null},{"id":"node:703230787","kind":"peak","name":"Cuchilla Arrejal","lat":5.8959449,"lon":-72.6315018,"elevationM":null},{"id":"node:703230788","kind":"peak","name":"Alto El Rayo","lat":5.9610079,"lon":-72.6042124,"elevationM":null},{"id":"node:703230793","kind":"peak","name":"Alto Las Cruces","lat":5.962005,"lon":-72.659915,"elevationM":3870},{"id":"node:703230798","kind":"peak","name":"Cerro Tres Piedras","lat":5.9426781,"lon":-72.6614782,"elevationM":3933},{"id":"node:703230803","kind":"peak","name":"Alto Burrera","lat":5.8698889,"lon":-72.4704632,"elevationM":null},{"id":"node:703230807","kind":"peak","name":"Alto Matarredonda","lat":5.8753306,"lon":-72.5085196,"elevationM":null},{"id":"node:703230809","kind":"peak","name":"Cuchilla De Arcabuco","lat":5.8754013,"lon":-72.5192223,"elevationM":null},{"id":"node:703230810","kind":"peak","name":"Cuchilla De Siachia","lat":5.8710267,"lon":-72.4969087,"elevationM":null},{"id":"node:703230811","kind":"peak","name":"Cuchilla Pueblo Viejo","lat":5.8154641,"lon":-72.5054616,"elevationM":null},{"id":"node:703230812","kind":"peak","name":"Serrania Cuevarrica","lat":5.8324237,"lon":-72.455508,"elevationM":null},{"id":"node:703230813","kind":"peak","name":"Loma El Encenillo","lat":5.8003002,"lon":-72.4922515,"elevationM":null},{"id":"node:703230814","kind":"peak","name":"Alto El Santuario","lat":5.9259774,"lon":-72.5434184,"elevationM":3425},{"id":"node:703230817","kind":"peak","name":"Loma El Tobito","lat":5.89687,"lon":-72.5378389,"elevationM":null},{"id":"node:703230818","kind":"peak","name":"Cerro La Laja","lat":5.8942507,"lon":-72.5129853,"elevationM":3470},{"id":"node:703230819","kind":"peak","name":"Loma De Cañaverales","lat":5.953299,"lon":-72.523192,"elevationM":null},{"id":"node:703230821","kind":"peak","name":"Peñas De Macetas","lat":5.972417,"lon":-72.5444685,"elevationM":null},{"id":"node:703230822","kind":"peak","name":"Cerro Las Estrellas","lat":5.9734963,"lon":-72.5669785,"elevationM":null},{"id":"node:703230823","kind":"peak","name":"Cerro Pomeral","lat":5.9622413,"lon":-72.5517149,"elevationM":null},{"id":"node:703230824","kind":"peak","name":"Cerro Peña Negra","lat":5.9507206,"lon":-72.5770012,"elevationM":3742},{"id":"node:703230828","kind":"peak","name":"Cuchilla El Chamizo","lat":5.9289389,"lon":-72.4501118,"elevationM":null},{"id":"node:703230829","kind":"peak","name":"Cuchilla La Reforma","lat":5.8948657,"lon":-72.4570498,"elevationM":null},{"id":"node:703230847","kind":"peak","name":"Loma Montero","lat":5.9899933,"lon":-72.9289106,"elevationM":null},{"id":"node:703230868","kind":"peak","name":"Cerro Duga","lat":5.993231,"lon":-72.8097312,"elevationM":null},{"id":"node:703230925","kind":"peak","name":"Loma Bachauta","lat":5.9872962,"lon":-72.6869863,"elevationM":null},{"id":"node:703231005","kind":"peak","name":"Alto Chamisal","lat":5.9832095,"lon":-72.5708329,"elevationM":null},{"id":"node:703231009","kind":"peak","name":"Alto De Calarca","lat":5.9870639,"lon":-72.5558777,"elevationM":null},{"id":"node:703231023","kind":"peak","name":"Cerro Las Lochas","lat":5.9904558,"lon":-72.5714496,"elevationM":null},{"id":"node:703231038","kind":"peak","name":"Cerro Acabucha","lat":5.9866014,"lon":-72.4514994,"elevationM":null},{"id":"node:703231242","kind":"peak","name":"Alto De Melo","lat":5.9132314,"lon":-72.3944652,"elevationM":null},{"id":"node:703231244","kind":"peak","name":"Cuchilla Moniquira","lat":5.7423832,"lon":-72.4167993,"elevationM":null},{"id":"node:703231245","kind":"peak","name":"Alto Grande","lat":5.9295337,"lon":-72.4093003,"elevationM":null},{"id":"node:703231246","kind":"peak","name":"Cerro Lunero","lat":5.640536,"lon":-72.3978679,"elevationM":null},{"id":"node:703231247","kind":"peak","name":"Cuchilla El Paramo","lat":5.6644881,"lon":-72.4146654,"elevationM":null},{"id":"node:703231249","kind":"peak","name":"Cuchilla El Aguadero","lat":5.6876624,"lon":-72.4149764,"elevationM":null},{"id":"node:703231254","kind":"peak","name":"Alto Centro De Piedra","lat":5.628249,"lon":-72.4002009,"elevationM":null},{"id":"node:703231256","kind":"peak","name":"Alto El Paramo","lat":5.6455131,"lon":-72.4126435,"elevationM":null},{"id":"node:703231257","kind":"peak","name":"Alto De Cueto","lat":5.704771,"lon":-72.2877508,"elevationM":null},{"id":"node:703252229","kind":"peak","name":"Alto Redondo","lat":5.214588,"lon":-72.7643867,"elevationM":1275},{"id":"node:703252388","kind":"peak","name":"Cuchilla Salto De Venado","lat":5.2424235,"lon":-72.5335537,"elevationM":778},{"id":"node:703252486","kind":"peak","name":"Cerro Maconal","lat":5.2991231,"lon":-72.6569719,"elevationM":1737},{"id":"node:703252937","kind":"peak","name":"Cuchilla Palobajito","lat":5.437075,"lon":-72.3234223,"elevationM":517},{"id":"node:703253027","kind":"peak","name":"Cuchilla Palo Bonito","lat":5.4872116,"lon":-72.2921656,"elevationM":636},{"id":"node:703253030","kind":"peak","name":"Cerro Telo","lat":5.6072037,"lon":-72.2657338,"elevationM":554},{"id":"node:703253053","kind":"peak","name":"Cerro Corocho","lat":5.5996517,"lon":-72.2346869,"elevationM":352},{"id":"node:703253056","kind":"peak","name":"Alto Los Tarayes","lat":5.6042466,"lon":-72.1436174,"elevationM":400},{"id":"node:703253869","kind":"peak","name":"Alto Las Garras","lat":5.7737661,"lon":-72.2632165,"elevationM":null},{"id":"node:703253871","kind":"peak","name":"Cuchilla Peña Blanca","lat":5.7939047,"lon":-72.2972002,"elevationM":null},{"id":"node:703253872","kind":"peak","name":"Loma El Desecho","lat":5.6444701,"lon":-72.1012674,"elevationM":514},{"id":"node:703253874","kind":"peak","name":"Filo El Verde","lat":5.6761665,"lon":-72.0752884,"elevationM":398},{"id":"node:703253883","kind":"peak","name":"Loma Arena Blanca","lat":5.7506907,"lon":-72.2353162,"elevationM":1176},{"id":"node:703253891","kind":"peak","name":"Cerro Bogota","lat":5.7760737,"lon":-72.1675584,"elevationM":969},{"id":"node:703253906","kind":"peak","name":"Alto Peña Negra","lat":5.8922898,"lon":-72.2527276,"elevationM":1879},{"id":"node:703253914","kind":"peak","name":"Alto El Trucho","lat":5.8501247,"lon":-72.2330087,"elevationM":1423},{"id":"node:703253920","kind":"peak","name":"Loma Nanatigre","lat":5.8080517,"lon":-72.0827704,"elevationM":613},{"id":"node:703253955","kind":"peak","name":"Alto Chitacote","lat":5.8932809,"lon":-72.1316113,"elevationM":982},{"id":"node:703253956","kind":"peak","name":"Alto Sisareque","lat":5.9748,"lon":-72.105453,"elevationM":1105},{"id":"node:703253957","kind":"peak","name":"Loma El Sillon","lat":5.9196261,"lon":-72.1516154,"elevationM":1275},{"id":"node:703253982","kind":"peak","name":"Cerro Mesa De Los Curos","lat":5.7966318,"lon":-72.015051,"elevationM":549},{"id":"node:703254008","kind":"peak","name":"Cerro Zamaricote","lat":5.8360725,"lon":-72.0484151,"elevationM":1260},{"id":"node:703254009","kind":"peak","name":"Cerro Pan De Azucar","lat":5.8158439,"lon":-72.0658592,"elevationM":867},{"id":"node:703254062","kind":"peak","name":"Cerro Las Mesas","lat":5.983123,"lon":-72.0181976,"elevationM":1180},{"id":"node:1032388858","kind":"peak","name":"Pico","lat":5.0227737,"lon":-72.9379712,"elevationM":2310},{"id":"node:2253694003","kind":"peak","name":"Pelado Grande","lat":5.8779567,"lon":-72.7103051,"elevationM":null},{"id":"node:2253694007","kind":"peak","name":"Pico El Caracol","lat":5.8540145,"lon":-72.6737962,"elevationM":null},{"id":"node:4897923117","kind":"peak","name":"Loma Peñalisa","lat":5.667135,"lon":-72.9499153,"elevationM":null},{"id":"node:5256817913","kind":"peak","name":"Picacho sin nombre","lat":5.6277532,"lon":-72.7466388,"elevationM":3752},{"id":"node:5256817914","kind":"peak","name":"Cerro Negro","lat":5.5467232,"lon":-72.7538842,"elevationM":3649},{"id":"node:5256987105","kind":"peak","name":"Púlpito de San Jerónimo","lat":5.7160505,"lon":-72.7161294,"elevationM":3686},{"id":"node:5261444257","kind":"peak","name":"Cerro El Tendido","lat":5.9799722,"lon":-72.5812894,"elevationM":null},{"id":"node:5261444260","kind":"peak","name":"Cuchilla Las Cruces","lat":5.742832,"lon":-72.5477216,"elevationM":null},{"id":"node:5261445262","kind":"peak","name":"Cerro Las Estrellas","lat":5.9786878,"lon":-72.5676437,"elevationM":3884},{"id":"node:5261449437","kind":"peak","name":"Pico El Arenal","lat":5.914217,"lon":-72.6684987,"elevationM":4082},{"id":"node:6445809856","kind":"peak","name":"Limites de Santa Rosa y Tobasia","lat":5.8640376,"lon":-72.9687891,"elevationM":null},{"id":"node:6556423937","kind":"peak","name":"Plano","lat":5.8289913,"lon":-72.519486,"elevationM":2205},{"id":"node:6831688442","kind":"peak","name":"la picota","lat":5.8012168,"lon":-72.9090622,"elevationM":null},{"id":"node:6831699515","kind":"peak","name":"Tibet","lat":5.9262575,"lon":-72.9230277,"elevationM":null},{"id":"node:6940249011","kind":"peak","name":"P.","lat":5.2078439,"lon":-72.7875674,"elevationM":1635},{"id":"node:6983484932","kind":"peak","name":"Alto de Monserrate","lat":5.207323,"lon":-72.8111876,"elevationM":1634},{"id":"node:7292693131","kind":"peak","name":"La Cuchilla","lat":5.7197541,"lon":-72.9171073,"elevationM":null},{"id":"node:8851164026","kind":"peak","name":"La Loma del Burro","lat":5.6664282,"lon":-72.9397151,"elevationM":null},{"id":"node:8855355308","kind":"peak","name":"Alto de Vita","lat":5.6016275,"lon":-72.9930346,"elevationM":null},{"id":"node:9095992473","kind":"peak","name":"Loma Abeja","lat":5.7350152,"lon":-72.7870631,"elevationM":null},{"id":"node:11206426390","kind":"peak","name":"Montañas rocosas","lat":5.4325313,"lon":-72.787283,"elevationM":3675},{"id":"node:11383993226","kind":"peak","name":"Alto El Gavilán","lat":5.7319261,"lon":-72.9986639,"elevationM":2780},{"id":"node:11877103681","kind":"peak","name":"Cerro El Picacho","lat":5.4583967,"lon":-72.939418,"elevationM":null},{"id":"node:11877103682","kind":"peak","name":"Cerro El Uvito","lat":5.4542385,"lon":-72.9527257,"elevationM":null},{"id":"node:11877103683","kind":"peak","name":"La Cuchilla de Sarracín","lat":5.4474153,"lon":-72.9638965,"elevationM":null},{"id":"node:11877103684","kind":"peak","name":"Cuchilla Romazal","lat":5.4376746,"lon":-72.9653985,"elevationM":null},{"id":"node:11877103685","kind":"peak","name":"El Pico de las Alfombras","lat":5.4273892,"lon":-72.9641057,"elevationM":3755},{"id":"node:12093949429","kind":"peak","name":"Pico Caracol","lat":5.8302802,"lon":-72.6864078,"elevationM":3905},{"id":"node:12532414448","kind":"peak","name":"Pico Norte","lat":5.4447431,"lon":-72.7780053,"elevationM":3530},{"id":"node:12532414449","kind":"peak","name":"Pico Sur","lat":5.426253,"lon":-72.789691,"elevationM":3676},{"id":"node:12532414450","kind":"peak","name":"Pico central","lat":5.4355131,"lon":-72.7776781,"elevationM":3680},{"id":"node:12537410743","kind":"peak","name":"P. 3.930m","lat":5.923576,"lon":-72.6687133,"elevationM":null},{"id":"node:12537439154","kind":"peak","name":"Cuchilla de Candelas","lat":5.9519099,"lon":-72.6074731,"elevationM":3890},{"id":"node:13207212500","kind":"peak","name":"Cerro El Venado","lat":5.3543619,"lon":-72.420495,"elevationM":930},{"id":"node:13432545734","kind":"peak","name":"La Colina","lat":5.3205983,"lon":-72.4549932,"elevationM":810},{"id":"node:13432571415","kind":"peak","name":"San Benito","lat":5.2740278,"lon":-72.6781577,"elevationM":1700}]}