{"tileKey":"la_p3_lo_p37","version":"v1-1775891056926","entries":[{"id":"node:319321981","kind":"volcano","name":"Garra Gallaan","lat":3.9348605,"lon":37.326402,"elevationM":null},{"id":"node:319322002","kind":"volcano","name":"Garra Did Golan Gutha","lat":3.8571063,"lon":37.3451131,"elevationM":null},{"id":"node:319322055","kind":"volcano","name":"Garra Sorra","lat":3.9841809,"lon":37.3444265,"elevationM":null},{"id":"node:467053190","kind":"volcano","name":"Chisa Ela nadehani","lat":3.445838,"lon":37.6392082,"elevationM":null},{"id":"node:467053371","kind":"volcano","name":"Chisa","lat":3.4212414,"lon":37.6699505,"elevationM":null},{"id":"node:467053464","kind":"volcano","name":"Kalesa mata gongo","lat":3.4611664,"lon":37.5654087,"elevationM":null},{"id":"node:467053837","kind":"volcano","name":"Gara Nyecha","lat":3.4702371,"lon":37.7657765,"elevationM":null},{"id":"node:467053848","kind":"volcano","name":"Gara worsesa","lat":3.429295,"lon":37.7583561,"elevationM":null},{"id":"node:467053976","kind":"volcano","name":"Gara worsesa","lat":3.4301518,"lon":37.7638493,"elevationM":null},{"id":"node:1150899485","kind":"peak","name":"Maheir","lat":3.7783958,"lon":37.9991452,"elevationM":1470},{"id":"node:6955564389","kind":"peak","name":"Salla reh haranqesa","lat":3.4379634,"lon":37.6669835,"elevationM":1440},{"id":"node:6955564738","kind":"peak","name":"Qilta korma","lat":3.467028,"lon":37.7241502,"elevationM":1460},{"id":"node:6955564739","kind":"peak","name":"Qilta dala","lat":3.4514265,"lon":37.7173519,"elevationM":1460},{"id":"node:6955564828","kind":"volcano","name":"Burarata","lat":3.5206249,"lon":37.7806887,"elevationM":null},{"id":"node:6957099150","kind":"peak","name":"Arkor","lat":3.6394194,"lon":37.7023066,"elevationM":1020},{"id":"node:6958085725","kind":"peak","name":"Salla Karabara Diqa","lat":3.3311829,"lon":37.7017998,"elevationM":1380},{"id":"node:6958139840","kind":"peak","name":"Qubi iresa matacho","lat":3.403964,"lon":37.7174592,"elevationM":1410},{"id":"node:6958139842","kind":"peak","name":"Dibu Lonlubo","lat":3.3995311,"lon":37.7468751,"elevationM":1600},{"id":"node:6958139844","kind":"peak","name":"Gotu Obaso","lat":3.3538496,"lon":37.7415719,"elevationM":1450},{"id":"node:6958139845","kind":"peak","name":"Obasa Gudda","lat":3.3442323,"lon":37.7319397,"elevationM":1450},{"id":"node:6958139846","kind":"peak","name":"Salla karabara","lat":3.3337982,"lon":37.7258062,"elevationM":1510},{"id":"node:6958139849","kind":"volcano","name":"Gathaa","lat":3.3632972,"lon":37.7134037,"elevationM":null},{"id":"node:7220879307","kind":"peak","name":"Did keesa","lat":3.3496502,"lon":37.7161534,"elevationM":null},{"id":"node:7220879308","kind":"peak","name":"Tuluu Galaa","lat":3.3184924,"lon":37.644473,"elevationM":null},{"id":"node:7220879309","kind":"peak","name":"Qubi mata dhaka","lat":3.3210091,"lon":37.6980206,"elevationM":null},{"id":"node:7220879310","kind":"peak","name":"Afkab","lat":3.1836696,"lon":37.5261116,"elevationM":null},{"id":"node:7220879311","kind":"peak","name":"Tuluu Dimtu","lat":3.1724419,"lon":37.5823722,"elevationM":null},{"id":"node:7220879312","kind":"peak","name":"Wara","lat":3.165937,"lon":37.6471955,"elevationM":null},{"id":"node:7220879313","kind":"peak","name":"Qubi Bubiftu","lat":3.3610446,"lon":37.7227088,"elevationM":null},{"id":"node:7220879314","kind":"peak","name":"Qubi Bubiftu","lat":3.3577053,"lon":37.7212612,"elevationM":null},{"id":"node:7578720603","kind":"peak","name":"Qubi gara ano","lat":3.4662075,"lon":37.6719332,"elevationM":null},{"id":"node:7578738223","kind":"peak","name":"Tumtich","lat":3.4963609,"lon":37.4909698,"elevationM":null},{"id":"node:7939234508","kind":"peak","name":"Kalesa Mata Jala","lat":3.4960487,"lon":37.5521774,"elevationM":null},{"id":"node:7944465481","kind":"peak","name":"Dibu lonlubo","lat":3.3916842,"lon":37.7396196,"elevationM":null},{"id":"node:7944482115","kind":"peak","name":"Qubi Mabartafi","lat":3.363423,"lon":37.7469862,"elevationM":null},{"id":"node:7944484374","kind":"peak","name":"Boqore","lat":3.438576,"lon":37.7496075,"elevationM":null},{"id":"node:7944492413","kind":"peak","name":"Qubi gara dolola","lat":3.3692533,"lon":37.7448216,"elevationM":null},{"id":"node:7944501180","kind":"peak","name":"Jaldesa Diqa","lat":3.3881729,"lon":37.7994948,"elevationM":null},{"id":"node:7944509042","kind":"peak","name":"Jaldesa Guda","lat":3.3783043,"lon":37.8017984,"elevationM":null},{"id":"node:7944524118","kind":"peak","name":"Gara Mboga","lat":3.4497636,"lon":37.7666229,"elevationM":null},{"id":"node:7962698626","kind":"peak","name":"Gof Lon elema","lat":3.4332988,"lon":37.7118277,"elevationM":null},{"id":"node:8038148361","kind":"peak","name":"Golinacha","lat":3.2656205,"lon":37.6968767,"elevationM":null},{"id":"node:8038164047","kind":"peak","name":"Buta","lat":3.2188562,"lon":37.6786888,"elevationM":null},{"id":"node:8038164048","kind":"peak","name":"Salla Dakara","lat":3.2912349,"lon":37.6788131,"elevationM":null},{"id":"node:8038180524","kind":"peak","name":"Qubi Bulto Algi","lat":3.3092832,"lon":37.6645893,"elevationM":null},{"id":"node:8733077401","kind":"peak","name":"Gara Gadamsa","lat":3.4893574,"lon":37.813452,"elevationM":null},{"id":"node:8733090827","kind":"peak","name":"Qubi Bora","lat":3.4290628,"lon":37.6994399,"elevationM":null},{"id":"node:8733093289","kind":"peak","name":"Salla Dakara","lat":3.3055794,"lon":37.6881191,"elevationM":null},{"id":"node:8733096951","kind":"peak","name":"Gara Dao","lat":3.429984,"lon":37.7902187,"elevationM":null},{"id":"node:8733097605","kind":"peak","name":"Shanqera Mountain","lat":3.4181907,"lon":37.6966478,"elevationM":null},{"id":"node:8733107729","kind":"peak","name":"Salla Ree Tore","lat":3.3077363,"lon":37.7337753,"elevationM":null},{"id":"node:13327632331","kind":"peak","name":"Qubi Boqe","lat":3.2716887,"lon":37.594171,"elevationM":900}]}