{"tileKey":"la_p10_lo_p77","version":"v1-1775891056926","entries":[{"id":"node:649248791","kind":"peak","name":"Meesapulimala","lat":10.0875588,"lon":77.2044331,"elevationM":2636},{"id":"node:3158128887","kind":"peak","name":"Eravikulam Mala","lat":10.2260072,"lon":77.0740501,"elevationM":2378},{"id":"node:3158128890","kind":"peak","name":"Podu Mala","lat":10.3142566,"lon":77.091512,"elevationM":2252},{"id":"node:3158128891","kind":"peak","name":"Katradi Mala","lat":10.2542646,"lon":77.0979589,"elevationM":2548},{"id":"node:3158128892","kind":"peak","name":"Kumarikal Mala","lat":10.2835388,"lon":77.1151202,"elevationM":2522},{"id":"node:3158128893","kind":"peak","name":"Naikolli Mala","lat":10.1518335,"lon":77.0431326,"elevationM":2401},{"id":"node:3158128895","kind":"peak","name":"Perattu Mala","lat":10.2966954,"lon":77.0923619,"elevationM":2156},{"id":"node:3158128896","kind":"peak","name":"Perumal Mala","lat":10.241068,"lon":77.1104391,"elevationM":2351},{"id":"node:3158128901","kind":"peak","name":"Siluva Mala","lat":10.2805127,"lon":77.0848262,"elevationM":2221},{"id":"node:3158129889","kind":"peak","name":"Kallar Mala","lat":10.3131775,"lon":77.0777752,"elevationM":2287},{"id":"node:3158152602","kind":"peak","name":"Samba Mala","lat":10.2668551,"lon":77.0430418,"elevationM":1934},{"id":"node:3304664723","kind":"peak","name":"Oosimalai","lat":10.3208652,"lon":77.0458929,"elevationM":2150},{"id":"node:3393406855","kind":"peak","name":"Chokramudi","lat":10.0354742,"lon":77.1057685,"elevationM":2183},{"id":"node:3941131660","kind":"peak","name":"Manna Malai","lat":10.098448,"lon":77.2028251,"elevationM":2659},{"id":"node:5132263316","kind":"peak","name":"Thanakku Malai","lat":10.3519444,"lon":77.072996,"elevationM":2513},{"id":"node:5134637110","kind":"peak","name":"Kanni Mala","lat":10.1368151,"lon":77.0866393,"elevationM":2298},{"id":"node:5224499159","kind":"peak","name":"Raja Mala","lat":10.1760029,"lon":77.0153793,"elevationM":2195},{"id":"node:5224499172","kind":"peak","name":"Eruma Mala","lat":10.2372828,"lon":77.0611514,"elevationM":2278},{"id":"node:5224499196","kind":"peak","name":"Umaya Mala","lat":10.1719845,"lon":77.0817902,"elevationM":2436},{"id":"node:5224499201","kind":"peak","name":"Anamudi","lat":10.1696357,"lon":77.0611855,"elevationM":2695},{"id":"node:7326229180","kind":"peak","name":"Dolmen Peak","lat":10.2984774,"lon":77.5135888,"elevationM":1360},{"id":"node:9873935182","kind":"peak","name":"Ibex Peak","lat":10.1352147,"lon":77.3064351,"elevationM":null},{"id":"node:9873935183","kind":"peak","name":"Pass Peak","lat":10.1376016,"lon":77.3451876,"elevationM":null},{"id":"node:9873935184","kind":"peak","name":"Tula Kanavai","lat":10.1808896,"lon":77.3839241,"elevationM":null},{"id":"node:9873944247","kind":"peak","name":"Vembadi Shola Peak","lat":10.2051659,"lon":77.4040889,"elevationM":null},{"id":"node:9873944248","kind":"peak","name":"Chandana Parai","lat":10.2287224,"lon":77.3929524,"elevationM":null},{"id":"node:9873984921","kind":"peak","name":"Valley Hill","lat":10.1365455,"lon":77.2937965,"elevationM":null},{"id":"node:9873984924","kind":"peak","name":"Tuppiyan Kanavai","lat":10.1871727,"lon":77.3551225,"elevationM":null},{"id":"node:9873984925","kind":"peak","name":"Arunkula Malai","lat":10.166475,"lon":77.3910856,"elevationM":null},{"id":"node:9873984929","kind":"peak","name":"Pambadi Shola Malai","lat":10.1191821,"lon":77.2666096,"elevationM":null},{"id":"node:9873984933","kind":"peak","name":"Para Tumbu","lat":10.2317737,"lon":77.2880029,"elevationM":null},{"id":"node:9873984936","kind":"peak","name":"Venki Kombu","lat":10.2455836,"lon":77.3494148,"elevationM":null},{"id":"node:9874019119","kind":"peak","name":"Pillisuli Nettu","lat":10.1567593,"lon":77.3877382,"elevationM":null},{"id":"node:9874019120","kind":"peak","name":"Pattitalaichi Malai","lat":10.1756624,"lon":77.2763729,"elevationM":null},{"id":"node:9874021523","kind":"peak","name":"Vandaravu Malai","lat":10.1484268,"lon":77.2733903,"elevationM":null},{"id":"node:9874021524","kind":"peak","name":"Talai Malai","lat":10.139566,"lon":77.3140955,"elevationM":null},{"id":"node:9874021525","kind":"peak","name":"Landslip Hill","lat":10.1356794,"lon":77.3262405,"elevationM":null},{"id":"node:9874021526","kind":"peak","name":"Chendanurkanal Malai","lat":10.1527462,"lon":77.3586845,"elevationM":null},{"id":"node:9874021530","kind":"peak","name":"Pinji Kanavai","lat":10.1738672,"lon":77.379713,"elevationM":null},{"id":"node:9874021558","kind":"peak","name":"Uruman Kanavai","lat":10.1820617,"lon":77.3202753,"elevationM":null},{"id":"node:9874021559","kind":"peak","name":"Soman Kanavai","lat":10.1769507,"lon":77.3225498,"elevationM":null},{"id":"node:9874021561","kind":"peak","name":"Periya Malai","lat":10.1665595,"lon":77.3201465,"elevationM":null},{"id":"node:9919213980","kind":"peak","name":"Bangala medi","lat":10.2214966,"lon":77.3441396,"elevationM":null},{"id":"node:9919213981","kind":"peak","name":"Tulukkanpatti Malai","lat":10.2054985,"lon":77.2843607,"elevationM":null},{"id":"node:9919220012","kind":"peak","name":"Chakkillliyan Kombu","lat":10.2320309,"lon":77.346425,"elevationM":null},{"id":"node:9919233354","kind":"peak","name":"Vellari Malai","lat":10.2632229,"lon":77.3489733,"elevationM":null},{"id":"node:9919245618","kind":"peak","name":"Minam kanavai","lat":10.2032433,"lon":77.3424316,"elevationM":null},{"id":"node:9919245830","kind":"peak","name":"Katavetti Malai","lat":10.2422581,"lon":77.2938228,"elevationM":null},{"id":"node:9919247059","kind":"peak","name":"Pappalamman Malai","lat":10.2900377,"lon":77.3478826,"elevationM":null},{"id":"node:9920370348","kind":"peak","name":"Erumai Malai","lat":10.3744084,"lon":77.2486782,"elevationM":null},{"id":"node:9920378612","kind":"peak","name":"Pachchal Kombu","lat":10.2450375,"lon":77.4134057,"elevationM":null},{"id":"node:10688816228","kind":"peak","name":"Palani Malai","lat":10.4387656,"lon":77.5199765,"elevationM":null},{"id":"node:10688816229","kind":"peak","name":"Idumban Malai","lat":10.441348,"lon":77.5273311,"elevationM":null},{"id":"node:10757819641","kind":"peak","name":"Tirtha Mala","lat":10.1891044,"lon":77.1679187,"elevationM":null},{"id":"node:10757819642","kind":"peak","name":"Karikombu Malai","lat":10.1992988,"lon":77.0811224,"elevationM":null},{"id":"node:10757834666","kind":"peak","name":"Kundale Talai Mala","lat":10.1739541,"lon":77.1643158,"elevationM":null},{"id":"node:10757834667","kind":"peak","name":"Samba Mala","lat":10.2119451,"lon":77.0646314,"elevationM":null},{"id":"node:10757837053","kind":"peak","name":"Bhula Malai","lat":10.2191594,"lon":77.1020934,"elevationM":null},{"id":"node:10757896463","kind":"peak","name":"Madayari Mala","lat":10.1940434,"lon":77.2020816,"elevationM":null},{"id":"node:10757900692","kind":"peak","name":"Jamba Malai","lat":10.2634759,"lon":77.2632728,"elevationM":null},{"id":"node:10757906377","kind":"peak","name":"Kolakkattu Malai","lat":10.2353861,"lon":77.2703143,"elevationM":null},{"id":"node:10757966049","kind":"peak","name":"Jenda Mala","lat":10.1779254,"lon":77.222987,"elevationM":null},{"id":"node:10757966050","kind":"peak","name":"Varayadu Motte","lat":10.2074287,"lon":77.0911686,"elevationM":null},{"id":"node:10757980422","kind":"peak","name":"Manchola Mala","lat":10.2266688,"lon":77.2226097,"elevationM":null},{"id":"node:10757980423","kind":"peak","name":"Undakkal Mala","lat":10.2106772,"lon":77.1049922,"elevationM":null},{"id":"node:10757980961","kind":"peak","name":"Vellogiri Mala","lat":10.2493843,"lon":77.2360888,"elevationM":null},{"id":"node:10757982432","kind":"peak","name":"Silavar","lat":10.1938898,"lon":77.2399918,"elevationM":null},{"id":"node:10777172637","kind":"peak","name":"Vellaiyan Tuval","lat":10.1755607,"lon":77.294195,"elevationM":null},{"id":"node:10777203683","kind":"peak","name":"Devi Malai","lat":10.0590477,"lon":77.1504885,"elevationM":null},{"id":"node:10777243961","kind":"peak","name":"Netti Malai","lat":10.0910493,"lon":77.1571443,"elevationM":null}]}