{"tileKey":"la_p43_lo_p26","version":"v1-1775891056926","entries":[{"id":"node:1889990618","kind":"peak","name":"Големия Вис","lat":43.1712941,"lon":26.5968204,"elevationM":689},{"id":"node:1889990619","kind":"peak","name":"Гунофат","lat":43.184908,"lon":26.5485607,"elevationM":665},{"id":"node:1889990622","kind":"peak","name":"Ескибалак","lat":43.1791294,"lon":26.7211573,"elevationM":331},{"id":"node:1889990627","kind":"peak","name":"Коджабуради","lat":43.1669511,"lon":26.6176747,"elevationM":655},{"id":"node:1889990644","kind":"peak","name":"Коджакуз","lat":43.1914885,"lon":26.5177152,"elevationM":668},{"id":"node:1889990647","kind":"peak","name":"Образе","lat":43.1811265,"lon":26.5078787,"elevationM":580},{"id":"node:1889990650","kind":"peak","name":"Труфев Гроб","lat":43.174213,"lon":26.5494704,"elevationM":630},{"id":"node:1889990653","kind":"peak","name":"Чукатарла","lat":43.172266,"lon":26.5135508,"elevationM":533},{"id":"node:1890103474","kind":"peak","name":"Акчабардак","lat":43.1568396,"lon":26.5716014,"elevationM":593},{"id":"node:1890103475","kind":"peak","name":"Костарантепе","lat":43.1485189,"lon":26.6092618,"elevationM":583},{"id":"node:1890103476","kind":"peak","name":"Ферадунталас","lat":43.1599739,"lon":26.5524423,"elevationM":562},{"id":"node:1892436822","kind":"peak","name":"Яйла","lat":43.1610883,"lon":26.6391176,"elevationM":669},{"id":"node:1892436826","kind":"peak","name":"Шааретян","lat":43.1499261,"lon":26.6501694,"elevationM":687},{"id":"node:1892453907","kind":"peak","name":"Глогов Връх","lat":43.1404815,"lon":26.7210989,"elevationM":690},{"id":"node:1892453909","kind":"peak","name":"Коджа Йолбаши","lat":43.1424701,"lon":26.7088989,"elevationM":691},{"id":"node:1892453910","kind":"peak","name":"Рабишсърт","lat":43.1451923,"lon":26.6805461,"elevationM":689},{"id":"node:1892909930","kind":"peak","name":"Бюйюксалана","lat":43.1359285,"lon":26.6640798,"elevationM":563},{"id":"node:1892909932","kind":"peak","name":"Кеневирликтепеси","lat":43.1336465,"lon":26.6774385,"elevationM":559},{"id":"node:1892909934","kind":"peak","name":"Чанаккале","lat":43.1415332,"lon":26.6427327,"elevationM":536},{"id":"node:1893425554","kind":"peak","name":"Баалардюзю","lat":43.1622213,"lon":26.7415289,"elevationM":409},{"id":"node:1893425555","kind":"peak","name":"Бодила","lat":43.1504277,"lon":26.745217,"elevationM":540},{"id":"node:1893425556","kind":"peak","name":"Голяма Въшкадалница","lat":43.1314634,"lon":26.752676,"elevationM":723},{"id":"node:1893425557","kind":"peak","name":"Дългия Голеш","lat":43.1553698,"lon":26.75328,"elevationM":462},{"id":"node:1893425558","kind":"peak","name":"Дъреджилканара","lat":43.1298197,"lon":26.7004002,"elevationM":568},{"id":"node:1893425559","kind":"peak","name":"Оламурлукбурун","lat":43.1254333,"lon":26.716898,"elevationM":518},{"id":"node:1893425560","kind":"peak","name":"Пелинбаир","lat":43.131561,"lon":26.7379276,"elevationM":701},{"id":"node:1893425561","kind":"peak","name":"Фащека","lat":43.1314618,"lon":26.7280032,"elevationM":645},{"id":"node:1893425562","kind":"peak","name":"Юкаркъобстанък","lat":43.1327332,"lon":26.7157193,"elevationM":627},{"id":"node:1901137882","kind":"peak","name":"Градището","lat":43.1521729,"lon":26.7664107,"elevationM":null},{"id":"node:1901137907","kind":"peak","name":"Краля","lat":43.1396594,"lon":26.7854957,"elevationM":562},{"id":"node:1907423969","kind":"peak","name":"Тепето","lat":43.1349378,"lon":26.5901025,"elevationM":394},{"id":"node:3679889661","kind":"peak","name":"Ташюг","lat":43.3407172,"lon":26.8674538,"elevationM":272},{"id":"node:4324746452","kind":"peak","name":"Големия Юк","lat":43.4367988,"lon":26.4787481,"elevationM":393},{"id":"node:4330509909","kind":"peak","name":"Двете могили","lat":43.4446636,"lon":26.4452468,"elevationM":373},{"id":"node:4330509910","kind":"peak","name":"Двете могили","lat":43.4451769,"lon":26.4446796,"elevationM":374},{"id":"node:4790766537","kind":"peak","name":"Хасърлъка","lat":43.1905048,"lon":26.4887373,"elevationM":542},{"id":"node:4811954766","kind":"peak","name":"Корукавак","lat":43.136738,"lon":26.0505507,"elevationM":499},{"id":"node:4884171752","kind":"peak","name":"Фисек","lat":43.3235854,"lon":26.7635442,"elevationM":501},{"id":"node:4884174510","kind":"peak","name":"Фисека","lat":43.3258252,"lon":26.7548749,"elevationM":494},{"id":"node:5327028900","kind":"peak","name":"Арпалъка","lat":43.1451795,"lon":26.0021936,"elevationM":403},{"id":"node:13603603665","kind":"peak","name":"Александров","lat":43.2500998,"lon":26.4441604,"elevationM":522}]}