{"tileKey":"la_p24_lo_p37","version":"v1-1775891056926","entries":[{"id":"node:8721343820","kind":"peak","name":"الصلعاء","lat":24.6366291,"lon":37.5401077,"elevationM":null},{"id":"node:8721474728","kind":"peak","name":"قهيد","lat":24.7023582,"lon":37.4497681,"elevationM":null},{"id":"node:8922174993","kind":"peak","name":"أبو حب","lat":24.9091721,"lon":37.9450226,"elevationM":null},{"id":"node:8922188625","kind":"peak","name":"الأصقع","lat":24.9343637,"lon":37.9526734,"elevationM":null},{"id":"node:8922207244","kind":"peak","name":"الخرص","lat":24.733718,"lon":37.79895,"elevationM":null},{"id":"node:8922207317","kind":"peak","name":"الصُّمعار","lat":24.8334923,"lon":37.8471794,"elevationM":null},{"id":"node:9023449863","kind":"peak","name":"الجرين","lat":24.9338188,"lon":37.8058548,"elevationM":null},{"id":"node:9023450828","kind":"peak","name":"حلى إبن حافظ","lat":24.9380933,"lon":37.8322809,"elevationM":null},{"id":"node:9023454479","kind":"peak","name":"حلى النبخي","lat":24.9559751,"lon":37.8093595,"elevationM":null},{"id":"node:9023469623","kind":"peak","name":"أبو جرَد","lat":24.9138481,"lon":37.8242473,"elevationM":null},{"id":"node:9023469869","kind":"peak","name":"ضلع الذيابي","lat":24.8779657,"lon":37.8520285,"elevationM":null},{"id":"node:9222822178","kind":"peak","name":"العَرف","lat":24.8647034,"lon":37.708033,"elevationM":null},{"id":"node:9222856589","kind":"peak","name":"الحمراء","lat":24.8672256,"lon":37.6868324,"elevationM":null},{"id":"node:9222870094","kind":"peak","name":"ذِنَبة","lat":24.7882595,"lon":37.746151,"elevationM":null},{"id":"node:9222894029","kind":"peak","name":"الشامة","lat":24.8647873,"lon":37.6680254,"elevationM":null},{"id":"node:9222896627","kind":"peak","name":"الشفيَّه","lat":24.8050187,"lon":37.770654,"elevationM":null},{"id":"node:9222899601","kind":"peak","name":"السديِّرة","lat":24.781718,"lon":37.7637024,"elevationM":null},{"id":"node:9222899602","kind":"peak","name":"الكَين","lat":24.8785343,"lon":37.6613159,"elevationM":null},{"id":"node:9222907404","kind":"peak","name":"أم جنيَّة","lat":24.9069719,"lon":37.6598534,"elevationM":null},{"id":"node:9222938913","kind":"peak","name":"اللحِن","lat":24.9443569,"lon":37.6768875,"elevationM":null},{"id":"node:9222959358","kind":"peak","name":"الظُّماء","lat":24.9200516,"lon":37.6676254,"elevationM":null},{"id":"node:9277782802","kind":"peak","name":"ضليع السُّحيناء","lat":24.4528443,"lon":37.4739986,"elevationM":null},{"id":"node:9277788140","kind":"peak","name":"العنتل","lat":24.5007706,"lon":37.4898415,"elevationM":null},{"id":"node:9279440919","kind":"peak","name":"القطعاء","lat":24.9870739,"lon":37.6433258,"elevationM":null},{"id":"node:9279466974","kind":"peak","name":"الأصهب","lat":24.9780499,"lon":37.6768634,"elevationM":null},{"id":"node:9279467024","kind":"peak","name":"حليات حمد","lat":24.9255053,"lon":37.7740651,"elevationM":null},{"id":"node:9279474012","kind":"peak","name":"القُبْع","lat":24.7161183,"lon":37.7696822,"elevationM":null},{"id":"node:9279480690","kind":"peak","name":"حلَي الصلعة","lat":24.845219,"lon":37.8011823,"elevationM":null},{"id":"node:9279494436","kind":"peak","name":"خضراء جميل","lat":24.6578348,"lon":37.8520705,"elevationM":null},{"id":"node:9697294235","kind":"peak","name":"خنيفسة","lat":24.3353671,"lon":37.9571971,"elevationM":null},{"id":"node:11871874766","kind":"peak","name":"جِبال مَرَر","lat":24.7158229,"lon":37.4191988,"elevationM":null},{"id":"node:11871883704","kind":"peak","name":"جبل الجرّة","lat":24.6667253,"lon":37.3160789,"elevationM":null},{"id":"node:11871883738","kind":"peak","name":"جبل البوانة","lat":24.7334606,"lon":37.3306906,"elevationM":null},{"id":"node:11871883983","kind":"peak","name":"جِبال السَمرَة","lat":24.6673556,"lon":37.4312693,"elevationM":null},{"id":"node:11871884006","kind":"peak","name":"جبل رأس جربول","lat":24.2747501,"lon":37.7350256,"elevationM":null}]}