{"tileKey":"la_p34_lo_m120","version":"v1-1775891056926","entries":[{"id":"node:358779483","kind":"peak","name":"Alamar Hill","lat":34.6294327,"lon":-119.59124,"elevationM":1099},{"id":"node:358779533","kind":"peak","name":"Alexander Peak","lat":34.5991586,"lon":-119.7631939,"elevationM":1247},{"id":"node:358781166","kind":"peak","name":"Brush Peak","lat":34.5088829,"lon":-119.8579185,"elevationM":935},{"id":"node:358781361","kind":"peak","name":"Cachuma Mountain","lat":34.7260962,"lon":-119.9009734,"elevationM":1409},{"id":"node:358781744","kind":"peak","name":"Cathedral Peak","lat":34.4864119,"lon":-119.7169288,"elevationM":1016},{"id":"node:358782063","kind":"peak","name":"Chismahoo Mountain","lat":34.4441605,"lon":-119.4209526,"elevationM":891},{"id":"node:358783069","kind":"peak","name":"Divide Peak","lat":34.4769372,"lon":-119.4453986,"elevationM":1384},{"id":"node:358785883","kind":"peak","name":"Hines Peak","lat":34.5107371,"lon":-119.0755922,"elevationM":2041},{"id":"node:358787092","kind":"peak","name":"La Cumbre Peak","lat":34.4944407,"lon":-119.7126376,"elevationM":1215},{"id":"node:358787096","kind":"peak","name":"La Granada Mountain","lat":34.4177724,"lon":-119.4242856,"elevationM":686},{"id":"node:358787259","kind":"peak","name":"Laguna Peak","lat":34.1086176,"lon":-119.0642687,"elevationM":433},{"id":"node:358787508","kind":"peak","name":"Lavigia Hill","lat":34.4047199,"lon":-119.7151352,"elevationM":140},{"id":"node:358787987","kind":"peak","name":"Loma Alta","lat":34.5811027,"lon":-119.8293063,"elevationM":835},{"id":"node:358789361","kind":"peak","name":"Montecito Peak","lat":34.4718085,"lon":-119.638991,"elevationM":981},{"id":"node:358789569","kind":"peak","name":"Mugu Peak","lat":34.092653,"lon":-119.0550371,"elevationM":384},{"id":"node:358789774","kind":"peak","name":"Noon Peak","lat":34.4691597,"lon":-119.4751222,"elevationM":1212},{"id":"node:358791149","kind":"peak","name":"Rincon Mountain","lat":34.3722183,"lon":-119.4206737,"elevationM":656},{"id":"node:358791390","kind":"peak","name":"Round Mountain","lat":34.1627834,"lon":-119.0564913,"elevationM":164},{"id":"node:358792162","kind":"peak","name":"San Rafael Mountain","lat":34.7109366,"lon":-119.8141335,"elevationM":1973},{"id":"node:358792164","kind":"peak","name":"San Rafael Peak","lat":34.6238759,"lon":-119.0014907,"elevationM":2022},{"id":"node:358792243","kind":"peak","name":"Santa Cruz Peak","lat":34.6691548,"lon":-119.8123604,"elevationM":1687},{"id":"node:358792271","kind":"peak","name":"Santa Paula Peak","lat":34.4402729,"lon":-119.0098246,"elevationM":1497},{"id":"node:358792534","kind":"peak","name":"Shephard Mesa peak","lat":34.4001376,"lon":-119.468354,"elevationM":210},{"id":"node:358792767","kind":"peak","name":"Snowball Mountain","lat":34.4294384,"lon":-119.4828995,"elevationM":512},{"id":"node:358792832","kind":"peak","name":"South Mountain","lat":34.3333335,"lon":-119.0176023,"elevationM":705},{"id":"node:358794629","kind":"peak","name":"White Ledge Peak","lat":34.4697151,"lon":-119.3923405,"elevationM":1396},{"id":"node:358795927","kind":"peak","name":"San Emigdio Mountain","lat":34.8733089,"lon":-119.1789984,"elevationM":2282},{"id":"node:358795929","kind":"peak","name":"San Guillermo Mountain","lat":34.6955215,"lon":-119.1478064,"elevationM":2007},{"id":"node:358795931","kind":"peak","name":"Sawmill Mountain","lat":34.8133025,"lon":-119.1671685,"elevationM":2685},{"id":"node:358795941","kind":"peak","name":"Escapula Peak","lat":34.8638647,"lon":-119.0701051,"elevationM":2160},{"id":"node:358795945","kind":"peak","name":"Lockwood Peak","lat":34.7095859,"lon":-119.0696674,"elevationM":1904},{"id":"node:358796425","kind":"peak","name":"La Jolla Peak","lat":34.1151285,"lon":-119.0490846,"elevationM":466},{"id":"node:358800777","kind":"peak","name":"Antimony Peak","lat":34.8769197,"lon":-119.1123291,"elevationM":2075},{"id":"node:358800838","kind":"peak","name":"Bald Mountain","lat":34.8124824,"lon":-119.9351407,"elevationM":1209},{"id":"node:358800882","kind":"peak","name":"Bee Rock","lat":34.5509928,"lon":-119.9806078,"elevationM":636},{"id":"node:358800919","kind":"peak","name":"Black Mountain","lat":34.4319392,"lon":-119.2220548,"elevationM":541},{"id":"node:358800964","kind":"peak","name":"Broadcast Peak","lat":34.5250497,"lon":-119.9589295,"elevationM":1228},{"id":"node:358800974","kind":"peak","name":"Brush Mountain","lat":34.8844196,"lon":-119.2248335,"elevationM":2149},{"id":"node:358801021","kind":"peak","name":"Camuesa Peak","lat":34.5469381,"lon":-119.6909689,"elevationM":962},{"id":"node:358801090","kind":"peak","name":"Condor Point","lat":34.5048264,"lon":-119.924395,"elevationM":915},{"id":"node:358801144","kind":"peak","name":"Cuyama Peak","lat":34.7538706,"lon":-119.4754007,"elevationM":1787},{"id":"node:358801201","kind":"peak","name":"Eagle Rest Peak","lat":34.9074739,"lon":-119.1337189,"elevationM":1834},{"id":"node:358801256","kind":"peak","name":"Figueroa Mountain","lat":34.7433174,"lon":-119.9851428,"elevationM":1378},{"id":"node:358801268","kind":"peak","name":"Fox Mountain","lat":34.8138694,"lon":-119.6004058,"elevationM":1569},{"id":"node:358801436","kind":"peak","name":"Hildreth Peak","lat":34.6002886,"lon":-119.5518041,"elevationM":1527},{"id":"node:358801624","kind":"peak","name":"Lizard Head","lat":34.6991507,"lon":-119.4787342,"elevationM":1590},{"id":"node:358801627","kind":"peak","name":"Loma Pelona","lat":34.6435992,"lon":-119.6165191,"elevationM":1359},{"id":"node:358801674","kind":"peak","name":"Madulce Peak","lat":34.6910967,"lon":-119.5912396,"elevationM":1993},{"id":"node:358801716","kind":"peak","name":"McPherson Peak","lat":34.8886704,"lon":-119.8131834,"elevationM":1752},{"id":"node:358801756","kind":"peak","name":"Monte Arido","lat":34.539435,"lon":-119.4670668,"elevationM":1831},{"id":"node:358801775","kind":"peak","name":"Morro Hill","lat":34.7388711,"lon":-119.4278985,"elevationM":1395},{"id":"node:358801799","kind":"peak","name":"Nordhoff Peak","lat":34.4980469,"lon":-119.2417782,"elevationM":1349},{"id":"node:358801844","kind":"peak","name":"Old Man Mountain","lat":34.5169992,"lon":-119.4532899,"elevationM":1688},{"id":"node:358801890","kind":"peak","name":"Peak Mountain","lat":34.9022019,"lon":-119.8584708,"elevationM":1773},{"id":"node:358802009","kind":"peak","name":"Reyes Peak","lat":34.6308697,"lon":-119.2816112,"elevationM":2284},{"id":"node:358802070","kind":"peak","name":"Samon Peak","lat":34.7344287,"lon":-119.6456862,"elevationM":1840},{"id":"node:358802122","kind":"peak","name":"Santa Ynez Peak","lat":34.5270485,"lon":-119.978592,"elevationM":1308},{"id":"node:358802241","kind":"peak","name":"Sulphur Mountain","lat":34.4097182,"lon":-119.2031651,"elevationM":822},{"id":"node:358802303","kind":"peak","name":"Thorn Point","lat":34.6063938,"lon":-119.1279122,"elevationM":2092},{"id":"node:358802438","kind":"peak","name":"Wheat Peak","lat":34.8327596,"lon":-119.9834754,"elevationM":712},{"id":"node:358802617","kind":"peak","name":"Chief Peak","lat":34.5105467,"lon":-119.1678864,"elevationM":1703},{"id":"node:358802622","kind":"peak","name":"Grouse Mountain","lat":34.8148148,"lon":-119.182981,"elevationM":2613},{"id":"node:358802625","kind":"peak","name":"Magic Mountain","lat":34.4724515,"lon":-119.2563694,"elevationM":608},{"id":"node:358802956","kind":"peak","name":"Cerro Noroeste","lat":34.8310877,"lon":-119.20356,"elevationM":2525},{"id":"node:358804292","kind":"peak","name":"Goat Rock","lat":34.6916526,"lon":-119.9537528,"elevationM":838},{"id":"node:358804340","kind":"peak","name":"Ortega Hill","lat":34.4219402,"lon":-119.6087402,"elevationM":77},{"id":"node:358804355","kind":"peak","name":"Ranger Peak","lat":34.7216517,"lon":-119.9512528,"elevationM":1376},{"id":"node:358807814","kind":"peak","name":"Big Pine Mountain","lat":34.6977774,"lon":-119.6537724,"elevationM":2077},{"id":"node:358808264","kind":"peak","name":"Little Pine Mountain","lat":34.6005475,"lon":-119.7390264,"elevationM":1368},{"id":"node:358808320","kind":"peak","name":"McKinley Mountain","lat":34.7024864,"lon":-119.8456942,"elevationM":1887},{"id":"node:358808419","kind":"peak","name":"Ortega Hill","lat":34.5737863,"lon":-119.355203,"elevationM":1613},{"id":"node:358808595","kind":"peak","name":"Red Mountain","lat":34.3477757,"lon":-119.3442813,"elevationM":644},{"id":"node:358808644","kind":"peak","name":"Sage Hill","lat":34.5563822,"lon":-119.7973618,"elevationM":719},{"id":"node:358820076","kind":"peak","name":"Dibblee Hill","lat":34.4063863,"lon":-119.6981898,"elevationM":32},{"id":"node:358847800","kind":"peak","name":"Camel Peak","lat":34.0086151,"lon":-119.4181724,"elevationM":247},{"id":"node:358852194","kind":"peak","name":"Arlington Peak","lat":34.4827743,"lon":-119.7145818,"elevationM":993},{"id":"node:358852505","kind":"peak","name":"Pollard Point","lat":34.5325,"lon":-119.2411111,"elevationM":1121},{"id":"node:469477859","kind":"peak","name":"Inspiration Point","lat":34.4721779,"lon":-119.7147841,"elevationM":null},{"id":"node:892884033","kind":"peak","name":"Mugu Rock","lat":34.0861219,"lon":-119.0605257,"elevationM":null},{"id":"node:2350065707","kind":"peak","name":"Mount Pinos","lat":34.812818,"lon":-119.1453967,"elevationM":2697},{"id":"node:2722311916","kind":"peak","name":"Summit Peak","lat":34.0109553,"lon":-119.4282614,"elevationM":285},{"id":"node:2729186169","kind":"peak","name":"Harbor","lat":34.0149264,"lon":-119.6745122,"elevationM":169},{"id":"node:2729186173","kind":"peak","name":"High Mount","lat":34.0267247,"lon":-119.5841305,"elevationM":482},{"id":"node:2729186186","kind":"peak","name":"Montañon Peak","lat":34.0181179,"lon":-119.5747584,"elevationM":551},{"id":"node:2729186189","kind":"peak","name":"Mount Pleasant","lat":34.0044706,"lon":-119.6493365,"elevationM":426},{"id":"node:4317608386","kind":"peak","name":"Devil's Peak","lat":34.0291623,"lon":-119.7843861,"elevationM":740},{"id":"node:4622812825","kind":"peak","name":"White Mountain","lat":34.4877409,"lon":-119.6907225,"elevationM":1162},{"id":"node:4622835502","kind":"peak","name":"Barger Peak","lat":34.4922537,"lon":-119.734918,"elevationM":1036},{"id":"node:6615112749","kind":"peak","name":"CSUCI Repeater Station","lat":34.1663461,"lon":-119.038808,"elevationM":125},{"id":"node:7170927163","kind":"peak","name":"Peanut Hill","lat":34.1610164,"lon":-119.048406,"elevationM":null},{"id":"node:8417249139","kind":"peak","name":"Bubb's Peak","lat":34.4721964,"lon":-119.7060335,"elevationM":null},{"id":"node:9074640454","kind":"peak","name":"Topatopa Bluff","lat":34.4985909,"lon":-119.1073404,"elevationM":1945},{"id":"node:9727695942","kind":"peak","name":"Haddock Mountain","lat":34.623521,"lon":-119.2408683,"elevationM":2265},{"id":"node:9821603877","kind":"peak","name":"Twin Peaks","lat":34.3909673,"lon":-119.3415933,"elevationM":null},{"id":"node:11028468827","kind":"peak","name":"Sisar Peak","lat":34.4987594,"lon":-119.1413721,"elevationM":1680},{"id":"node:11360427088","kind":"peak","name":"Krotona Hill","lat":34.4397293,"lon":-119.2786901,"elevationM":null},{"id":"node:12790973722","kind":"peak","name":"Loma de la Cruz","lat":34.2850344,"lon":-119.2958137,"elevationM":120}]}