{"tileKey":"la_p41_lo_m112","version":"v1-1775891056926","entries":[{"id":"node:356501611","kind":"peak","name":"Hanks Hill","lat":41.5132787,"lon":-111.0201875,"elevationM":2110},{"id":"node:356504698","kind":"peak","name":"The Needles","lat":41.1646686,"lon":-111.0357385,"elevationM":2248},{"id":"node:356672025","kind":"peak","name":"Big Hill","lat":41.9960359,"lon":-111.9871753,"elevationM":1743},{"id":"node:356672077","kind":"peak","name":"Black Mountain","lat":41.9604918,"lon":-111.2313108,"elevationM":2349},{"id":"node:356672121","kind":"peak","name":"Bolly Knob","lat":41.1141108,"lon":-111.5607608,"elevationM":2190},{"id":"node:356672823","kind":"peak","name":"Gold Hill","lat":41.586327,"lon":-111.5013189,"elevationM":2466},{"id":"node:356673019","kind":"peak","name":"Haystack Mountain","lat":41.1177213,"lon":-111.7060454,"elevationM":2004},{"id":"node:356673464","kind":"peak","name":"Limestone Peak","lat":41.5999422,"lon":-111.229642,"elevationM":2224},{"id":"node:356673511","kind":"peak","name":"Little Long Hill","lat":41.5443874,"lon":-111.1879728,"elevationM":2006},{"id":"node:356673834","kind":"peak","name":"Pete McCombs Hill","lat":41.9435367,"lon":-111.9885631,"elevationM":1609},{"id":"node:356673886","kind":"peak","name":"Porcupine Mountain","lat":41.018281,"lon":-111.1104622,"elevationM":2801},{"id":"node:356673939","kind":"peak","name":"Red Hill","lat":41.4213329,"lon":-111.1424131,"elevationM":2038},{"id":"node:356673952","kind":"peak","name":"Red Knoll","lat":41.8193854,"lon":-111.1540852,"elevationM":2070},{"id":"node:356673954","kind":"peak","name":"Red Knoll","lat":41.9702163,"lon":-111.0557471,"elevationM":2252},{"id":"node:356673976","kind":"peak","name":"Rex Peak","lat":41.6563329,"lon":-111.0940815,"elevationM":2424},{"id":"node:356674262","kind":"peak","name":"Pine Butte","lat":41.3732745,"lon":-111.455202,"elevationM":2662},{"id":"node:356674337","kind":"peak","name":"Sugarloaf","lat":41.607998,"lon":-111.2129747,"elevationM":2072},{"id":"node:356674367","kind":"peak","name":"Swan Peak","lat":41.98018,"lon":-111.4654944,"elevationM":2771},{"id":"node:356674525","kind":"peak","name":"The Head","lat":41.1121299,"lon":-111.6455384,"elevationM":2626},{"id":"node:356677217","kind":"peak","name":"Windy Knoll","lat":41.0660566,"lon":-111.421032,"elevationM":2465},{"id":"node:356677435","kind":"peak","name":"Alex Beard Hill","lat":41.4629927,"lon":-111.8585526,"elevationM":2186},{"id":"node:356677469","kind":"peak","name":"Babbit Shanty Hill","lat":41.5816001,"lon":-111.9621677,"elevationM":1957},{"id":"node:356677475","kind":"peak","name":"Baker Knoll","lat":41.8510469,"lon":-111.3927061,"elevationM":1833},{"id":"node:356677478","kind":"peak","name":"Bald Head","lat":41.4763258,"lon":-111.7610503,"elevationM":2124},{"id":"node:356677501","kind":"peak","name":"Baldy Peak","lat":41.4054965,"lon":-111.4518696,"elevationM":2637},{"id":"node:356677528","kind":"peak","name":"Beaver Mountain","lat":41.9640972,"lon":-111.5579911,"elevationM":2696},{"id":"node:356677535","kind":"peak","name":"Beirdneau Peak","lat":41.792924,"lon":-111.6941705,"elevationM":2715},{"id":"node:356677539","kind":"peak","name":"Ben Lomond","lat":41.3632454,"lon":-111.9606838,"elevationM":2960},{"id":"node:356677548","kind":"peak","name":"Big Baldy","lat":41.6743772,"lon":-111.7524407,"elevationM":2700},{"id":"node:356677559","kind":"peak","name":"Big Hill","lat":41.5096577,"lon":-111.9563334,"elevationM":1762},{"id":"node:356677561","kind":"peak","name":"Big Mahogany Mountain","lat":41.1304989,"lon":-111.7041009,"elevationM":2358},{"id":"node:356677583","kind":"peak","name":"Black Mountain","lat":41.432438,"lon":-111.9588325,"elevationM":2494},{"id":"node:356677587","kind":"peak","name":"Black Peak","lat":41.5610449,"lon":-111.9963351,"elevationM":2348},{"id":"node:356677602","kind":"peak","name":"Blue Hill","lat":41.5713227,"lon":-111.9516117,"elevationM":1845},{"id":"node:356677613","kind":"peak","name":"Boulder Mountain","lat":41.689102,"lon":-111.5774343,"elevationM":2305},{"id":"node:356677707","kind":"peak","name":"Bybee Knoll","lat":41.1860541,"lon":-111.5638167,"elevationM":2624},{"id":"node:356677731","kind":"peak","name":"Cart Hill","lat":41.5971552,"lon":-111.9682791,"elevationM":1881},{"id":"node:356677767","kind":"peak","name":"Cedar Hill","lat":41.5318794,"lon":-111.927444,"elevationM":1955},{"id":"node:356677832","kind":"peak","name":"Cherry Peak","lat":41.9232626,"lon":-111.695497,"elevationM":2982},{"id":"node:356677846","kind":"peak","name":"Chilly Peak","lat":41.3488295,"lon":-111.9291084,"elevationM":2606},{"id":"node:356677990","kind":"peak","name":"Crow Mountain","lat":41.8713175,"lon":-111.8102227,"elevationM":1681},{"id":"node:356678035","kind":"peak","name":"De Moisy Peak","lat":41.1879989,"lon":-111.872995,"elevationM":2847},{"id":"node:356678113","kind":"peak","name":"Doubletop Mountain","lat":41.975582,"lon":-111.6613237,"elevationM":2970},{"id":"node:356678134","kind":"peak","name":"Durst Mountain","lat":41.1396655,"lon":-111.6727106,"elevationM":2819},{"id":"node:356678214","kind":"peak","name":"Eccles Peak","lat":41.4916066,"lon":-111.4643716,"elevationM":2757},{"id":"node:356678223","kind":"peak","name":"Elk Mountain","lat":41.1810536,"lon":-111.6868782,"elevationM":2257},{"id":"node:356678226","kind":"peak","name":"Mount Elmer","lat":41.8529862,"lon":-111.6885515,"elevationM":2943},{"id":"node:356678403","kind":"peak","name":"Flat Bottom Hill","lat":41.5310458,"lon":-111.9813343,"elevationM":2161},{"id":"node:356678502","kind":"peak","name":"Fourmile Hill","lat":41.500214,"lon":-111.8268854,"elevationM":1735},{"id":"node:356678513","kind":"peak","name":"Francis Peak","lat":41.0331136,"lon":-111.8381793,"elevationM":2904},{"id":"node:356678619","kind":"peak","name":"Goat Knoll","lat":41.1449437,"lon":-111.5568718,"elevationM":2419},{"id":"node:356678623","kind":"peak","name":"Mount Gog","lat":41.9310408,"lon":-111.654662,"elevationM":2954},{"id":"node:356678627","kind":"peak","name":"Gold Mine Hill","lat":41.5286651,"lon":-111.9361867,"elevationM":1775},{"id":"node:356678697","kind":"peak","name":"Grizzly Peak","lat":41.4288271,"lon":-111.9843885,"elevationM":2662},{"id":"node:356678706","kind":"peak","name":"Guilder Peak","lat":41.2266093,"lon":-111.502147,"elevationM":2505},{"id":"node:356678806","kind":"peak","name":"Herd Mountain","lat":41.22272,"lon":-111.5990963,"elevationM":2514},{"id":"node:356678850","kind":"peak","name":"Hoodoo Knoll","lat":41.1679988,"lon":-111.5771506,"elevationM":2545},{"id":"node:356678919","kind":"peak","name":"James Peak","lat":41.3914242,"lon":-111.7929208,"elevationM":2869},{"id":"node:356678920","kind":"peak","name":"Mount Jardine","lat":41.833264,"lon":-111.7024407,"elevationM":2917},{"id":"node:356679018","kind":"peak","name":"Lewis Peak","lat":41.2793355,"lon":-111.9217658,"elevationM":2445},{"id":"node:356679096","kind":"peak","name":"Little Baldy","lat":41.708821,"lon":-111.7504965,"elevationM":2671},{"id":"node:356679115","kind":"peak","name":"Jen's Knoll","lat":41.5050357,"lon":-111.9263424,"elevationM":1629},{"id":"node:356679117","kind":"peak","name":"Little Mahogany Mountain","lat":41.1418875,"lon":-111.7082679,"elevationM":2193},{"id":"node:356679118","kind":"peak","name":"Little Monte","lat":41.4160513,"lon":-111.5210394,"elevationM":2730},{"id":"node:356679139","kind":"peak","name":"Logan Peak","lat":41.7132659,"lon":-111.7177175,"elevationM":2959},{"id":"node:356679145","kind":"peak","name":"Long Hill","lat":41.8211066,"lon":-111.7986146,"elevationM":1580},{"id":"node:356679178","kind":"peak","name":"Mount Magog","lat":41.9171522,"lon":-111.655773,"elevationM":2972},{"id":"node:356679193","kind":"peak","name":"Mahogany Range","lat":41.6435458,"lon":-111.6696595,"elevationM":2298},{"id":"node:356679194","kind":"peak","name":"Malans Peak","lat":41.2071659,"lon":-111.9185515,"elevationM":2109},{"id":"node:356679221","kind":"peak","name":"McKenzie Mountain","lat":41.4896588,"lon":-111.766606,"elevationM":2136},{"id":"node:356679223","kind":"peak","name":"Mount McKinnon","lat":41.4518843,"lon":-111.5049282,"elevationM":2770},{"id":"node:356679265","kind":"peak","name":"Middle Mountain","lat":41.4460486,"lon":-111.8099402,"elevationM":2152},{"id":"node:356679268","kind":"peak","name":"Middle Peak","lat":41.1627211,"lon":-111.8560502,"elevationM":2289},{"id":"node:356679283","kind":"peak","name":"Millville Peak","lat":41.6766001,"lon":-111.7163283,"elevationM":2832},{"id":"node:356679298","kind":"peak","name":"Monte Cristo Peak","lat":41.4218846,"lon":-111.5174282,"elevationM":2787},{"id":"node:356679302","kind":"peak","name":"Monument Peak","lat":41.6852173,"lon":-111.3543703,"elevationM":2503},{"id":"node:356679331","kind":"peak","name":"Murrays Hill","lat":41.6101242,"lon":-111.9605584,"elevationM":1832},{"id":"node:356679334","kind":"peak","name":"Naomi Peak","lat":41.9113575,"lon":-111.6753452,"elevationM":3041},{"id":"node:356679350","kind":"peak","name":"Nielsons Peak","lat":41.081055,"lon":-111.7843814,"elevationM":1883},{"id":"node:356679522","kind":"peak","name":"Mount Pisgah","lat":41.5510455,"lon":-111.9360555,"elevationM":2161},{"id":"node:356679569","kind":"peak","name":"Providence Peak","lat":41.7040996,"lon":-111.7127173,"elevationM":2922},{"id":"node:356679664","kind":"peak","name":"Red Hill","lat":41.4471597,"lon":-111.9141093,"elevationM":2015},{"id":"node:356679692","kind":"peak","name":"Red Rock","lat":41.1507789,"lon":-111.1771323,"elevationM":1991},{"id":"node:356679699","kind":"peak","name":"Red Spur Mountain","lat":41.6316003,"lon":-111.4119649,"elevationM":2703},{"id":"node:356679713","kind":"peak","name":"Richmond Knoll","lat":41.9638613,"lon":-111.7897223,"elevationM":1609},{"id":"node:356679767","kind":"peak","name":"Round Hill","lat":41.523788,"lon":-111.9381436,"elevationM":1825},{"id":"node:356679771","kind":"peak","name":"Round Hill","lat":41.8115965,"lon":-111.7924435,"elevationM":1642},{"id":"node:356679867","kind":"peak","name":"Sardine Peak","lat":41.2421651,"lon":-111.8685507,"elevationM":2282},{"id":"node:356679870","kind":"peak","name":"Sardine Summit","lat":41.5498051,"lon":-111.9550017,"elevationM":1823},{"id":"node:356679901","kind":"peak","name":"Sharp Mountain","lat":41.4416046,"lon":-111.7218818,"elevationM":2770},{"id":"node:356680029","kind":"peak","name":"Steam Mill Peak","lat":41.9502077,"lon":-111.6193827,"elevationM":2831},{"id":"node:356680038","kind":"peak","name":"Stoddard Hill","lat":41.5993771,"lon":-111.9999467,"elevationM":2112},{"id":"node:356680050","kind":"peak","name":"Strawberry Peak","lat":41.1807766,"lon":-111.869106,"elevationM":2802},{"id":"node:356680055","kind":"peak","name":"Strongs Peak","lat":41.1879991,"lon":-111.8991066,"elevationM":2503},{"id":"node:356680110","kind":"peak","name":"Table Mountain","lat":41.3027215,"lon":-111.2085238,"elevationM":2147},{"id":"node:356680128","kind":"peak","name":"Temple Baldy","lat":41.7140251,"lon":-111.7625918,"elevationM":2473},{"id":"node:356680129","kind":"peak","name":"Temple Peak","lat":41.8282668,"lon":-111.5343783,"elevationM":2743},{"id":"node:356680158","kind":"peak","name":"Three Hill","lat":41.8052079,"lon":-111.7760541,"elevationM":1727},{"id":"node:356680212","kind":"peak","name":"Twin Peaks","lat":41.7416062,"lon":-111.3313147,"elevationM":2334},{"id":"node:356680390","kind":"peak","name":"Willard Mountain","lat":41.3907729,"lon":-111.9857769,"elevationM":2867},{"id":"node:356680393","kind":"peak","name":"Willard Peak","lat":41.3828016,"lon":-111.9744755,"elevationM":2976},{"id":"node:356681722","kind":"peak","name":"North Ogden Peak","lat":41.3443849,"lon":-111.8971633,"elevationM":1930},{"id":"node:356683038","kind":"peak","name":"Allen Peak","lat":41.2042382,"lon":-111.8843057,"elevationM":2885},{"id":"node:356683044","kind":"peak","name":"Guilder Peak","lat":41.2257759,"lon":-111.496869,"elevationM":2532},{"id":"node:356684179","kind":"peak","name":"Thurston Peak","lat":41.0821221,"lon":-111.8516031,"elevationM":2954},{"id":"node:356684354","kind":"peak","name":"Red Mountain","lat":41.4829971,"lon":-111.3240883,"elevationM":2395},{"id":"node:356684668","kind":"peak","name":"Castle Rock","lat":41.7513199,"lon":-111.773831,"elevationM":1917},{"id":"node:356684949","kind":"peak","name":"Windy Knoll","lat":41.0857787,"lon":-111.3782522,"elevationM":2467},{"id":"node:356685486","kind":"peak","name":"Bridger Peak","lat":41.9990977,"lon":-111.476876,"elevationM":2821},{"id":"node:356685559","kind":"peak","name":"Cobabe Peak","lat":41.3847222,"lon":-111.7891667,"elevationM":2742},{"id":"node:3412141740","kind":"peak","name":"Mount Ogden","lat":41.1999128,"lon":-111.882208,"elevationM":2917},{"id":"node:3464324128","kind":"peak","name":"Hopkins","lat":41.1300482,"lon":-111.3666604,"elevationM":2457},{"id":"node:3479552332","kind":"peak","name":"Boyder Peak","lat":41.2877391,"lon":-111.6783848,"elevationM":null},{"id":"node:6682290708","kind":"peak","name":"Eyrie Peak","lat":41.2869432,"lon":-111.8951045,"elevationM":2480},{"id":"node:8244890639","kind":"peak","name":"The Hogsback","lat":41.0021046,"lon":-111.7877237,"elevationM":2422},{"id":"node:8244890644","kind":"peak","name":"Snow Horse Ridge","lat":41.0628096,"lon":-111.8491619,"elevationM":2893},{"id":"node:8322898859","kind":"peak","name":"Norm's Mountain","lat":41.0243622,"lon":-111.2864484,"elevationM":null},{"id":"node:9894147636","kind":"peak","name":"Flat Top Mountain","lat":41.3472141,"lon":-111.7817349,"elevationM":2505},{"id":"node:10537934197","kind":"peak","name":"Cove Mountain","lat":41.9884375,"lon":-111.7078246,"elevationM":2486},{"id":"node:10759637501","kind":"peak","name":"No Name Peak","lat":41.2096032,"lon":-111.8804936,"elevationM":2762},{"id":"node:10759637502","kind":"peak","name":"The Needles","lat":41.1925937,"lon":-111.8777249,"elevationM":2822},{"id":"node:10899892077","kind":"peak","name":"Sinker","lat":41.8902435,"lon":-111.5316569,"elevationM":2615},{"id":"node:11367185844","kind":"peak","name":"The Point","lat":41.8076992,"lon":-111.999382,"elevationM":null},{"id":"node:11367187376","kind":"peak","name":"Little Mountain","lat":41.8972864,"lon":-111.9616037,"elevationM":null},{"id":"node:12036747680","kind":"peak","name":"Taylor Peak","lat":41.2229292,"lon":-111.9005005,"elevationM":2315},{"id":"node:12085615445","kind":"peak","name":"Heritage Knoll","lat":41.2781581,"lon":-111.7870064,"elevationM":null}]}