{"tileKey":"la_p36_lo_p113","version":"v1-1775891056926","entries":[{"id":"node:3397738991","kind":"peak","name":"老顶山","lat":36.2135485,"lon":113.1956394,"elevationM":1378},{"id":"node:4513800939","kind":"peak","name":"青崖寨","lat":36.9659559,"lon":113.7695346,"elevationM":1899},{"id":"node:6988282870","kind":"peak","name":"屹尖寨","lat":36.17185,"lon":113.7363374,"elevationM":1392},{"id":"node:6993658115","kind":"peak","name":"奶奶山","lat":36.187373,"lon":113.9258462,"elevationM":784},{"id":"node:7469045155","kind":"peak","name":"万宝山","lat":36.800544,"lon":113.8690907,"elevationM":858},{"id":"node:7469045156","kind":"peak","name":"白云山","lat":36.874188,"lon":113.9266026,"elevationM":1308},{"id":"node:7469045157","kind":"peak","name":"南大垴","lat":36.4752299,"lon":113.9694321,"elevationM":904},{"id":"node:9449191659","kind":"peak","name":"广志山","lat":36.5994049,"lon":113.2784166,"elevationM":1807},{"id":"node:11395233432","kind":"peak","name":"北武当山","lat":36.957839,"lon":113.9590943,"elevationM":1437},{"id":"node:11395243107","kind":"peak","name":"马武寨","lat":36.9161211,"lon":113.8536125,"elevationM":1567},{"id":"node:11395262470","kind":"peak","name":"茶壶山","lat":36.986913,"lon":113.8917066,"elevationM":1421},{"id":"node:11395290384","kind":"peak","name":"摩天岭","lat":36.9942372,"lon":113.7947618,"elevationM":1748},{"id":"node:11395305627","kind":"peak","name":"黑龙洞山","lat":36.952516,"lon":113.7527746,"elevationM":1789},{"id":"node:11395320111","kind":"peak","name":"茅草疙瘩","lat":36.927464,"lon":113.7682932,"elevationM":null},{"id":"node:11395328165","kind":"peak","name":"板山","lat":36.9431815,"lon":113.8254598,"elevationM":1550},{"id":"node:11395340285","kind":"peak","name":"五峰山","lat":36.8755234,"lon":113.847217,"elevationM":1400},{"id":"node:11395345716","kind":"peak","name":"人头山","lat":36.8862272,"lon":113.7883384,"elevationM":1518},{"id":"node:11395351185","kind":"peak","name":"北寨","lat":36.9336411,"lon":113.8755292,"elevationM":1272},{"id":"node:11395351186","kind":"peak","name":"南寨","lat":36.9196972,"lon":113.8826311,"elevationM":1203},{"id":"node:12039025987","kind":"peak","name":"风门口","lat":36.0020708,"lon":113.6634217,"elevationM":null},{"id":"node:12176906552","kind":"peak","name":"轿顶山","lat":36.0320784,"lon":113.7127524,"elevationM":null}]}