{"tileKey":"la_p45_lo_m109","version":"v1-1775891056926","entries":[{"id":"node:357923689","kind":"peak","name":"Barrys Island","lat":45.1035676,"lon":-108.1956703,"elevationM":1194},{"id":"node:357925252","kind":"peak","name":"Crown Butte","lat":45.2555072,"lon":-108.5115157,"elevationM":2097},{"id":"node:357925421","kind":"peak","name":"Dead Indian Hill","lat":45.1569018,"lon":-108.1398362,"elevationM":1390},{"id":"node:357925489","kind":"peak","name":"Deer Mountain","lat":45.1882808,"lon":-108.9343088,"elevationM":1347},{"id":"node:357926771","kind":"peak","name":"Grapevine Dome","lat":45.3455136,"lon":-108.0837268,"elevationM":1367},{"id":"node:357926998","kind":"peak","name":"Harris Hill","lat":45.546058,"lon":-108.9234813,"elevationM":1241},{"id":"node:357928406","kind":"peak","name":"McCormick Hill","lat":45.5380077,"lon":-108.5556889,"elevationM":1363},{"id":"node:357928599","kind":"peak","name":"Miller Butte","lat":45.6780013,"lon":-108.9509844,"elevationM":1218},{"id":"node:357929655","kind":"peak","name":"Rattlesnake Butte","lat":45.9077327,"lon":-108.4381888,"elevationM":1020},{"id":"node:357930178","kind":"peak","name":"Round Butte","lat":45.3374477,"lon":-108.882365,"elevationM":1181},{"id":"node:357930180","kind":"peak","name":"Round Butte","lat":45.5649494,"lon":-108.7604196,"elevationM":1241},{"id":"node:357930417","kind":"peak","name":"Schwend Hill","lat":45.2388363,"lon":-108.9181979,"elevationM":1229},{"id":"node:357930820","kind":"peak","name":"Square Butte","lat":45.6630025,"lon":-108.8909819,"elevationM":1150},{"id":"node:357930857","kind":"peak","name":"Deer Point","lat":45.983014,"lon":-108.3042939,"elevationM":996},{"id":"node:357930949","kind":"peak","name":"Stratford Hill","lat":45.5185627,"lon":-108.5984681,"elevationM":1514},{"id":"node:357932134","kind":"peak","name":"West Pryor Mountain","lat":45.3207841,"lon":-108.6123541,"elevationM":2036},{"id":"node:357932407","kind":"peak","name":"Woody Mountain","lat":45.5202346,"lon":-108.199289,"elevationM":1321},{"id":"node:357932446","kind":"peak","name":"Youngs Point","lat":45.5996675,"lon":-108.9968184,"elevationM":1245},{"id":"node:357932801","kind":"peak","name":"Bar Hill","lat":45.0471776,"lon":-108.2537268,"elevationM":1304},{"id":"node:357933107","kind":"peak","name":"Big Pryor Mountain","lat":45.1605079,"lon":-108.4695688,"elevationM":2675},{"id":"node:357933176","kind":"peak","name":"Black Butte","lat":45.1896714,"lon":-108.7431904,"elevationM":1577},{"id":"node:357933516","kind":"peak","name":"Buffalo Jump","lat":45.2380121,"lon":-108.2812303,"elevationM":1403},{"id":"node:357934595","kind":"peak","name":"East Pryor Mountain","lat":45.1682882,"lon":-108.3351199,"elevationM":2673},{"id":"node:357937721","kind":"peak","name":"Penney Peak","lat":45.0407864,"lon":-108.3998428,"elevationM":1536},{"id":"node:357938448","kind":"peak","name":"Red Pryor Mountain","lat":45.1180081,"lon":-108.4534566,"elevationM":2575},{"id":"node:357940776","kind":"peak","name":"Yellow Hill","lat":45.0280107,"lon":-108.264838,"elevationM":1342},{"id":"node:357957415","kind":"peak","name":"Ninemile Hill","lat":45.8493969,"lon":-108.5806938,"elevationM":1060},{"id":"node:7595597315","kind":"peak","name":"Cooper Ridge","lat":45.2513117,"lon":-108.0035499,"elevationM":1524}]}