{"tileKey":"la_p41_lo_m108","version":"v1-1775891056926","entries":[{"id":"node:356498813","kind":"peak","name":"Allen Hill","lat":41.0835751,"lon":-107.5831227,"elevationM":2115},{"id":"node:356499013","kind":"peak","name":"Baldy Butte","lat":41.459682,"lon":-107.7206271,"elevationM":2097},{"id":"node:356499746","kind":"peak","name":"Bridger Peak","lat":41.1864427,"lon":-107.0318397,"elevationM":3341},{"id":"node:356499768","kind":"peak","name":"Browns Hill","lat":41.1874629,"lon":-107.4436741,"elevationM":2364},{"id":"node:356500102","kind":"peak","name":"Cherokee Hill","lat":41.7302372,"lon":-107.6625694,"elevationM":2143},{"id":"node:356500104","kind":"peak","name":"Cherokee Peak","lat":41.8149587,"lon":-107.3261665,"elevationM":2351},{"id":"node:356500191","kind":"peak","name":"China Butte","lat":41.4807934,"lon":-107.6697922,"elevationM":2182},{"id":"node:356500199","kind":"peak","name":"Chokecherry Knob","lat":41.6796813,"lon":-107.237274,"elevationM":2474},{"id":"node:356500290","kind":"peak","name":"Coal Butte","lat":41.9269016,"lon":-107.9903618,"elevationM":2036},{"id":"node:356500386","kind":"peak","name":"Courthouse Butte","lat":41.2488503,"lon":-107.9728589,"elevationM":2133},{"id":"node:356500391","kind":"peak","name":"Cow Butte","lat":41.651904,"lon":-107.6642363,"elevationM":2179},{"id":"node:356500396","kind":"peak","name":"Cow Creek Butte","lat":41.363295,"lon":-107.5056203,"elevationM":2405},{"id":"node:356500526","kind":"peak","name":"Deep Creek Butte","lat":41.1380189,"lon":-107.5784004,"elevationM":2029},{"id":"node:356500585","kind":"peak","name":"Dexter Peak","lat":41.2519065,"lon":-107.182833,"elevationM":2759},{"id":"node:356500623","kind":"peak","name":"Divide Peak","lat":41.296906,"lon":-107.1725544,"elevationM":2766},{"id":"node:356500644","kind":"peak","name":"Dolan Mesa","lat":41.0355204,"lon":-107.4908976,"elevationM":1985},{"id":"node:356500680","kind":"peak","name":"Doty Mountain","lat":41.4505161,"lon":-107.6447914,"elevationM":2328},{"id":"node:356500852","kind":"peak","name":"East Flat Top","lat":41.1846844,"lon":-107.8000742,"elevationM":2310},{"id":"node:356501128","kind":"peak","name":"Five Buttes","lat":41.2321845,"lon":-107.4856198,"elevationM":2348},{"id":"node:356501201","kind":"peak","name":"Flat Top Mountain","lat":41.1921844,"lon":-107.8417425,"elevationM":2277},{"id":"node:356501563","kind":"peak","name":"Grenville Dome","lat":41.7638482,"lon":-107.1017137,"elevationM":2060},{"id":"node:356501768","kind":"peak","name":"Horse Butte","lat":41.6521818,"lon":-107.6634029,"elevationM":2177},{"id":"node:356502117","kind":"peak","name":"Johnson Knoll","lat":41.9130135,"lon":-107.7325738,"elevationM":2061},{"id":"node:356502190","kind":"peak","name":"Ketchum Buttes","lat":41.2882952,"lon":-107.4203399,"elevationM":2291},{"id":"node:356502259","kind":"peak","name":"Larsen Knoll","lat":41.9396801,"lon":-107.669238,"elevationM":2099},{"id":"node:356502371","kind":"peak","name":"Little Wild Horse Buttes","lat":41.1702406,"lon":-107.6136793,"elevationM":2141},{"id":"node:356502400","kind":"peak","name":"Lone Butte","lat":41.2605176,"lon":-107.4939533,"elevationM":2339},{"id":"node:356502404","kind":"peak","name":"Lone Haystack Mountain","lat":41.9302367,"lon":-107.0372685,"elevationM":2102},{"id":"node:356502604","kind":"peak","name":"Middlewood Hill","lat":41.431627,"lon":-107.2175542,"elevationM":2447},{"id":"node:356502695","kind":"peak","name":"Mowry Peak","lat":41.244129,"lon":-107.0383842,"elevationM":3135},{"id":"node:356502701","kind":"peak","name":"Muddy Mountain","lat":41.1166304,"lon":-107.537288,"elevationM":2411},{"id":"node:356502705","kind":"peak","name":"Mule Mountain","lat":41.0041326,"lon":-107.1683888,"elevationM":2297},{"id":"node:356502737","kind":"peak","name":"Ninemile Hill","lat":41.906347,"lon":-107.3031109,"elevationM":2216},{"id":"node:356502762","kind":"peak","name":"North Flat Top","lat":41.2199618,"lon":-107.8356312,"elevationM":2383},{"id":"node:356503069","kind":"peak","name":"Pine Butte","lat":41.4660707,"lon":-107.7506281,"elevationM":2076},{"id":"node:356503176","kind":"peak","name":"Big Rocks","lat":41.8549586,"lon":-107.3825581,"elevationM":2140},{"id":"node:356503186","kind":"peak","name":"Poison Buttes","lat":41.0377421,"lon":-107.77674,"elevationM":1928},{"id":"node:356503357","kind":"peak","name":"Quartzite Peak","lat":41.152186,"lon":-107.0628297,"elevationM":2999},{"id":"node:356503403","kind":"peak","name":"Rattlesnake Butte","lat":41.8110706,"lon":-107.0100445,"elevationM":2016},{"id":"node:356503421","kind":"peak","name":"Rawlins Peak","lat":41.8038475,"lon":-107.2689417,"elevationM":2370},{"id":"node:356503546","kind":"peak","name":"Rendle Butte","lat":41.3569059,"lon":-107.4056168,"elevationM":2508},{"id":"node:356503550","kind":"peak","name":"Rendle Hill","lat":41.9727356,"lon":-107.3089452,"elevationM":2329},{"id":"node:356503553","kind":"peak","name":"Rendle Point","lat":41.9774578,"lon":-107.3381132,"elevationM":2270},{"id":"node:356503775","kind":"peak","name":"Ruby Knolls","lat":41.8496805,"lon":-107.7892423,"elevationM":2163},{"id":"node:356503999","kind":"peak","name":"Separation Peak","lat":41.6377378,"lon":-107.3964476,"elevationM":2567},{"id":"node:356504035","kind":"peak","name":"Sheep Mountain","lat":41.0091324,"lon":-107.1847781,"elevationM":2527},{"id":"node:356504512","kind":"peak","name":"Stratton Knoll","lat":41.9419022,"lon":-107.6872944,"elevationM":2097},{"id":"node:356504536","kind":"peak","name":"Sugar Loaf","lat":41.5596815,"lon":-107.7856298,"elevationM":2138},{"id":"node:356504899","kind":"peak","name":"Tincan Hill","lat":41.0644085,"lon":-107.6678476,"elevationM":1966},{"id":"node:356505221","kind":"peak","name":"Vulcan Mountain","lat":41.2080186,"lon":-107.0078278,"elevationM":3282},{"id":"node:356505301","kind":"peak","name":"Weber Mesa","lat":41.0485755,"lon":-107.6264573,"elevationM":1937},{"id":"node:356505324","kind":"peak","name":"West Flat Top Mountain","lat":41.217184,"lon":-107.9181345,"elevationM":2264},{"id":"node:356505440","kind":"peak","name":"Wild Horse Butte","lat":41.1885736,"lon":-107.6122903,"elevationM":2207},{"id":"node:356505530","kind":"peak","name":"Willow Hill","lat":41.9688467,"lon":-107.3481135,"elevationM":2170},{"id":"node:356505572","kind":"peak","name":"Windy Hill","lat":41.812181,"lon":-107.6992383,"elevationM":2181},{"id":"node:356505868","kind":"peak","name":"Battle Mountain","lat":41.031354,"lon":-107.282003,"elevationM":2773},{"id":"node:356506135","kind":"peak","name":"Fletcher Peak","lat":41.0710762,"lon":-107.0928308,"elevationM":2633},{"id":"node:356506269","kind":"peak","name":"Horse Mountain","lat":41.0391316,"lon":-107.3442269,"elevationM":2437},{"id":"node:356506363","kind":"peak","name":"Little Horse Mountain","lat":41.0327428,"lon":-107.3361712,"elevationM":2410},{"id":"node:356506754","kind":"peak","name":"Sharp Hill","lat":41.2813507,"lon":-107.0139389,"elevationM":2871},{"id":"node:356506789","kind":"peak","name":"Singer Peak","lat":41.1927408,"lon":-107.1494988,"elevationM":2902},{"id":"node:356506858","kind":"peak","name":"Sugarloaf Mountain","lat":41.016632,"lon":-107.320893,"elevationM":2203},{"id":"node:356511360","kind":"peak","name":"McCormick Peak","lat":41.1949631,"lon":-107.0844969,"elevationM":3129},{"id":"node:11367649321","kind":"peak","name":"Sheep Mountain","lat":41.6363198,"lon":-107.2489305,"elevationM":2424},{"id":"node:12451499177","kind":"peak","name":"Gale Benchmark","lat":41.893233,"lon":-107.4114579,"elevationM":2213},{"id":"node:12451499449","kind":"peak","name":"Haystack Mountain","lat":41.9223375,"lon":-107.1269257,"elevationM":2397},{"id":"node:12451499481","kind":"peak","name":"Miller Hill","lat":41.5433407,"lon":-107.3528999,"elevationM":2580},{"id":"node:12451499482","kind":"peak","name":"Atlantic Rim West","lat":41.6192462,"lon":-107.3883131,"elevationM":2593}]}