{"tileKey":"la_p54_lo_p26","version":"v1-1775891056926","entries":[{"id":"node:3713299565","kind":"peak","name":"Юрава гара","lat":54.3070127,"lon":26.2850652,"elevationM":255},{"id":"node:3713299571","kind":"peak","name":"Ніколіна гара","lat":54.3103799,"lon":26.2917475,"elevationM":null},{"id":"node:3789185243","kind":"peak","name":"Сарвітута","lat":54.3135439,"lon":26.5752591,"elevationM":220},{"id":"node:3789185255","kind":"peak","name":"Лятуны","lat":54.2949703,"lon":26.5123774,"elevationM":295},{"id":"node:3789185256","kind":"peak","name":"Сакаліная","lat":54.3027463,"lon":26.4715434,"elevationM":295},{"id":"node:3789185957","kind":"peak","name":"Маяк","lat":54.2778416,"lon":26.5343178,"elevationM":279},{"id":"node:3789185968","kind":"peak","name":"Садобы","lat":54.2519252,"lon":26.5545953,"elevationM":245},{"id":"node:3789248245","kind":"peak","name":"Лысая","lat":54.2432321,"lon":26.6376312,"elevationM":239},{"id":"node:3891984708","kind":"peak","name":"Мілідаўская","lat":54.3311773,"lon":26.3735146,"elevationM":320},{"id":"node:3892118849","kind":"peak","name":"Сіняя","lat":54.1925657,"lon":26.2844914,"elevationM":235},{"id":"node:3892224487","kind":"peak","name":"Хадчыха","lat":54.1692622,"lon":26.4068567,"elevationM":223},{"id":"node:3892938657","kind":"peak","name":"Маяковая","lat":54.7453549,"lon":26.5097327,"elevationM":210},{"id":"node:3892957559","kind":"peak","name":"Пелікан","lat":54.46973,"lon":26.1056004,"elevationM":207},{"id":"node:3892989165","kind":"peak","name":"Шылаватая","lat":54.5507514,"lon":26.5138923,"elevationM":195},{"id":"node:3892996593","kind":"peak","name":"Чырвоны Барок","lat":54.1874183,"lon":26.6797064,"elevationM":192},{"id":"node:3893000565","kind":"peak","name":"Надаткі","lat":54.2130674,"lon":26.5764436,"elevationM":192},{"id":"node:3893039335","kind":"peak","name":"Жураўліная","lat":54.073698,"lon":26.3505573,"elevationM":182},{"id":"node:3893041223","kind":"peak","name":"Лысая гара","lat":54.5716272,"lon":26.5484411,"elevationM":182},{"id":"node:3893109586","kind":"peak","name":"Лысая","lat":54.7625057,"lon":26.6807263,"elevationM":169},{"id":"node:3893141190","kind":"peak","name":"Лысая","lat":54.5669799,"lon":26.2303293,"elevationM":160},{"id":"node:3893193679","kind":"peak","name":"Лысая","lat":54.4280299,"lon":26.6102269,"elevationM":155},{"id":"node:3893281285","kind":"peak","name":"Вышэйшая кропка Ашмянскага раёна","lat":54.2916886,"lon":26.0453289,"elevationM":311},{"id":"node:3893561076","kind":"peak","name":"Вышэйшая кропка Свянцянскага ўзвышша","lat":54.9334186,"lon":26.7529183,"elevationM":233},{"id":"node:4137065651","kind":"peak","name":"Чорная гора","lat":54.9135677,"lon":26.787799,"elevationM":223},{"id":"node:4187512633","kind":"peak","name":"Гара сустрэч","lat":54.1247726,"lon":26.4059959,"elevationM":null},{"id":"node:4390585272","kind":"peak","name":"Бойкая","lat":54.1364791,"lon":26.433438,"elevationM":190},{"id":"node:4395824441","kind":"peak","name":"Прытулак","lat":54.4949697,"lon":26.9074249,"elevationM":null},{"id":"node:4922366245","kind":"peak","name":"Гара Любові","lat":54.1370243,"lon":26.4064989,"elevationM":null},{"id":"node:4937623422","kind":"peak","name":"Лысая гара","lat":54.9655916,"lon":26.3848679,"elevationM":null},{"id":"node:5615164413","kind":"peak","name":"Замэчак","lat":54.2053783,"lon":26.2456403,"elevationM":225},{"id":"node:5738090396","kind":"peak","name":"Чорная","lat":54.9020737,"lon":26.9770762,"elevationM":219},{"id":"node:5738090397","kind":"peak","name":"Чорная","lat":54.8933029,"lon":26.8683975,"elevationM":187},{"id":"node:5738091232","kind":"peak","name":"Лісіная","lat":54.8141494,"lon":26.724066,"elevationM":205},{"id":"node:5738091239","kind":"peak","name":"Конеўка","lat":54.857237,"lon":26.8989364,"elevationM":180},{"id":"node:5738091254","kind":"peak","name":"Галыжына","lat":54.8533425,"lon":26.8817268,"elevationM":176},{"id":"node:6634460406","kind":"peak","name":"Татарская","lat":54.25923,"lon":26.0069561,"elevationM":null},{"id":"node:7943155585","kind":"peak","name":"Глубверэст","lat":54.9698023,"lon":26.3911523,"elevationM":null},{"id":"node:8702973974","kind":"peak","name":"Маяковая гара","lat":54.8475879,"lon":26.4020292,"elevationM":null},{"id":"node:9048365239","kind":"peak","name":"Касцёлак","lat":54.3319806,"lon":26.3040555,"elevationM":null},{"id":"node:10053311074","kind":"peak","name":"Аміліна гара","lat":54.2207208,"lon":26.4982295,"elevationM":null},{"id":"node:10200416628","kind":"peak","name":"Пацішкі","lat":54.759478,"lon":26.6174948,"elevationM":197},{"id":"node:11709408974","kind":"peak","name":"Замкавая гара","lat":54.5939974,"lon":26.986016,"elevationM":205}]}