{"tileKey":"la_p53_lo_p27","version":"v1-1775891056926","entries":[{"id":"node:1372197268","kind":"peak","name":"Дзяржынская","lat":53.8486702,"lon":27.0655127,"elevationM":345},{"id":"node:3772981813","kind":"peak","name":"Вышэйшая кропка Уздзенскага раёна","lat":53.6191791,"lon":27.4636714,"elevationM":220},{"id":"node:3800615210","kind":"peak","name":"Гара Сігнальская","lat":53.2522727,"lon":27.7637,"elevationM":201},{"id":"node:3800615212","kind":"peak","name":"Найвышэйшы пункт Слуцкага раёна","lat":53.2577341,"lon":27.7344198,"elevationM":212},{"id":"node:3800992107","kind":"peak","name":"Боўшава","lat":53.1691697,"lon":27.094979,"elevationM":228},{"id":"node:3802145459","kind":"peak","name":"Малебава","lat":53.0613614,"lon":27.0688615,"elevationM":204},{"id":"node:3892049475","kind":"peak","name":"Вышыня Апорная","lat":53.9461242,"lon":27.8149717,"elevationM":260},{"id":"node:3892102193","kind":"peak","name":"вышыня Камандная","lat":53.9019489,"lon":27.7380529,"elevationM":240},{"id":"node:3892122694","kind":"peak","name":"Высата Мішэнная","lat":53.8616031,"lon":27.7681508,"elevationM":234},{"id":"node:3892975805","kind":"peak","name":"Мір-гара","lat":53.0087992,"lon":27.9032992,"elevationM":200},{"id":"node:3892984578","kind":"peak","name":"Гара Петрукоўская","lat":53.206612,"lon":27.3807574,"elevationM":199},{"id":"node:3892988368","kind":"peak","name":"Карабан","lat":53.6105392,"lon":27.5161154,"elevationM":193},{"id":"node:3893011097","kind":"peak","name":"Выбранка","lat":53.6439638,"lon":27.8163023,"elevationM":191},{"id":"node:3893013548","kind":"peak","name":"Гара Высокая","lat":53.4754272,"lon":27.9744644,"elevationM":188},{"id":"node:3893019775","kind":"peak","name":"Хвойка","lat":53.0274777,"lon":27.8955079,"elevationM":187},{"id":"node:3893028558","kind":"peak","name":"Гара Шылаўка","lat":53.5268538,"lon":27.1996197,"elevationM":186},{"id":"node:3893030200","kind":"peak","name":"Гара Красная","lat":53.3277437,"lon":27.226067,"elevationM":184},{"id":"node:3893035666","kind":"peak","name":"Гара Сакаліная","lat":53.4310674,"lon":27.9672032,"elevationM":183},{"id":"node:3893082630","kind":"peak","name":"Гарэлая","lat":53.2620648,"lon":27.2710604,"elevationM":173},{"id":"node:3893084460","kind":"peak","name":"Курган","lat":53.2740154,"lon":27.2851081,"elevationM":172},{"id":"node:3893118743","kind":"peak","name":"Забелава","lat":53.156822,"lon":27.6305765,"elevationM":163},{"id":"node:3893119042","kind":"peak","name":"Грэская","lat":53.1281098,"lon":27.5380732,"elevationM":162},{"id":"node:3893146071","kind":"peak","name":"Ленькі","lat":53.0720984,"lon":27.7336853,"elevationM":160},{"id":"node:3893314731","kind":"peak","name":"Найвышэйшы пункт Пухавіцкага раёна","lat":53.4799863,"lon":27.6962045,"elevationM":236},{"id":"node:3893558714","kind":"peak","name":"Найвышэйшы пункт Капыльскай грады","lat":53.1812448,"lon":27.0288056,"elevationM":243},{"id":"node:5535955131","kind":"peak","name":"Лысая гора","lat":53.9655883,"lon":27.2602511,"elevationM":267},{"id":"node:5737788799","kind":"peak","name":"Старая Смалярня","lat":53.22075,"lon":27.6854,"elevationM":171},{"id":"node:5738090404","kind":"peak","name":"Сяліцкая","lat":53.07785,"lon":27.9530667,"elevationM":194},{"id":"node:5738090407","kind":"peak","name":"Рыжыцкая","lat":53.0743833,"lon":27.9441833,"elevationM":191},{"id":"node:9542300303","kind":"peak","name":"Чырвоны Маяк","lat":53.9586128,"lon":27.5549731,"elevationM":null}]}