{"tileKey":"la_p29_lo_p56","version":"v1-1775891056926","entries":[{"id":"node:4100767773","kind":"peak","name":"لاله زار","lat":29.4030607,"lon":56.8147142,"elevationM":4374},{"id":"node:6744512101","kind":"peak","name":"کوه شاه","lat":29.3899801,"lon":56.7468108,"elevationM":4371},{"id":"node:7090439323","kind":"peak","name":"چهل تن","lat":29.7692019,"lon":56.4092474,"elevationM":3740},{"id":"node:7491844191","kind":"peak","name":"چهل تن کوچک","lat":29.7530874,"lon":56.4408681,"elevationM":3660},{"id":"node:8820514718","kind":"peak","name":"پر عشق","lat":29.456993,"lon":56.966416,"elevationM":3550},{"id":"node:8823916947","kind":"peak","name":"سنگ صیاد","lat":29.6287518,"lon":56.8128549,"elevationM":3514},{"id":"node:12846962211","kind":"peak","name":"کوه بوجان","lat":29.4428303,"lon":56.0044093,"elevationM":104}]}