{"tileKey":"la_p46_lo_m109","version":"v1-1775891056926","entries":[{"id":"node:357924846","kind":"peak","name":"Chimney Butte","lat":46.4194154,"lon":-108.227618,"elevationM":1115},{"id":"node:357925771","kind":"peak","name":"Dunn Mountain","lat":46.2538549,"lon":-108.3287356,"elevationM":1440},{"id":"node:357925999","kind":"peak","name":"Elbow Hill","lat":46.2716313,"lon":-108.4112393,"elevationM":1236},{"id":"node:357927594","kind":"peak","name":"Johnston Mountain","lat":46.2577431,"lon":-108.3676262,"elevationM":1420},{"id":"node:357928878","kind":"peak","name":"Naderman Buttes","lat":46.4177393,"lon":-108.7907038,"elevationM":1159},{"id":"node:357929699","kind":"peak","name":"Rattlesnake Butte","lat":46.8727586,"lon":-108.1776205,"elevationM":1060},{"id":"node:357930598","kind":"peak","name":"Signal Mountain","lat":46.2602416,"lon":-108.4484634,"elevationM":1265},{"id":"node:357930894","kind":"peak","name":"Steamboat Butte","lat":46.2527496,"lon":-108.1009459,"elevationM":1177},{"id":"node:357931314","kind":"peak","name":"Timber Buttes","lat":46.4946851,"lon":-108.8595965,"elevationM":1204},{"id":"node:357957688","kind":"peak","name":"Bald Butte","lat":46.7913562,"lon":-108.982381,"elevationM":1710},{"id":"node:357957692","kind":"peak","name":"Three Buttes","lat":46.9013612,"lon":-108.6606941,"elevationM":1254},{"id":"node:357957696","kind":"peak","name":"Bald Butte","lat":46.9141396,"lon":-108.6404154,"elevationM":1236},{"id":"node:357957700","kind":"peak","name":"Button Butte","lat":46.9569169,"lon":-108.71514,"elevationM":1372},{"id":"node:357957707","kind":"peak","name":"Steamboat Rock","lat":46.6102423,"lon":-108.9298782,"elevationM":1250},{"id":"node:357957726","kind":"peak","name":"Kilby Butte","lat":46.5283026,"lon":-108.3687354,"elevationM":1075},{"id":"node:357957736","kind":"peak","name":"Three Buttes","lat":46.3021911,"lon":-108.2312304,"elevationM":1397},{"id":"node:357957739","kind":"peak","name":"Square Butte","lat":46.3099693,"lon":-108.2195631,"elevationM":1375},{"id":"node:357957748","kind":"peak","name":"Lookout Point","lat":46.1966391,"lon":-108.0364984,"elevationM":1105}]}