{"tileKey":"la_p39_lo_p46","version":"v1-1775891056926","entries":[{"id":"node:1365544734","kind":"peak","name":"Խուստուփ","lat":39.1366798,"lon":46.331941,"elevationM":3210},{"id":"node:1376550588","kind":"peak","name":"Böyük İşıqlı","lat":39.584108,"lon":46.1765639,"elevationM":3552},{"id":"node:1883835876","kind":"volcano","name":"Gargar Volcan","lat":39.6766822,"lon":46.0792564,"elevationM":3584},{"id":"node:1894382733","kind":"peak","name":"Qapıcıq - Կապուտջուղ","lat":39.1591727,"lon":46.0027755,"elevationM":3870},{"id":"node:2000001363","kind":"peak","name":"Եռաբլուր","lat":39.4681551,"lon":46.249182,"elevationM":2124},{"id":"node:2011614201","kind":"peak","name":"Նավսաքար","lat":39.0315036,"lon":46.4505894,"elevationM":1949},{"id":"node:2011624921","kind":"peak","name":"Արամազդ","lat":39.3105594,"lon":46.1800723,"elevationM":3399},{"id":"node:2467325511","kind":"peak","name":"Ուլիկ","lat":39.4464039,"lon":46.2465569,"elevationM":2027},{"id":"node:2467325553","kind":"peak","name":"Անտառասար","lat":39.4660176,"lon":46.2648172,"elevationM":2029},{"id":"node:2467325828","kind":"peak","name":"Աչաքար","lat":39.3773402,"lon":46.2673894,"elevationM":1525},{"id":"node:2467325829","kind":"peak","name":"Տոնասար","lat":39.6643546,"lon":46.0131613,"elevationM":3357},{"id":"node:2467325830","kind":"peak","name":"Բուդունսար","lat":39.5621701,"lon":46.2698922,"elevationM":2873},{"id":"node:2467325832","kind":"peak","name":"Կարմրակող","lat":39.350559,"lon":46.1798029,"elevationM":2712},{"id":"node:2467325833","kind":"peak","name":"Զույգսար","lat":39.3435285,"lon":46.1465246,"elevationM":2712},{"id":"node:2467325834","kind":"peak","name":"Հարսնավազ","lat":39.3668697,"lon":46.287683,"elevationM":2010},{"id":"node:2467325836","kind":"peak","name":"Թորոսանցսար","lat":39.5745644,"lon":46.287248,"elevationM":2740},{"id":"node:2467325837","kind":"peak","name":"Qızıltəpə","lat":39.6624928,"lon":46.125442,"elevationM":3184},{"id":"node:2467325838","kind":"peak","name":"Նավիկ","lat":39.3723772,"lon":46.3029214,"elevationM":1943},{"id":"node:2467325839","kind":"peak","name":"Ձաքաձորի գլուխ","lat":39.5788955,"lon":46.2338747,"elevationM":3232},{"id":"node:2467325840","kind":"peak","name":"Շիխա","lat":39.359757,"lon":46.0405997,"elevationM":2656},{"id":"node:2467325842","kind":"peak","name":"Չռչըռ","lat":39.3424357,"lon":46.2551506,"elevationM":2280},{"id":"node:2467325843","kind":"peak","name":"Canqurtaran","lat":39.6276334,"lon":46.2286304,"elevationM":2799},{"id":"node:2467325844","kind":"peak","name":"Իշխանիտափ","lat":39.6103439,"lon":46.2910454,"elevationM":2561},{"id":"node:2467325846","kind":"peak","name":"Քարաժայռ","lat":39.3750294,"lon":46.0852734,"elevationM":2931},{"id":"node:2467325847","kind":"peak","name":"Քարաբլուր","lat":39.4793053,"lon":46.2247396,"elevationM":2193},{"id":"node:2467337621","kind":"peak","name":"Şiştəpə","lat":39.8855818,"lon":46.1621576,"elevationM":3239},{"id":"node:2467677955","kind":"peak","name":"Dəlidağ","lat":39.9174483,"lon":46.042543,"elevationM":3616},{"id":"node:2467677957","kind":"peak","name":"Qəhrəmanbəy təpəsi","lat":39.8471872,"lon":46.0261917,"elevationM":3115},{"id":"node:2467677967","kind":"peak","name":"Mıxtökən","lat":39.8873529,"lon":46.1390694,"elevationM":3411},{"id":"node:2467677976","kind":"peak","name":"Yüksəklik","lat":39.9707352,"lon":46.0824646,"elevationM":2632},{"id":"node:2467677983","kind":"peak","name":"Qaradağ","lat":39.7227504,"lon":46.0777024,"elevationM":3406},{"id":"node:2467677986","kind":"peak","name":"Qlışdağ","lat":39.7071278,"lon":46.0640349,"elevationM":3594},{"id":"node:2467749265","kind":"peak","name":"Güryanbaba","lat":39.7694387,"lon":46.4177487,"elevationM":1854},{"id":"node:2467749266","kind":"peak","name":"Seyiddağ","lat":39.9162771,"lon":46.4714873,"elevationM":2679},{"id":"node:2467749267","kind":"peak","name":"Gilgəz","lat":39.9612222,"lon":46.334562,"elevationM":2358},{"id":"node:2468446492","kind":"peak","name":"Գեղաքար","lat":39.3175609,"lon":46.0589126,"elevationM":3348},{"id":"node:2468446493","kind":"peak","name":"Երկաթասար","lat":39.3320581,"lon":46.0971304,"elevationM":3211},{"id":"node:2468446494","kind":"peak","name":"Թարկատար","lat":39.2893444,"lon":46.2258086,"elevationM":3277},{"id":"node:2468446495","kind":"peak","name":"Tuğdağ","lat":39.5907693,"lon":46.946093,"elevationM":1471},{"id":"node:2468446496","kind":"peak","name":"Կատար","lat":39.2631892,"lon":46.2816709,"elevationM":3012},{"id":"node:2468446497","kind":"peak","name":"Գառնականջ","lat":39.2754332,"lon":46.0662745,"elevationM":2820},{"id":"node:2468446498","kind":"peak","name":"Պայազատի Սար","lat":39.0338677,"lon":46.3249637,"elevationM":2825},{"id":"node:2468446499","kind":"peak","name":"Ճգնավոր","lat":39.0442076,"lon":46.2991355,"elevationM":3024},{"id":"node:2468446500","kind":"peak","name":"Կամբախ","lat":39.176592,"lon":46.314416,"elevationM":2971},{"id":"node:2468446501","kind":"peak","name":"Սևժայռ","lat":39.2925047,"lon":46.0681745,"elevationM":3083},{"id":"node:2469743776","kind":"peak","name":"Կապնուսար","lat":39.3060154,"lon":46.2492902,"elevationM":2818},{"id":"node:2469744683","kind":"peak","name":"Գահանիստ","lat":39.3318528,"lon":46.2110072,"elevationM":2510},{"id":"node:2469744689","kind":"peak","name":"Մենածառ","lat":39.3727542,"lon":46.2116783,"elevationM":2077},{"id":"node:2506037103","kind":"peak","name":"Kötüklü dağı","lat":39.9037877,"lon":46.8406534,"elevationM":1141},{"id":"node:2926679306","kind":"peak","name":"Այրածո","lat":39.2860774,"lon":46.177199,"elevationM":3006},{"id":"node:2926679307","kind":"peak","name":"Բաղացսար","lat":39.0908386,"lon":46.2950872,"elevationM":3249},{"id":"node:2926679308","kind":"peak","name":"Գայլասար (Գելդաղ)","lat":39.1903573,"lon":46.2989689,"elevationM":2669},{"id":"node:2926679309","kind":"peak","name":"Գյումորանց","lat":39.0187823,"lon":46.3834002,"elevationM":2365},{"id":"node:2926679310","kind":"peak","name":"Տոնասար","lat":39.0761251,"lon":46.1253016,"elevationM":3355},{"id":"node:2926679311","kind":"peak","name":"Շփրոտ","lat":39.0996161,"lon":46.4241226,"elevationM":2164},{"id":"node:2926679312","kind":"peak","name":"Շահապանիս","lat":39.0067407,"lon":46.3989908,"elevationM":2372},{"id":"node:2926679313","kind":"peak","name":"Շարուքար","lat":39.1137515,"lon":46.4901143,"elevationM":1439},{"id":"node:2926679314","kind":"peak","name":"Խոզաքար","lat":39.1014389,"lon":46.3715255,"elevationM":2735},{"id":"node:2926679315","kind":"peak","name":"Պրչևանյուրտ","lat":39.0790957,"lon":46.3573665,"elevationM":2264},{"id":"node:2926679316","kind":"peak","name":"Սալաքար","lat":39.1343321,"lon":46.4526372,"elevationM":1382},{"id":"node:3015786287","kind":"peak","name":"Ուղտասար","lat":39.6769973,"lon":46.0486458,"elevationM":3528},{"id":"node:3015786289","kind":"peak","name":"Նազենի","lat":39.7183244,"lon":46.0023664,"elevationM":3196},{"id":"node:3650211254","kind":"peak","name":"Արջիգլուխ","lat":39.0594882,"lon":46.3545088,"elevationM":2229},{"id":"node:3652282451","kind":"peak","name":"Փոսաբլուր","lat":39.534209,"lon":46.2279231,"elevationM":2880},{"id":"node:3652283722","kind":"peak","name":"Հովվասար","lat":39.5223365,"lon":46.2395696,"elevationM":2842},{"id":"node:3729806715","kind":"peak","name":"Եկեղյաց","lat":39.1694741,"lon":46.0386286,"elevationM":3620},{"id":"node:3729806717","kind":"peak","name":"Սևքար","lat":39.1748317,"lon":46.045161,"elevationM":3574},{"id":"node:3729806718","kind":"peak","name":"Ուլախբյուր","lat":39.18879,"lon":46.093006,"elevationM":3079},{"id":"node:3729806719","kind":"peak","name":"Չիչայլի","lat":39.1989037,"lon":46.096343,"elevationM":2773},{"id":"node:3729818551","kind":"peak","name":"Կաքավասար","lat":39.0222696,"lon":46.1623005,"elevationM":2485},{"id":"node:3729818552","kind":"peak","name":"Yağlıdərə - Փառական","lat":39.0890906,"lon":46.0391696,"elevationM":3826},{"id":"node:3729819240","kind":"peak","name":"Sarıdərə","lat":39.0555071,"lon":46.0749908,"elevationM":3753},{"id":"node:3965491857","kind":"peak","name":"Սիսկատար","lat":39.1157001,"lon":46.0170722,"elevationM":3805},{"id":"node:3965493709","kind":"peak","name":"Ալուկ","lat":39.1106202,"lon":46.0938476,"elevationM":3707},{"id":"node:3965493710","kind":"peak","name":"Արտասար","lat":39.0555123,"lon":46.3708571,"elevationM":2198},{"id":"node:3965493712","kind":"peak","name":"Նավսալեռ","lat":39.0148772,"lon":46.4251531,"elevationM":2369},{"id":"node:3965493713","kind":"peak","name":"Շեփորասար","lat":39.0297122,"lon":46.3542314,"elevationM":2431},{"id":"node:3965493714","kind":"peak","name":"Չանջա","lat":39.0724788,"lon":46.4690569,"elevationM":1857},{"id":"node:3965493715","kind":"peak","name":"Փոքր Ճգնավոր","lat":39.0387996,"lon":46.3416558,"elevationM":2490},{"id":"node:3965493716","kind":"peak","name":"Սևուկ","lat":39.0528393,"lon":46.3894735,"elevationM":2111},{"id":"node:3965493717","kind":"peak","name":"Արծաթի","lat":39.2164235,"lon":46.0454547,"elevationM":3341},{"id":"node:3966600378","kind":"peak","name":"Բիդնասար","lat":39.5457677,"lon":46.2531783,"elevationM":2560},{"id":"node:3966734930","kind":"peak","name":"Կեփաս","lat":39.7073046,"lon":46.0221044,"elevationM":3285},{"id":"node:3966777465","kind":"peak","name":"Դադմալիք","lat":39.6110761,"lon":46.359189,"elevationM":1833},{"id":"node:3966777466","kind":"peak","name":"Մեծ Քարագլուխ","lat":39.5740538,"lon":46.345416,"elevationM":2151},{"id":"node:3966908353","kind":"peak","name":"Մուստակ","lat":39.0677486,"lon":46.3357119,"elevationM":2421},{"id":"node:3966908354","kind":"peak","name":"Շենդրեն","lat":39.1443926,"lon":46.4789236,"elevationM":960},{"id":"node:3966908355","kind":"peak","name":"Բերդիքար","lat":39.1111845,"lon":46.4619347,"elevationM":1601},{"id":"node:4714811319","kind":"peak","name":"3091","lat":39.9323758,"lon":46.0919185,"elevationM":3091},{"id":"node:4714811696","kind":"peak","name":"Qatırdaş","lat":39.8334586,"lon":46.1280803,"elevationM":3184},{"id":"node:4714811763","kind":"peak","name":"Lülpər","lat":39.8119659,"lon":46.0701305,"elevationM":2978},{"id":"node:4714812288","kind":"peak","name":"Uzunyal","lat":39.8611528,"lon":46.1945133,"elevationM":2697},{"id":"node:4714812391","kind":"peak","name":"2496","lat":39.829233,"lon":46.2399284,"elevationM":2469},{"id":"node:4714863921","kind":"peak","name":"Alagöllər","lat":39.7966133,"lon":46.0224259,"elevationM":3171},{"id":"node:4714984221","kind":"peak","name":"Sarybulagdagh","lat":39.9866587,"lon":46.0377397,"elevationM":3005},{"id":"node:4715718608","kind":"peak","name":"Ճաղատ","lat":39.4237454,"lon":46.3351737,"elevationM":1236},{"id":"node:4715719887","kind":"peak","name":"Պետրոսխաչ","lat":39.4066819,"lon":46.2313563,"elevationM":2031},{"id":"node:4715719902","kind":"peak","name":"Կկվասար","lat":39.4008317,"lon":46.2117487,"elevationM":2171},{"id":"node:4716082765","kind":"peak","name":"Պար","lat":39.3854091,"lon":46.1624647,"elevationM":2452},{"id":"node:4716082874","kind":"peak","name":"Հաշտասար","lat":39.397783,"lon":46.1712866,"elevationM":2555},{"id":"node:4716144142","kind":"peak","name":"Մատաղաբլուր","lat":39.4709311,"lon":46.3356911,"elevationM":1686},{"id":"node:4716188580","kind":"peak","name":"Խենթասար","lat":39.5551385,"lon":46.3495574,"elevationM":2196},{"id":"node:4716188699","kind":"peak","name":"Եփնոց","lat":39.5483571,"lon":46.3230518,"elevationM":2062},{"id":"node:4716188896","kind":"peak","name":"Քաջքար","lat":39.5402291,"lon":46.3555354,"elevationM":1995},{"id":"node:4716189111","kind":"peak","name":"Լաստիխութ","lat":39.5006471,"lon":46.3530249,"elevationM":1854},{"id":"node:4716205153","kind":"peak","name":"Սուրբ","lat":39.5350448,"lon":46.2012099,"elevationM":2884},{"id":"node:4727772669","kind":"peak","name":"Քաջարանց","lat":39.1427383,"lon":46.066154,"elevationM":3403},{"id":"node:4727772908","kind":"peak","name":"Շաբաթասար","lat":39.1083101,"lon":46.1861158,"elevationM":2692},{"id":"node:4727772913","kind":"peak","name":"Փլավսար","lat":39.0792621,"lon":46.1666885,"elevationM":2358},{"id":"node:4727773127","kind":"peak","name":"Ճմասար","lat":39.0624318,"lon":46.2563179,"elevationM":2297},{"id":"node:4728157302","kind":"peak","name":"Սապատ","lat":39.2993424,"lon":46.0174262,"elevationM":3234},{"id":"node:4728157623","kind":"peak","name":"Շեկ","lat":39.0349035,"lon":46.0771376,"elevationM":3575},{"id":"node:4728228152","kind":"peak","name":"Սրբասար","lat":39.2702942,"lon":46.1418861,"elevationM":2673},{"id":"node:4728228153","kind":"peak","name":"Քառասունք","lat":39.2726198,"lon":46.2062055,"elevationM":3003},{"id":"node:4728228155","kind":"peak","name":"Խաչարեգ","lat":39.2369401,"lon":46.1687565,"elevationM":2368},{"id":"node:4728228828","kind":"peak","name":"Փերևազ","lat":39.2460279,"lon":46.1243458,"elevationM":2425},{"id":"node:4728228829","kind":"peak","name":"Կարդ","lat":39.2254731,"lon":46.1056776,"elevationM":2274},{"id":"node:4728229408","kind":"peak","name":"Նահապետ","lat":39.2585778,"lon":46.0048252,"elevationM":3376},{"id":"node:4728340833","kind":"peak","name":"Կարմրագոմ","lat":39.2676261,"lon":46.1922781,"elevationM":2997},{"id":"node:4728427082","kind":"peak","name":"1.351","lat":39.1542887,"lon":46.440229,"elevationM":1351},{"id":"node:4738788125","kind":"peak","name":"Nərdivan","lat":39.9230649,"lon":46.2329766,"elevationM":2623},{"id":"node:4738788199","kind":"peak","name":"Qızılqaya","lat":39.8928038,"lon":46.2772706,"elevationM":2435},{"id":"node:4756602437","kind":"peak","name":"Քռեկան","lat":39.5609948,"lon":46.084872,"elevationM":2057},{"id":"node:5184556664","kind":"peak","name":"Yüksəklik","lat":39.9816007,"lon":46.2877929,"elevationM":2228},{"id":"node:5198683442","kind":"peak","name":"Qarabağlar dağı","lat":39.9705097,"lon":46.4465689,"elevationM":2528},{"id":"node:5198793848","kind":"peak","name":"Yüksəklik","lat":39.8403405,"lon":46.4338407,"elevationM":2073},{"id":"node:5198794582","kind":"peak","name":"Qoçvəng dağı","lat":39.9631969,"lon":46.4640337,"elevationM":2550},{"id":"node:5200831436","kind":"peak","name":"Dolubaba dağı","lat":39.8803921,"lon":46.5245007,"elevationM":2823},{"id":"node:5200928694","kind":"peak","name":"Nəzrif dağı","lat":39.9626405,"lon":46.6282833,"elevationM":1482},{"id":"node:5248577802","kind":"peak","name":"2243","lat":39.9820693,"lon":46.1449062,"elevationM":2243},{"id":"node:5416713489","kind":"peak","name":"Sağsağan","lat":39.9714786,"lon":46.6147566,"elevationM":1706},{"id":"node:5429225438","kind":"peak","name":"Կրմրուտ","lat":39.3632858,"lon":46.1713958,"elevationM":2670},{"id":"node:5429225439","kind":"peak","name":"Հարժիս","lat":39.4471053,"lon":46.1998032,"elevationM":2146},{"id":"node:5438364916","kind":"peak","name":"Xocadağ","lat":39.9552638,"lon":46.5995568,"elevationM":1625},{"id":"node:5438414441","kind":"peak","name":"Şiştəpə","lat":39.781423,"lon":46.5803246,"elevationM":2282},{"id":"node:5438495737","kind":"peak","name":"Dəlidağ","lat":39.8289067,"lon":46.5082168,"elevationM":2244},{"id":"node:5439408910","kind":"peak","name":"Xınalı dağ","lat":39.8977529,"lon":46.6762808,"elevationM":1391},{"id":"node:5439460595","kind":"peak","name":"Qaraqlux","lat":39.9799565,"lon":46.5390193,"elevationM":1932},{"id":"node:5439516546","kind":"peak","name":"Çağa dağı","lat":39.9906596,"lon":46.5247714,"elevationM":2041},{"id":"node:5440957772","kind":"peak","name":"Şahlıq dağ","lat":39.8564658,"lon":46.5796923,"elevationM":2200},{"id":"node:5440957797","kind":"peak","name":"Çiləfli dağı","lat":39.8089399,"lon":46.5605896,"elevationM":2412},{"id":"node:5440958024","kind":"peak","name":"Üçtığ","lat":39.8211613,"lon":46.5550804,"elevationM":2574},{"id":"node:5587941467","kind":"peak","name":"Ziyarət","lat":39.5262792,"lon":46.8560854,"elevationM":2478},{"id":"node:6049633046","kind":"peak","name":"Keşiştəpə","lat":39.8468661,"lon":46.3496875,"elevationM":2291},{"id":"node:6055329655","kind":"peak","name":"İldırımdağ","lat":39.9653418,"lon":46.353743,"elevationM":2242},{"id":"node:7599814073","kind":"peak","name":"Xəlfə təpəsi","lat":39.7715083,"lon":46.6945894,"elevationM":1427},{"id":"node:7651574790","kind":"peak","name":"Սուրբ Եղիա","lat":39.4269781,"lon":46.1513972,"elevationM":null},{"id":"node:7651574794","kind":"peak","name":"Տաշեղիբլուր","lat":39.4148941,"lon":46.2768924,"elevationM":null},{"id":"node:7651574795","kind":"peak","name":"Խազազ","lat":39.4289919,"lon":46.2731802,"elevationM":null},{"id":"node:7651606391","kind":"peak","name":"Վիմաքար","lat":39.3773919,"lon":46.3714993,"elevationM":null},{"id":"node:7651606392","kind":"peak","name":"Պահակախութ","lat":39.3805702,"lon":46.3216317,"elevationM":1917},{"id":"node:7651606394","kind":"peak","name":"Աշխարհատես","lat":39.3357911,"lon":46.3437223,"elevationM":null},{"id":"node:7707231806","kind":"peak","name":"Qorğundağ","lat":39.7831838,"lon":46.5499359,"elevationM":2397},{"id":"node:7966248129","kind":"peak","name":"Հազարանց","lat":39.0269953,"lon":46.0863266,"elevationM":3475},{"id":"node:7966248130","kind":"peak","name":"Ինչք","lat":39.0238592,"lon":46.1215449,"elevationM":3436},{"id":"node:7966248131","kind":"peak","name":"Շիկաձոր","lat":39.0555156,"lon":46.0760432,"elevationM":3752},{"id":"node:7966721646","kind":"peak","name":"Qırxqız dağı","lat":39.8940094,"lon":46.5080564,"elevationM":2832},{"id":"node:7966721647","kind":"peak","name":"Zirvə","lat":39.9241904,"lon":46.531462,"elevationM":2087},{"id":"node:7966764253","kind":"peak","name":"Böyük Kirs","lat":39.646663,"lon":46.7474513,"elevationM":2724},{"id":"node:7966764254","kind":"peak","name":"Kiçik Kirs","lat":39.6749371,"lon":46.727502,"elevationM":2346},{"id":"node:7966764255","kind":"peak","name":"Xustumtok dağı","lat":39.6791065,"lon":46.7694889,"elevationM":2219},{"id":"node:7966764257","kind":"peak","name":"Çırıslı","lat":39.6036932,"lon":46.7447419,"elevationM":2402},{"id":"node:7966764258","kind":"peak","name":"Yurdəhmədbəy","lat":39.5961237,"lon":46.7434379,"elevationM":2310},{"id":"node:7966764259","kind":"peak","name":"Çarçənbət","lat":39.5861323,"lon":46.7238848,"elevationM":2335},{"id":"node:7966764260","kind":"peak","name":"Dibyatlı","lat":39.5710766,"lon":46.6989124,"elevationM":2130},{"id":"node:7966764261","kind":"peak","name":"Ağaoğlanlar dağı","lat":39.5705889,"lon":46.7649391,"elevationM":2252},{"id":"node:7966764262","kind":"peak","name":"Çəmən","lat":39.5433762,"lon":46.7913579,"elevationM":2167},{"id":"node:7966764263","kind":"peak","name":"Güllücə","lat":39.5513434,"lon":46.8298273,"elevationM":2387},{"id":"node:7966764264","kind":"peak","name":"Yuksəklik","lat":39.5492195,"lon":46.8488625,"elevationM":2225},{"id":"node:8007022939","kind":"peak","name":"Topağac","lat":39.5144563,"lon":46.7641615,"elevationM":2011},{"id":"node:8007022940","kind":"peak","name":"Dağtumas","lat":39.4045496,"lon":46.7644381,"elevationM":1580},{"id":"node:8007022941","kind":"peak","name":"Teydağ","lat":39.4792983,"lon":46.8362049,"elevationM":1912},{"id":"node:8059462869","kind":"peak","name":"Xudandərəsi","lat":39.0380692,"lon":46.7241899,"elevationM":445},{"id":"node:8074959492","kind":"peak","name":"Axvan dağı","lat":39.7045454,"lon":46.755597,"elevationM":1970},{"id":"node:8087972107","kind":"peak","name":"Խաչինքերծ","lat":39.4415837,"lon":46.3854365,"elevationM":1145},{"id":"node:8087972108","kind":"peak","name":"Պլուր պատ","lat":39.4601264,"lon":46.359924,"elevationM":1464},{"id":"node:8087972109","kind":"peak","name":"Շահամիրիխութ","lat":39.4553554,"lon":46.3836725,"elevationM":1316},{"id":"node:8087972110","kind":"peak","name":"Մատաղաթումբ","lat":39.459976,"lon":46.399559,"elevationM":1374},{"id":"node:8087972111","kind":"peak","name":"Բլուր","lat":39.4593579,"lon":46.3104723,"elevationM":1657},{"id":"node:8087972113","kind":"peak","name":"Քարաբլուր","lat":39.4332462,"lon":46.2574225,"elevationM":1911},{"id":"node:8087972114","kind":"peak","name":"Պսակներ","lat":39.4330856,"lon":46.2140248,"elevationM":1851},{"id":"node:8087972115","kind":"peak","name":"Քրդաբլուր","lat":39.4623458,"lon":46.2417042,"elevationM":1991},{"id":"node:8087972116","kind":"peak","name":"Թամբանի","lat":39.4472029,"lon":46.1676228,"elevationM":1554},{"id":"node:8087990317","kind":"peak","name":"Կաշկառոտ","lat":39.4664617,"lon":46.2053306,"elevationM":2012},{"id":"node:8087990329","kind":"peak","name":"Մատաղիսար","lat":39.4762179,"lon":46.1386788,"elevationM":1534},{"id":"node:8088382074","kind":"peak","name":"Կռվիփոս","lat":39.4256571,"lon":46.2850904,"elevationM":1675},{"id":"node:8088382075","kind":"peak","name":"Խազալկապ","lat":39.4354119,"lon":46.3640726,"elevationM":1249},{"id":"node:8104198989","kind":"peak","name":"Խաչքար","lat":39.3221596,"lon":46.2485837,"elevationM":2662},{"id":"node:8104198990","kind":"peak","name":"Ճանճաքար","lat":39.3434168,"lon":46.1902311,"elevationM":2452},{"id":"node:8104198991","kind":"peak","name":"Խաչախութ","lat":39.3253228,"lon":46.2717513,"elevationM":2358},{"id":"node:8104198992","kind":"peak","name":"Աճանան","lat":39.3294295,"lon":46.2904453,"elevationM":2393},{"id":"node:8104198993","kind":"peak","name":"Եղնիկասար","lat":39.343685,"lon":46.3035601,"elevationM":2038},{"id":"node:8104198994","kind":"peak","name":"Գորշասեռ","lat":39.3592723,"lon":46.2562363,"elevationM":1896},{"id":"node:8104198995","kind":"peak","name":"Քաշունի","lat":39.3519955,"lon":46.2695351,"elevationM":2127},{"id":"node:8104198996","kind":"peak","name":"Դիքկատար","lat":39.3568362,"lon":46.2758893,"elevationM":2094},{"id":"node:8104198997","kind":"peak","name":"Բազուքար","lat":39.3699296,"lon":46.2776602,"elevationM":1793},{"id":"node:8104198998","kind":"peak","name":"Սապատախութ","lat":39.3758972,"lon":46.2264528,"elevationM":1793},{"id":"node:8104198999","kind":"peak","name":"Ջղրվան","lat":39.3766932,"lon":46.2406665,"elevationM":1662},{"id":"node:8104199000","kind":"peak","name":"Բլրաքար","lat":39.4064737,"lon":46.2450835,"elevationM":1757},{"id":"node:8104199001","kind":"peak","name":"Բոլորաքար","lat":39.4060723,"lon":46.2206706,"elevationM":2009},{"id":"node:8104199002","kind":"peak","name":"Դուռ","lat":39.4023065,"lon":46.1887765,"elevationM":2293},{"id":"node:8104199003","kind":"peak","name":"Յուղասար","lat":39.4103352,"lon":46.1531514,"elevationM":2311},{"id":"node:8105015144","kind":"peak","name":"Աղջկասար","lat":39.3159557,"lon":46.4219677,"elevationM":1806},{"id":"node:8105015145","kind":"peak","name":"Իշխանասար","lat":39.2908588,"lon":46.4202404,"elevationM":1423},{"id":"node:8105015146","kind":"peak","name":"Վարսակաթումբ","lat":39.2952263,"lon":46.4152247,"elevationM":1453},{"id":"node:8105015148","kind":"peak","name":"Կապույտ քար","lat":39.3030721,"lon":46.405971,"elevationM":1583},{"id":"node:8105015149","kind":"peak","name":"Շրվենանց","lat":39.3055918,"lon":46.4037502,"elevationM":1601},{"id":"node:8105015150","kind":"peak","name":"Հարսնաքար","lat":39.3014034,"lon":46.3671702,"elevationM":1507},{"id":"node:8105015151","kind":"peak","name":"Վերիխութ","lat":39.3180682,"lon":46.3820404,"elevationM":1433},{"id":"node:8105015152","kind":"peak","name":"Խմհատ","lat":39.3134095,"lon":46.3276076,"elevationM":1547},{"id":"node:8105015154","kind":"peak","name":"Սևքարխաչ","lat":39.3282601,"lon":46.3318348,"elevationM":1951},{"id":"node:8105015155","kind":"peak","name":"Մահտեսասար","lat":39.329144,"lon":46.3398331,"elevationM":2034},{"id":"node:8105015156","kind":"peak","name":"Հողար","lat":39.3443045,"lon":46.3907146,"elevationM":1544},{"id":"node:8105015157","kind":"peak","name":"Կուճիկատար","lat":39.3592564,"lon":46.3951376,"elevationM":1805},{"id":"node:8105015205","kind":"peak","name":"Կապան","lat":39.3645051,"lon":46.3774189,"elevationM":2075},{"id":"node:8105030066","kind":"peak","name":"Հարսնաբլուր","lat":39.3594659,"lon":46.349135,"elevationM":1688},{"id":"node:8105030067","kind":"peak","name":"Արփիասար","lat":39.3398405,"lon":46.3374513,"elevationM":1873},{"id":"node:8105030068","kind":"peak","name":"Պոտքար","lat":39.3659789,"lon":46.2939719,"elevationM":1981},{"id":"node:8105030069","kind":"peak","name":"Թավ","lat":39.3719576,"lon":46.3412654,"elevationM":1844},{"id":"node:8105030070","kind":"peak","name":"Կարմիրքար","lat":39.3992349,"lon":46.3416302,"elevationM":1671},{"id":"node:8105030071","kind":"peak","name":"Վանիխութ","lat":39.3931452,"lon":46.3374138,"elevationM":1761},{"id":"node:8105030072","kind":"peak","name":"Հաբու սար","lat":39.378526,"lon":46.3315049,"elevationM":1834},{"id":"node:8105030073","kind":"peak","name":"Կեռքար","lat":39.3829834,"lon":46.3299585,"elevationM":1831},{"id":"node:8107643748","kind":"peak","name":"Տղոց","lat":39.284581,"lon":46.2601715,"elevationM":2887},{"id":"node:8108548610","kind":"peak","name":"Şurumbaşı","lat":39.5933252,"lon":46.5838765,"elevationM":null},{"id":"node:8357599048","kind":"peak","name":"Susuzdağ","lat":39.5733439,"lon":46.6437113,"elevationM":1688},{"id":"node:8640903537","kind":"peak","name":"Azgəlindağ","lat":39.4931248,"lon":46.7201869,"elevationM":1481},{"id":"node:8645051501","kind":"peak","name":"Seytas","lat":39.3750518,"lon":46.4508932,"elevationM":1541},{"id":"node:8730833346","kind":"peak","name":"Çobandaş","lat":39.2641116,"lon":46.7034093,"elevationM":562},{"id":"node:9225111151","kind":"peak","name":"Pir","lat":39.6219363,"lon":46.7057458,"elevationM":2058},{"id":"node:9225119377","kind":"peak","name":"Dızındağ","lat":39.6480208,"lon":46.6644107,"elevationM":2041},{"id":"node:9225160474","kind":"peak","name":"Rəşid Daş","lat":39.5900219,"lon":46.7768049,"elevationM":2074},{"id":"node:9225162076","kind":"peak","name":"Kənxurd","lat":39.6334542,"lon":46.7894488,"elevationM":2063},{"id":"node:9225172800","kind":"peak","name":"Qurbankəsilən","lat":39.6466542,"lon":46.6864638,"elevationM":1870},{"id":"node:9225214606","kind":"peak","name":"Deyhandağ","lat":39.6098209,"lon":46.6400492,"elevationM":1697},{"id":"node:9225251507","kind":"peak","name":"Buğadaş dağı","lat":39.6950975,"lon":46.6647797,"elevationM":2215},{"id":"node:9225268025","kind":"peak","name":"Uzunyal","lat":39.7598987,"lon":46.5907718,"elevationM":1989},{"id":"node:9225274211","kind":"peak","name":"Buğadaş","lat":39.7001004,"lon":46.6698701,"elevationM":2154},{"id":"node:9225283144","kind":"peak","name":"Qaravıx","lat":39.6973943,"lon":46.625311,"elevationM":2142},{"id":"node:9225287536","kind":"peak","name":"Çınqıldağ","lat":39.7395104,"lon":46.7326233,"elevationM":1449},{"id":"node:9225290039","kind":"peak","name":"Topgörməz","lat":39.7138955,"lon":46.7036753,"elevationM":1462},{"id":"node:9935256535","kind":"peak","name":"Sarıbaba","lat":39.7180263,"lon":46.5858499,"elevationM":2295},{"id":"node:10588081241","kind":"peak","name":"Çeşməli","lat":39.0134094,"lon":46.6403593,"elevationM":676},{"id":"node:10588081243","kind":"peak","name":"Qızıldaş","lat":39.0192899,"lon":46.5393208,"elevationM":1701},{"id":"node:10588081245","kind":"peak","name":"Sobu","lat":39.0370105,"lon":46.5899166,"elevationM":998},{"id":"node:11836974103","kind":"peak","name":"Kiçik İşıqlı","lat":39.6022897,"lon":46.1966364,"elevationM":3455},{"id":"node:12064946834","kind":"peak","name":"Bovurxan Dağı","lat":39.7879666,"lon":46.8397706,"elevationM":1700},{"id":"node:12064964436","kind":"peak","name":"Yağlıtəpə","lat":39.8047057,"lon":46.7420881,"elevationM":800},{"id":"node:12065003998","kind":"peak","name":"Yaəli dağı","lat":39.7957161,"lon":46.6891589,"elevationM":1700},{"id":"node:12066193780","kind":"peak","name":"Bozdağ","lat":39.9446484,"lon":46.7979386,"elevationM":1000},{"id":"node:12068783145","kind":"peak","name":"Çəpdaş yüksəkliyi","lat":39.8092241,"lon":46.7314987,"elevationM":1050},{"id":"node:12068923553","kind":"peak","name":"Kotanqaya","lat":39.8325962,"lon":46.7314568,"elevationM":800},{"id":"node:12070521704","kind":"peak","name":"Sarıkeşiş dağı","lat":39.9462498,"lon":46.6720437,"elevationM":1050},{"id":"node:12071927662","kind":"peak","name":"Dağarlı təpə","lat":39.8297931,"lon":46.8422235,"elevationM":1070},{"id":"node:12074093360","kind":"peak","name":"Qaplan zirvə","lat":39.8923011,"lon":46.7274835,"elevationM":900},{"id":"node:12075092139","kind":"peak","name":"Vənd qayalığı","lat":39.7407695,"lon":46.8354001,"elevationM":1080},{"id":"node:12076043318","kind":"peak","name":"Kərki zirvəsi","lat":39.7877281,"lon":46.7136689,"elevationM":1500},{"id":"node:12076693492","kind":"peak","name":"İrsıma təpəsi","lat":39.7250443,"lon":46.8547961,"elevationM":1000},{"id":"node:12076711264","kind":"peak","name":"Qadan təpəsi","lat":39.7250182,"lon":46.8426177,"elevationM":1100},{"id":"node:12077425322","kind":"peak","name":"Marzal təpə","lat":39.7627486,"lon":46.8706437,"elevationM":970},{"id":"node:12078184210","kind":"peak","name":"Alagədik","lat":39.9478141,"lon":46.4602307,"elevationM":2500},{"id":"node:12078187526","kind":"peak","name":"Süsənbər dağı","lat":39.8595922,"lon":46.5459473,"elevationM":2279},{"id":"node:12079086512","kind":"peak","name":"Büsətir dağı","lat":39.8210468,"lon":46.7150427,"elevationM":1160},{"id":"node:12079113367","kind":"peak","name":"Tağısar dağı","lat":39.6901371,"lon":46.8617119,"elevationM":1270},{"id":"node:12079133644","kind":"peak","name":"Cənnətgüşə dağı","lat":39.6751246,"lon":46.856343,"elevationM":1301},{"id":"node:12084825521","kind":"peak","name":"Piyalə təpə","lat":39.997054,"lon":46.6958121,"elevationM":1150},{"id":"node:12087899738","kind":"peak","name":"Hun təpəsi","lat":39.9892808,"lon":46.7094045,"elevationM":990},{"id":"node:12087904470","kind":"peak","name":"Xanqışlaq təpəsi","lat":39.9902448,"lon":46.7155347,"elevationM":1070},{"id":"node:12089343229","kind":"peak","name":"Sərsər dağı","lat":39.9277111,"lon":46.4615132,"elevationM":2500},{"id":"node:12089379067","kind":"peak","name":"Xosvar dağı","lat":39.8294297,"lon":46.6437827,"elevationM":1300},{"id":"node:12099665863","kind":"peak","name":"Sarıdaş təpəsi","lat":39.9848482,"lon":46.8338228,"elevationM":500},{"id":"node:12099665864","kind":"peak","name":"Qavus təpə","lat":39.9848536,"lon":46.8164928,"elevationM":650},{"id":"node:12099669113","kind":"peak","name":"Natiq Zirvəsi","lat":39.9922812,"lon":46.8240588,"elevationM":840},{"id":"node:12106830247","kind":"peak","name":"Daxıq qaya","lat":39.9065948,"lon":46.8434187,"elevationM":1100},{"id":"node:12106835243","kind":"peak","name":"Razı təpə","lat":39.904813,"lon":46.8527121,"elevationM":1080},{"id":"node:12108711420","kind":"peak","name":"Xalxan dağı","lat":39.8838732,"lon":46.8835663,"elevationM":1070},{"id":"node:12115259955","kind":"peak","name":"Xanamaz dağı","lat":39.8853368,"lon":46.8914002,"elevationM":1170},{"id":"node:12117551178","kind":"peak","name":"Tağı təpəsi","lat":39.7095776,"lon":46.8676255,"elevationM":900},{"id":"node:12117600086","kind":"peak","name":"Öküzuçan dağı","lat":39.8033243,"lon":46.715847,"elevationM":1250},{"id":"node:12119091919","kind":"peak","name":"Haçatəpə","lat":39.9517799,"lon":46.7968026,"elevationM":1000},{"id":"node:12119995586","kind":"peak","name":"Möminə dağı","lat":39.8060552,"lon":46.7078306,"elevationM":1500},{"id":"node:12120094651","kind":"peak","name":"Qayabaşı","lat":39.8285761,"lon":46.7410619,"elevationM":600},{"id":"node:12121972245","kind":"peak","name":"Seyidalı yüksəkliyi","lat":39.8112429,"lon":46.7337021,"elevationM":950},{"id":"node:12128395700","kind":"peak","name":"ALLAHGƏRƏK dağı","lat":39.7922195,"lon":46.757684,"elevationM":1100},{"id":"node:12132063319","kind":"peak","name":"Mirzə Həsən təpəsi","lat":39.8107487,"lon":46.7734156,"elevationM":400},{"id":"node:12132460642","kind":"peak","name":"Dilavət təpə","lat":39.9393617,"lon":46.7885475,"elevationM":600},{"id":"node:12132819383","kind":"peak","name":"Alazan dağı","lat":39.88476,"lon":46.5304812,"elevationM":2790},{"id":"node:12132819384","kind":"peak","name":"Çermux təpəsi","lat":39.9882651,"lon":46.740892,"elevationM":950},{"id":"node:12134689160","kind":"peak","name":"Qırıq təpələr","lat":39.9672665,"lon":46.8760964,"elevationM":500},{"id":"node:12135821201","kind":"peak","name":"Xoruzlu dağ","lat":39.8404144,"lon":46.7081719,"elevationM":1340},{"id":"node:12136221710","kind":"peak","name":"Tiyə dağı","lat":39.7926416,"lon":46.6549101,"elevationM":1300},{"id":"node:12136221711","kind":"peak","name":"Zərqəfa dağı","lat":39.8048468,"lon":46.6090991,"elevationM":1800},{"id":"node:12136247407","kind":"peak","name":"Ağqaya yüksəkliyi","lat":39.8722737,"lon":46.6832009,"elevationM":1500},{"id":"node:12136247408","kind":"peak","name":"Sevindik zirvəsi","lat":39.8151997,"lon":46.7237531,"elevationM":1100},{"id":"node:12136247414","kind":"peak","name":"Cəyir zirvəsi","lat":39.8336444,"lon":46.5672107,"elevationM":2000},{"id":"node:12136284820","kind":"peak","name":"Xançayı təpəsi","lat":39.773896,"lon":46.7731177,"elevationM":900},{"id":"node:12137374839","kind":"peak","name":"Danbaşı təpəsi","lat":39.8364271,"lon":46.8544039,"elevationM":920},{"id":"node:12139762975","kind":"peak","name":"Yux təpəsi","lat":39.8737449,"lon":46.7123074,"elevationM":920},{"id":"node:12139784816","kind":"peak","name":"Yovşan dağı","lat":39.8529509,"lon":46.6843182,"elevationM":1040},{"id":"node:12139787816","kind":"peak","name":"Xanəzək təpəsi","lat":39.8545927,"lon":46.7406367,"elevationM":800},{"id":"node:12140530600","kind":"peak","name":"Öndağ","lat":39.9203162,"lon":46.6343868,"elevationM":1800},{"id":"node:12141920761","kind":"peak","name":"Haçaqaya","lat":39.8309872,"lon":46.8393968,"elevationM":1100},{"id":"node:12142706018","kind":"peak","name":"Səmədər","lat":39.70685,"lon":46.8192867,"elevationM":1300},{"id":"node:12142706021","kind":"peak","name":"Badan dağı","lat":39.7156647,"lon":46.8135647,"elevationM":1194},{"id":"node:12142706022","kind":"peak","name":"Səsəmi","lat":39.7104283,"lon":46.8186169,"elevationM":1260},{"id":"node:12143923747","kind":"peak","name":"Alakürə dağı","lat":39.8244355,"lon":46.7171863,"elevationM":1100},{"id":"node:12144106193","kind":"peak","name":"Dikdaş təpə","lat":39.898382,"lon":46.7581272,"elevationM":710},{"id":"node:12146871012","kind":"peak","name":"Əbrəxan təpəsi","lat":39.8727832,"lon":46.7022323,"elevationM":959},{"id":"node:12147668066","kind":"peak","name":"Əngədiz dağı","lat":39.853221,"lon":46.6946542,"elevationM":1200},{"id":"node:12147704978","kind":"peak","name":"Ellər dağı","lat":39.9162635,"lon":46.8561329,"elevationM":1040},{"id":"node:12147710330","kind":"peak","name":"Kotalqaya","lat":39.864244,"lon":46.66503,"elevationM":1280},{"id":"node:12147722521","kind":"peak","name":"Kətikdağ","lat":39.8854073,"lon":46.8423313,"elevationM":1375},{"id":"node:12147732563","kind":"peak","name":"Xaxaper dağı","lat":39.9309926,"lon":46.5593406,"elevationM":1773},{"id":"node:12147742687","kind":"peak","name":"Düzağa","lat":39.8304078,"lon":46.8707846,"elevationM":1397},{"id":"node:12147751873","kind":"peak","name":"Adsız təpə","lat":39.7999065,"lon":46.7583646,"elevationM":701},{"id":"node:12147753524","kind":"peak","name":"Nəbi","lat":39.6856864,"lon":46.7896343,"elevationM":1600},{"id":"node:12147754119","kind":"peak","name":"Dəlikdaş","lat":39.8473747,"lon":46.5638526,"elevationM":2304},{"id":"node:12147769465","kind":"peak","name":"Qızqala dağı","lat":39.8791623,"lon":46.5174088,"elevationM":2843},{"id":"node:12147770702","kind":"peak","name":"Qarqar dağı","lat":39.8827425,"lon":46.8464459,"elevationM":1373},{"id":"node:12147775753","kind":"peak","name":"Qusardağ","lat":39.8623064,"lon":46.8911658,"elevationM":1170},{"id":"node:12147780094","kind":"peak","name":"Ləy dağı","lat":39.8259475,"lon":46.8665731,"elevationM":1190},{"id":"node:12147785061","kind":"peak","name":"Həcər","lat":39.6924803,"lon":46.8094137,"elevationM":1343},{"id":"node:12147788999","kind":"peak","name":"Pəri dağı","lat":39.68686,"lon":46.7696997,"elevationM":2059},{"id":"node:12147794898","kind":"peak","name":"Kəltəpə","lat":39.870058,"lon":46.9012034,"elevationM":950},{"id":"node:12147807981","kind":"peak","name":"Abdalyurd təpəsi","lat":39.8729441,"lon":46.9215238,"elevationM":810},{"id":"node:12148533863","kind":"peak","name":"Bəyalı dağı","lat":39.7935404,"lon":46.7290553,"elevationM":1140},{"id":"node:12150329366","kind":"peak","name":"Çaxmaxtəpə","lat":39.9079357,"lon":46.8964753,"elevationM":786},{"id":"node:12150339881","kind":"peak","name":"Mirzəboyun dağı","lat":39.8931287,"lon":46.8856743,"elevationM":1000},{"id":"node:12151448707","kind":"peak","name":"Qızılqaya dağı","lat":39.7940705,"lon":46.7054612,"elevationM":1540},{"id":"node:12151554318","kind":"peak","name":"Oylaqlı zirvə","lat":39.7905746,"lon":46.7167962,"elevationM":1230},{"id":"node:12151557035","kind":"peak","name":"Güllü təpə","lat":39.7914853,"lon":46.7381791,"elevationM":950},{"id":"node:12153823607","kind":"peak","name":"Qalaça dağ","lat":39.9630967,"lon":46.6043638,"elevationM":1630},{"id":"node:12164282502","kind":"peak","name":"Butalı təpə","lat":39.9170999,"lon":46.8652074,"elevationM":840},{"id":"node:12164282508","kind":"peak","name":"Hazavəng dağı","lat":39.9021957,"lon":46.8634084,"elevationM":1207},{"id":"node:12164282519","kind":"peak","name":"Oyana təpəsi","lat":39.9156307,"lon":46.8655261,"elevationM":855},{"id":"node:12164332845","kind":"peak","name":"Baş Aparan dağı","lat":39.8985294,"lon":46.8605427,"elevationM":1182},{"id":"node:12164433987","kind":"peak","name":"Yelli təpə","lat":39.9565199,"lon":46.879045,"elevationM":555},{"id":"node:12164491281","kind":"peak","name":"Sarıbəy təpə","lat":39.8000748,"lon":46.7741093,"elevationM":850},{"id":"node:12166514769","kind":"peak","name":"Ka'şi təpəsi","lat":39.8364324,"lon":46.7218839,"elevationM":900},{"id":"node:12166640295","kind":"peak","name":"Sofulu dağı","lat":39.8459107,"lon":46.7154924,"elevationM":1085},{"id":"node:12166720212","kind":"peak","name":"Kərkərə dağı","lat":39.7986811,"lon":46.713486,"elevationM":1460},{"id":"node:12166861580","kind":"peak","name":"Ləh dağı","lat":39.8931402,"lon":46.6824478,"elevationM":1302},{"id":"node:12187284566","kind":"peak","name":"Pənahabad dağı","lat":39.7367667,"lon":46.7653229,"elevationM":1512},{"id":"node:12187302307","kind":"peak","name":"Qaraqaya","lat":39.9274031,"lon":46.8660236,"elevationM":780},{"id":"node:12191548285","kind":"peak","name":"Üzərliktəpə","lat":39.9397284,"lon":46.8022205,"elevationM":960},{"id":"node:12191549512","kind":"peak","name":"Cəfər təpəsi","lat":39.9046582,"lon":46.7550234,"elevationM":710},{"id":"node:12191549513","kind":"peak","name":"Çınqıltəpə","lat":39.8931329,"lon":46.7530116,"elevationM":700},{"id":"node:12191550265","kind":"peak","name":"Xoruztəpə","lat":39.9301839,"lon":46.8128761,"elevationM":770},{"id":"node:12191659810","kind":"peak","name":"Çiləbörd dağı","lat":39.8079127,"lon":46.7219084,"elevationM":1200},{"id":"node:12191659827","kind":"peak","name":"Xırdapara təpə","lat":39.7913647,"lon":46.7417072,"elevationM":930},{"id":"node:12191669991","kind":"peak","name":"Kürəntəpə","lat":39.8459886,"lon":46.7270798,"elevationM":950},{"id":"node:12191671375","kind":"peak","name":"Mehrəli dağ","lat":39.7672835,"lon":46.8018187,"elevationM":1199},{"id":"node:12244835384","kind":"peak","name":"Caneyid dağı","lat":39.8473805,"lon":46.8604686,"elevationM":1350},{"id":"node:12669205190","kind":"peak","name":"Şişqaya dağı","lat":39.982027,"lon":46.4188202,"elevationM":1920},{"id":"node:12669958951","kind":"peak","name":"Qoşqar dağı","lat":39.9349058,"lon":46.570454,"elevationM":1870},{"id":"node:12669998831","kind":"peak","name":"Taxtalıdağ","lat":39.9798019,"lon":46.4483298,"elevationM":2470},{"id":"node:12695452824","kind":"peak","name":"Qapıqaya","lat":39.7444173,"lon":46.58982,"elevationM":1850},{"id":"node:12695481637","kind":"peak","name":"Bəzirgan dağı","lat":39.6653311,"lon":46.5812153,"elevationM":1270},{"id":"node:12695534311","kind":"peak","name":"Xəzinəqala dağı","lat":39.7356164,"lon":46.7506679,"elevationM":1250},{"id":"node:12695534966","kind":"peak","name":"Keçəltəpə","lat":39.6983474,"lon":46.6460762,"elevationM":1900},{"id":"node:12695536456","kind":"peak","name":"Dovtələb dağı","lat":39.7773107,"lon":46.7474209,"elevationM":1200},{"id":"node:12697087703","kind":"peak","name":"Ağdolaq dağı","lat":39.7878477,"lon":46.7743348,"elevationM":1001},{"id":"node:12697087716","kind":"peak","name":"Xuraman qayaları","lat":39.7509829,"lon":46.7646371,"elevationM":null},{"id":"node:12697117806","kind":"peak","name":"Xırmanlar dağı","lat":39.7306162,"lon":46.6232818,"elevationM":2101},{"id":"node:12697246236","kind":"peak","name":"Qaraqız dağı","lat":39.7020914,"lon":46.5958168,"elevationM":2047},{"id":"node:12705915112","kind":"peak","name":"Seyidşən dağı","lat":39.9995129,"lon":46.6676912,"elevationM":1300},{"id":"node:12714487873","kind":"peak","name":"Zaxurtəpə","lat":39.5725769,"lon":46.9897295,"elevationM":900},{"id":"node:12714487879","kind":"peak","name":"Ərcuntəpə","lat":39.8518604,"lon":46.988586,"elevationM":810},{"id":"node:12714596395","kind":"peak","name":"Kənd dağı","lat":39.5589439,"lon":46.995012,"elevationM":1321},{"id":"node:12714786808","kind":"peak","name":"Tumasdağ","lat":39.4410399,"lon":46.7855873,"elevationM":1390},{"id":"node:12714786810","kind":"peak","name":"Mehdicahan qayası","lat":39.4953905,"lon":46.8906519,"elevationM":null},{"id":"node:12714808876","kind":"peak","name":"Bala Məzrə təpəsi","lat":39.4551854,"lon":46.9724557,"elevationM":990},{"id":"node:12717125808","kind":"peak","name":"Alaxan dağı","lat":39.8822665,"lon":46.861737,"elevationM":1390},{"id":"node:12717187434","kind":"peak","name":"Böyük Çaylaq dağı","lat":39.5590773,"lon":46.7679971,"elevationM":2042},{"id":"node:12717187435","kind":"peak","name":"Bala Çaylaq dağı","lat":39.5494878,"lon":46.7760688,"elevationM":null},{"id":"node:12724356660","kind":"peak","name":"Çavuştəpə","lat":39.5975667,"lon":46.9845816,"elevationM":760},{"id":"node:12724356661","kind":"peak","name":"Düz təpə","lat":39.5942299,"lon":46.9857853,"elevationM":700},{"id":"node:12725666731","kind":"peak","name":"Dovurdağ","lat":39.8044215,"lon":46.8321808,"elevationM":1080},{"id":"node:12725666747","kind":"peak","name":"Haqartı təpəsi","lat":39.7755153,"lon":46.9549131,"elevationM":1060},{"id":"node:12725666748","kind":"peak","name":"Tərcman dağı","lat":39.8212165,"lon":46.9748614,"elevationM":1070},{"id":"node:12729588878","kind":"peak","name":"Doqquzpərçim dağ","lat":39.5240535,"lon":46.9188307,"elevationM":null},{"id":"node:12729911852","kind":"peak","name":"Hacıözü dağı","lat":39.7158098,"lon":46.9296291,"elevationM":1310},{"id":"node:12731644904","kind":"peak","name":"Qayatıq dağı","lat":39.73984,"lon":46.7985177,"elevationM":1200},{"id":"node:12731651129","kind":"peak","name":"Üryandağ","lat":39.7166787,"lon":46.8319537,"elevationM":1120},{"id":"node:12731861146","kind":"peak","name":"Havartəpə","lat":39.9816846,"lon":46.8314423,"elevationM":750},{"id":"node:12732030338","kind":"peak","name":"Ayvalıq dağı","lat":39.5307144,"lon":46.9900226,"elevationM":1370},{"id":"node:12734533992","kind":"peak","name":"Güştağ dağı","lat":39.8526407,"lon":46.9160182,"elevationM":null},{"id":"node:13168012867","kind":"peak","name":"Beşdəlilər dağı","lat":39.8176047,"lon":46.6577513,"elevationM":1600},{"id":"node:13168012868","kind":"peak","name":"Balaqan dağı","lat":39.7986843,"lon":46.675937,"elevationM":1750}]}