{"tileKey":"la_p42_lo_p131","version":"v1-1775891056926","entries":[{"id":"node:1550081472","kind":"peak","name":"г. Туманная","lat":42.5771942,"lon":131.188627,"elevationM":506},{"id":"node:2947583638","kind":"peak","name":"г. Главная","lat":42.9894213,"lon":131.8337616,"elevationM":279},{"id":"node:5017183678","kind":"peak","name":"о.Пахтусова","lat":42.8991784,"lon":131.6459229,"elevationM":45},{"id":"node:10967208683","kind":"peak","name":"г. Славянка","lat":42.8502015,"lon":131.3471746,"elevationM":158},{"id":"node:11892469901","kind":"peak","name":"г. Иванова","lat":42.9844169,"lon":131.8160154,"elevationM":177},{"id":"node:11892504443","kind":"peak","name":"г. Центральная","lat":42.9880663,"lon":131.8486619,"elevationM":255},{"id":"node:12182205540","kind":"peak","name":"Рейнеке","lat":42.9051816,"lon":131.7222331,"elevationM":130},{"id":"node:13073463909","kind":"peak","name":"г.Янковского","lat":42.9680347,"lon":131.3338601,"elevationM":449},{"id":"node:13109915785","kind":"peak","name":"г. Поворотная","lat":42.7801731,"lon":131.1655462,"elevationM":352},{"id":"node:13109915786","kind":"peak","name":"г. Суханова","lat":42.8046031,"lon":131.1300874,"elevationM":439},{"id":"node:13109970288","kind":"peak","name":"г. Жёлтая Вершина","lat":42.8958999,"lon":131.1615443,"elevationM":646},{"id":"node:13109970291","kind":"peak","name":"г. Астафьева","lat":42.6374316,"lon":131.1731958,"elevationM":356},{"id":"node:13127614536","kind":"peak","name":"г. Острая","lat":42.8796259,"lon":131.1443192,"elevationM":469},{"id":"node:13127614538","kind":"peak","name":"г. Школьная","lat":42.9287297,"lon":131.1466741,"elevationM":473},{"id":"node:13127614539","kind":"peak","name":"г. Однобокая","lat":42.8834487,"lon":131.2071767,"elevationM":259},{"id":"node:13130535347","kind":"peak","name":"г. Водораздельная","lat":42.9958276,"lon":131.1899543,"elevationM":558},{"id":"node:13130707832","kind":"peak","name":"г. Гладкая","lat":42.8142922,"lon":131.0207605,"elevationM":438},{"id":"node:13130707833","kind":"peak","name":"г. Дача","lat":42.8262538,"lon":131.0798764,"elevationM":459},{"id":"node:13130707834","kind":"peak","name":"г. Партизанская","lat":42.8565331,"lon":131.0573137,"elevationM":583},{"id":"node:13130707835","kind":"peak","name":"г. Горелая Сопка","lat":42.8610031,"lon":131.0957524,"elevationM":181},{"id":"node:13140034780","kind":"peak","name":"г. Рязанка","lat":42.8950432,"lon":131.1215258,"elevationM":505},{"id":"node:13140034782","kind":"peak","name":"г. Рязановка","lat":42.9039322,"lon":131.0177296,"elevationM":583},{"id":"node:13140080279","kind":"peak","name":"г. Волчья","lat":42.9034921,"lon":131.0535693,"elevationM":335},{"id":"node:13140372387","kind":"peak","name":"г. Клерка","lat":42.8399261,"lon":131.1210765,"elevationM":208},{"id":"node:13354820128","kind":"peak","name":"г. Вятлина","lat":42.9643213,"lon":131.8942809,"elevationM":91}]}