{"tileKey":"la_p46_lo_p18","version":"v1-1775891056926","entries":[{"id":"node:347570607","kind":"peak","name":"Misina","lat":46.0992053,"lon":18.2198255,"elevationM":534},{"id":"node:347570885","kind":"peak","name":"Kis-Tubes","lat":46.1032294,"lon":18.2080726,"elevationM":577},{"id":"node:347570897","kind":"peak","name":"Tubes","lat":46.1091554,"lon":18.2025564,"elevationM":611},{"id":"node:348252305","kind":"peak","name":"Jakab-hegy","lat":46.0931732,"lon":18.1434575,"elevationM":602},{"id":"node:349117738","kind":"peak","name":"Hármas-hegy","lat":46.1774573,"lon":18.3375755,"elevationM":603},{"id":"node:502370287","kind":"peak","name":"Kantavár","lat":46.112848,"lon":18.2170754,"elevationM":398},{"id":"node:536482014","kind":"peak","name":"Zengő","lat":46.1799836,"lon":18.3773269,"elevationM":682},{"id":"node:850824303","kind":"peak","name":"Cigány-hegy","lat":46.2151444,"lon":18.3620649,"elevationM":524},{"id":"node:910737123","kind":"peak","name":"Dobogó","lat":46.2260559,"lon":18.3608672,"elevationM":594},{"id":"node:910737141","kind":"peak","name":"Hárs-tető","lat":46.1981718,"lon":18.370944,"elevationM":545},{"id":"node:910737165","kind":"peak","name":"Borzas-tető","lat":46.1792672,"lon":18.340163,"elevationM":591},{"id":"node:910737168","kind":"peak","name":"Zsidó-hegy","lat":46.1334516,"lon":18.1867315,"elevationM":444},{"id":"node:1270212649","kind":"peak","name":"Böre-vár","lat":46.8133395,"lon":18.044499,"elevationM":203},{"id":"node:1270212651","kind":"peak","name":"Flóra-hegy","lat":46.7983231,"lon":18.0381811,"elevationM":288},{"id":"node:2334890174","kind":"peak","name":"Makár-hegy","lat":46.0776048,"lon":18.1926936,"elevationM":271},{"id":"node:2334890185","kind":"peak","name":"Köves-tető","lat":46.1913784,"lon":18.2823416,"elevationM":339},{"id":"node:2334890196","kind":"peak","name":"Csiszár-tető","lat":46.2593377,"lon":18.3583755,"elevationM":350},{"id":"node:2334890198","kind":"peak","name":"Várfő-hegy","lat":46.2715164,"lon":18.4403625,"elevationM":216},{"id":"node:3016944405","kind":"peak","name":"Kövesdi-hegy","lat":46.1878901,"lon":18.6734045,"elevationM":215},{"id":"node:3416392042","kind":"peak","name":"Hármas-halom","lat":46.318212,"lon":18.635343,"elevationM":245},{"id":"node:3416392043","kind":"peak","name":"Kerék-hegy","lat":46.35079,"lon":18.665574,"elevationM":245},{"id":"node:3416392059","kind":"peak","name":"Vár-hegy","lat":46.351807,"lon":18.611322,"elevationM":205},{"id":"node:3431153237","kind":"peak","name":"Baglyas-hegy","lat":46.2046106,"lon":18.3111476,"elevationM":407},{"id":"node:3431782456","kind":"peak","name":"Bargyag","lat":46.2305921,"lon":18.3863897,"elevationM":489},{"id":"node:3431782457","kind":"peak","name":"Barna-kő","lat":46.2117137,"lon":18.3006263,"elevationM":null},{"id":"node:3433486553","kind":"peak","name":"Letics-parrag","lat":46.1269174,"lon":18.230049,"elevationM":483},{"id":"node:3434722767","kind":"peak","name":"Csalán-hegy","lat":46.2188275,"lon":18.3823815,"elevationM":536},{"id":"node:3436639309","kind":"peak","name":"Csengő-hegy","lat":46.1944692,"lon":18.345357,"elevationM":489},{"id":"node:3440813398","kind":"peak","name":"Nagy-tó","lat":46.125533,"lon":18.134167,"elevationM":365},{"id":"node:3440814394","kind":"peak","name":"Herma-hegy","lat":46.1200502,"lon":18.1226306,"elevationM":381},{"id":"node:3440814422","kind":"peak","name":"Balázs-hegy","lat":46.140567,"lon":18.1479,"elevationM":320},{"id":"node:3441442292","kind":"peak","name":"Kerekhegyi földvár","lat":46.79442,"lon":18.17176,"elevationM":144},{"id":"node:3441442846","kind":"peak","name":"Bögöcse","lat":46.827898,"lon":18.051098,"elevationM":160},{"id":"node:3441443560","kind":"peak","name":"Zsidódomb","lat":46.791833,"lon":18.179333,"elevationM":140},{"id":"node:3442490909","kind":"peak","name":"Havi-hegy","lat":46.0855781,"lon":18.23783,"elevationM":246},{"id":"node:3446564332","kind":"peak","name":"Derék-hegy","lat":46.7419,"lon":18.54975,"elevationM":159},{"id":"node:3448190225","kind":"peak","name":"Köves-tető","lat":46.1678071,"lon":18.3179582,"elevationM":463},{"id":"node:3448190232","kind":"peak","name":"Köves-tető","lat":46.2215434,"lon":18.3162625,"elevationM":461},{"id":"node:3450086826","kind":"peak","name":"Kecske-hát","lat":46.1981152,"lon":18.4188624,"elevationM":492},{"id":"node:3451602335","kind":"peak","name":"Miklós-vár","lat":46.2216349,"lon":18.354151,"elevationM":500},{"id":"node:3457878423","kind":"peak","name":"Somlyó","lat":46.2346401,"lon":18.3609544,"elevationM":572},{"id":"node:3458295258","kind":"peak","name":"Szamár-hegy","lat":46.231045,"lon":18.368114,"elevationM":564},{"id":"node:3459411038","kind":"peak","name":"Meleg-mány","lat":46.1486442,"lon":18.2192827,"elevationM":365},{"id":"node:3459411039","kind":"peak","name":"Gilice-tető","lat":46.1360185,"lon":18.2395542,"elevationM":432},{"id":"node:3464278684","kind":"peak","name":"Templom-hegy","lat":46.2145328,"lon":18.4388901,"elevationM":471},{"id":"node:3464281330","kind":"peak","name":"Somos-hegy","lat":46.2031088,"lon":18.3871487,"elevationM":520},{"id":"node:3464290276","kind":"peak","name":"Csele-hegy","lat":46.0426684,"lon":18.6603705,"elevationM":174},{"id":"node:3464291501","kind":"peak","name":"Jenyei-hegy","lat":46.04533,"lon":18.64965,"elevationM":196},{"id":"node:3464291526","kind":"peak","name":"Liptódi-tető","lat":46.0491477,"lon":18.5452687,"elevationM":200},{"id":"node:3464812594","kind":"peak","name":"Vörös-hegy","lat":46.2124526,"lon":18.4780205,"elevationM":325},{"id":"node:3464812596","kind":"peak","name":"Winterberg","lat":46.218209,"lon":18.4066508,"elevationM":424},{"id":"node:3464812597","kind":"peak","name":"Köves-tető","lat":46.2144531,"lon":18.4011813,"elevationM":475},{"id":"node:3464812598","kind":"peak","name":"Új-hegy","lat":46.207693,"lon":18.217683,"elevationM":304},{"id":"node:3467367239","kind":"peak","name":"Somos-tető","lat":46.1807416,"lon":18.2848413,"elevationM":null},{"id":"node:3467367241","kind":"peak","name":"Sínai-hegy","lat":46.164423,"lon":18.1549085,"elevationM":284},{"id":"node:3468035567","kind":"peak","name":"Lapát-vár","lat":46.225521,"lon":18.381268,"elevationM":416},{"id":"node:3469135124","kind":"peak","name":"Róka-hegy","lat":46.1950234,"lon":18.3797828,"elevationM":497},{"id":"node:3469135125","kind":"peak","name":"Réka-vár","lat":46.2221384,"lon":18.4312356,"elevationM":315},{"id":"node:3469135126","kind":"peak","name":"Rác-hegy","lat":46.2388085,"lon":18.4998644,"elevationM":287},{"id":"node:3471345135","kind":"peak","name":"Púk-hegy","lat":46.2599585,"lon":18.3341896,"elevationM":353},{"id":"node:3471345152","kind":"peak","name":"Pintó-tető","lat":46.1927367,"lon":18.2992978,"elevationM":370},{"id":"node:3471345153","kind":"peak","name":"Pásztor-hegy","lat":46.2633809,"lon":18.4627624,"elevationM":302},{"id":"node:3471345154","kind":"peak","name":"Pap-hegy","lat":46.2599699,"lon":18.2033316,"elevationM":256},{"id":"node:3471345155","kind":"peak","name":"Öreg-hegy","lat":46.1989183,"lon":18.2386438,"elevationM":291},{"id":"node:3471345157","kind":"peak","name":"Őr-hegy","lat":46.2145294,"lon":18.1402547,"elevationM":213},{"id":"node:3471345158","kind":"peak","name":"Nagy-erdő-hegy","lat":46.2574153,"lon":18.2828208,"elevationM":351},{"id":"node:3471869634","kind":"peak","name":"Kéméndi-tető","lat":46.03529,"lon":18.485827,"elevationM":252},{"id":"node:3475087219","kind":"peak","name":"Mühlberg","lat":46.2084859,"lon":18.2610909,"elevationM":300},{"id":"node:3481741211","kind":"peak","name":"Les-oldal","lat":46.236505,"lon":18.3460087,"elevationM":420},{"id":"node:3481741214","kind":"peak","name":"Lipse-tető","lat":46.2585849,"lon":18.3703388,"elevationM":369},{"id":"node:3481741256","kind":"peak","name":"Közép-hegy","lat":46.2568385,"lon":18.436494,"elevationM":280},{"id":"node:3481742501","kind":"peak","name":"Kopasz-hegy","lat":46.1640335,"lon":18.1394416,"elevationM":240},{"id":"node:3481742502","kind":"peak","name":"Kis-kút-orma","lat":46.2172923,"lon":18.296249,"elevationM":341},{"id":"node:3481742503","kind":"peak","name":"Kis-kő-hegy","lat":46.1459908,"lon":18.1010482,"elevationM":296},{"id":"node:3481742504","kind":"peak","name":"Kopasz-hegy","lat":46.1761655,"lon":18.1396841,"elevationM":260},{"id":"node:3481742505","kind":"peak","name":"Kis-hegy","lat":46.1318764,"lon":18.1607605,"elevationM":340},{"id":"node:3481742506","kind":"peak","name":"Kerék-hegy","lat":46.1231267,"lon":18.3297262,"elevationM":246},{"id":"node:3481742507","kind":"peak","name":"Kecske-hegy","lat":46.2609433,"lon":18.388305,"elevationM":280},{"id":"node:3481742542","kind":"peak","name":"Kalap-hegy","lat":46.1468772,"lon":18.1330848,"elevationM":281},{"id":"node:3481742543","kind":"peak","name":"Illés-hegy","lat":46.1526281,"lon":18.3641397,"elevationM":328},{"id":"node:3484237897","kind":"peak","name":"Határ-tető","lat":46.1787534,"lon":18.2670951,"elevationM":352},{"id":"node:3484237898","kind":"peak","name":"Gyökér-hegy","lat":46.2323915,"lon":18.5091727,"elevationM":252},{"id":"node:3485845709","kind":"peak","name":"Földház-tető","lat":46.1116313,"lon":18.4099061,"elevationM":254},{"id":"node:3485845711","kind":"peak","name":"Ürögi Felső-hegy","lat":46.0941852,"lon":18.1823296,"elevationM":273},{"id":"node:3485845712","kind":"peak","name":"Erzsébet-hegy","lat":46.1189686,"lon":18.3150708,"elevationM":207},{"id":"node:3485845716","kind":"peak","name":"Csúszó-hegy","lat":46.2521536,"lon":18.2323353,"elevationM":280},{"id":"node:3485845717","kind":"peak","name":"Aranyos-tető","lat":46.1764372,"lon":18.1561843,"elevationM":256},{"id":"node:3485845718","kind":"peak","name":"Csonka-hegy","lat":46.271426,"lon":18.2685258,"elevationM":256},{"id":"node:3485845720","kind":"peak","name":"Baglyas-tető","lat":46.1908403,"lon":18.2086211,"elevationM":227},{"id":"node:3485845721","kind":"peak","name":"Csóka-kő","lat":46.1700709,"lon":18.3597647,"elevationM":365},{"id":"node:3486492207","kind":"peak","name":"Cserma","lat":46.1660308,"lon":18.2324317,"elevationM":300},{"id":"node:3486492209","kind":"peak","name":"Bak-hegy","lat":46.1645837,"lon":18.1829061,"elevationM":372},{"id":"node:3486492211","kind":"peak","name":"Balázs orma","lat":46.2160728,"lon":18.3427546,"elevationM":477},{"id":"node:3486492212","kind":"peak","name":"Beck-domb","lat":46.2674936,"lon":18.2565601,"elevationM":285},{"id":"node:3486492213","kind":"peak","name":"Csattogó-hegy","lat":46.2234161,"lon":18.5122824,"elevationM":282},{"id":"node:3486492214","kind":"peak","name":"Bence-hegy","lat":46.1548187,"lon":18.3730791,"elevationM":332},{"id":"node:3498589318","kind":"peak","name":"Lipóc","lat":46.1348698,"lon":18.1385121,"elevationM":322},{"id":"node:3502885353","kind":"peak","name":"Schlossberg","lat":46.0497471,"lon":18.4819204,"elevationM":217},{"id":"node:3551964068","kind":"peak","name":"Dögkút-tető","lat":46.218306,"lon":18.370639,"elevationM":560},{"id":"node:3551964086","kind":"peak","name":"Somos","lat":46.226833,"lon":18.345067,"elevationM":510},{"id":"node:3629615276","kind":"peak","name":"Kerék-hegy","lat":46.180006,"lon":18.3296748,"elevationM":531},{"id":"node:3716671771","kind":"peak","name":"Landor-hegy","lat":46.82302,"lon":18.0870104,"elevationM":null},{"id":"node:3728306581","kind":"peak","name":"Koszorú-domb","lat":46.408222,"lon":18.2777543,"elevationM":248},{"id":"node:3728958766","kind":"peak","name":"Várhegy","lat":46.6259583,"lon":18.2887026,"elevationM":null},{"id":"node:3962119807","kind":"peak","name":"Szószék","lat":46.223495,"lon":18.364893,"elevationM":586},{"id":"node:4158939741","kind":"peak","name":"Dukai-hegy","lat":46.6711971,"lon":18.534208,"elevationM":null},{"id":"node:4158939742","kind":"peak","name":"Kálvária-domb","lat":46.6736901,"lon":18.5403585,"elevationM":null},{"id":"node:4158939743","kind":"peak","name":"Szarka-hegy","lat":46.6701856,"lon":18.5427417,"elevationM":null},{"id":"node:4203845989","kind":"peak","name":"Sós-hegy","lat":46.109679,"lon":18.1922702,"elevationM":497},{"id":"node:4526976509","kind":"peak","name":"Cser-hát","lat":46.0698313,"lon":18.7230223,"elevationM":148},{"id":"node:4526976510","kind":"peak","name":"Vár-hegy","lat":46.0883225,"lon":18.7616696,"elevationM":135},{"id":"node:4830992774","kind":"peak","name":"Kakas-hegy","lat":46.2320116,"lon":18.4594599,"elevationM":284},{"id":"node:4931540635","kind":"peak","name":"Paraszik-tető","lat":46.180967,"lon":18.3650314,"elevationM":575},{"id":"node:4931896935","kind":"peak","name":"Cigány-hegy","lat":46.1362741,"lon":18.1730282,"elevationM":386},{"id":"node:5176685631","kind":"peak","name":"Kálvária-domb","lat":46.0808319,"lon":18.2274878,"elevationM":209},{"id":"node:5257637925","kind":"peak","name":"Rózsa-hegy","lat":46.1144114,"lon":18.17398,"elevationM":532},{"id":"node:5352046824","kind":"peak","name":"Halom-hegy","lat":46.097058,"lon":18.1028402,"elevationM":339},{"id":"node:5468012190","kind":"peak","name":"Havihegyi-szikla","lat":46.0860268,"lon":18.2375964,"elevationM":null},{"id":"node:6179728273","kind":"peak","name":"Bakócás","lat":46.1885509,"lon":18.4073782,"elevationM":485},{"id":"node:6196726989","kind":"peak","name":"Vaskapu","lat":46.2366003,"lon":18.1493711,"elevationM":222},{"id":"node:6328515688","kind":"peak","name":"Lencse-hegy","lat":46.010193,"lon":18.5256941,"elevationM":220},{"id":"node:6781138108","kind":"peak","name":"Kecskegyűrű","lat":46.1959333,"lon":18.3663511,"elevationM":525},{"id":"node:6793111299","kind":"peak","name":"Antal-hegy","lat":46.2696406,"lon":18.3095681,"elevationM":null},{"id":"node:8001166734","kind":"peak","name":"Csúcs","lat":46.1298428,"lon":18.1810641,"elevationM":398},{"id":"node:8003505178","kind":"peak","name":"Zsovár-domb","lat":46.0946177,"lon":18.0017102,"elevationM":225},{"id":"node:8003519334","kind":"peak","name":"Várkapu","lat":46.0995428,"lon":18.0491102,"elevationM":325},{"id":"node:8168543321","kind":"peak","name":"Vajda-hegy","lat":46.2370307,"lon":18.2314896,"elevationM":287},{"id":"node:8168543322","kind":"peak","name":"Gyertyános","lat":46.238411,"lon":18.2189691,"elevationM":268},{"id":"node:8184547288","kind":"peak","name":"Orbányos","lat":46.2532207,"lon":18.2210183,"elevationM":276},{"id":"node:8441426564","kind":"peak","name":"Gyetyános-hegy","lat":46.3546683,"lon":18.6419087,"elevationM":220},{"id":"node:8954067627","kind":"peak","name":"Aranyhegy","lat":46.0868422,"lon":18.1973237,"elevationM":275},{"id":"node:9467135824","kind":"peak","name":"Szent Mihály hegy","lat":46.0930738,"lon":18.7615961,"elevationM":125},{"id":"node:9467135825","kind":"peak","name":"Szent János hegy","lat":46.0914407,"lon":18.7612903,"elevationM":125},{"id":"node:9550326101","kind":"peak","name":"Schlossberg - Várhegy","lat":46.2267758,"lon":18.4772059,"elevationM":225},{"id":"node:9635360138","kind":"peak","name":"272","lat":46.2722537,"lon":18.286829,"elevationM":272},{"id":"node:9635360140","kind":"peak","name":"327","lat":46.264852,"lon":18.2858419,"elevationM":327},{"id":"node:10119120006","kind":"peak","name":"Klastrom-hegy","lat":46.5695957,"lon":18.0052862,"elevationM":null},{"id":"node:10745030551","kind":"peak","name":"Hosszú","lat":46.2050225,"lon":18.1442642,"elevationM":191},{"id":"node:11134701606","kind":"peak","name":"Jódi-hegy","lat":46.8448416,"lon":18.0257106,"elevationM":175},{"id":"node:11134701617","kind":"peak","name":"Töreki-hegy","lat":46.8516877,"lon":18.0329633,"elevationM":180},{"id":"node:11134701618","kind":"peak","name":"Jódihegy","lat":46.8552682,"lon":18.0196488,"elevationM":175},{"id":"node:11134887790","kind":"peak","name":"Lyukas-domb","lat":46.8226314,"lon":18.0631059,"elevationM":245},{"id":"node:11136168010","kind":"peak","name":"Nagyhegy","lat":46.790151,"lon":18.0734002,"elevationM":255},{"id":"node:11136168012","kind":"peak","name":"Szent László-hegy","lat":46.7988696,"lon":18.0657238,"elevationM":245},{"id":"node:11136227261","kind":"peak","name":"Kási-vár","lat":46.7916844,"lon":18.0753234,"elevationM":245},{"id":"node:12370778834","kind":"peak","name":"Potor-hegy","lat":46.1719518,"lon":18.3657503,"elevationM":455}]}