{"tileKey":"la_p41_lo_p21","version":"v1-1775891056926","entries":[{"id":"node:26862541","kind":"peak","name":"Кале","lat":41.6636144,"lon":21.5052823,"elevationM":2112},{"id":"node:26862789","kind":"peak","name":"Добра Вода","lat":41.6604881,"lon":21.0522793,"elevationM":2062},{"id":"node:26862814","kind":"peak","name":"Џаула","lat":41.0488889,"lon":21.6038889,"elevationM":1434},{"id":"node:26863297","kind":"peak","name":"Кале","lat":41.2266832,"lon":21.2894136,"elevationM":1492},{"id":"node:26863376","kind":"peak","name":"Китка","lat":41.842122,"lon":21.4984001,"elevationM":1588},{"id":"node:26863377","kind":"peak","name":"Ќаве","lat":41.3463953,"lon":21.8258687,"elevationM":1657},{"id":"node:26863424","kind":"peak","name":"Козјак","lat":41.39256,"lon":21.6906622,"elevationM":1746},{"id":"node:26864198","kind":"peak","name":"Пелистер","lat":41.0026621,"lon":21.1831915,"elevationM":2601},{"id":"node:26864743","kind":"peak","name":"Солунска Глава","lat":41.7039104,"lon":21.4041566,"elevationM":2589},{"id":"node:26864782","kind":"peak","name":"Стара Мусица","lat":41.4364696,"lon":21.2076081,"elevationM":1791},{"id":"node:345213119","kind":"peak","name":"Καραούλι","lat":41.0239827,"lon":21.8947608,"elevationM":1830},{"id":"node:345213433","kind":"peak","name":"Κράβιτσα","lat":41.0480241,"lon":21.919635,"elevationM":1770},{"id":"node:345213473","kind":"peak","name":"Αλέξανδρος","lat":41.0588437,"lon":21.9479616,"elevationM":1620},{"id":"node:345213543","kind":"peak","name":"Κακούρους","lat":41.0574892,"lon":21.9821008,"elevationM":1354},{"id":"node:345213588","kind":"peak","name":"Мал Козјак","lat":41.1008409,"lon":21.9316902,"elevationM":1786},{"id":"node:420491121","kind":"peak","name":"Љубаш","lat":41.4581845,"lon":21.9759034,"elevationM":null},{"id":"node:471026469","kind":"peak","name":"Вршник","lat":41.4025355,"lon":21.2232605,"elevationM":1602},{"id":"node:1444764990","kind":"peak","name":"Стив","lat":41.0132921,"lon":21.1993703,"elevationM":2468},{"id":"node:1444764997","kind":"peak","name":"Илинден","lat":41.005421,"lon":21.1916963,"elevationM":2542},{"id":"node:1542347444","kind":"peak","name":"Црн Врв","lat":41.8594296,"lon":21.738296,"elevationM":883},{"id":"node:1875768414","kind":"peak","name":"Остреш","lat":41.8732969,"lon":21.2765387,"elevationM":1022},{"id":"node:1875768426","kind":"peak","name":"Рблак","lat":41.9055471,"lon":21.2804419,"elevationM":1101},{"id":"node:1875768432","kind":"peak","name":"Црвена Карпа","lat":41.8847691,"lon":21.238064,"elevationM":1189},{"id":"node:1875768446","kind":"peak","name":"Мирска Вода","lat":41.7829901,"lon":21.2798002,"elevationM":2179},{"id":"node:1875768499","kind":"peak","name":"Даутица","lat":41.651114,"lon":21.3712077,"elevationM":2178},{"id":"node:1875768501","kind":"peak","name":"Зајачница","lat":41.8122066,"lon":21.2666424,"elevationM":1769},{"id":"node:1875768510","kind":"peak","name":"Иванов Камен","lat":41.7090897,"lon":21.3449457,"elevationM":2108},{"id":"node:1875768522","kind":"peak","name":"Ќуле","lat":41.8487501,"lon":21.260145,"elevationM":1405},{"id":"node:1875768525","kind":"peak","name":"Караџица","lat":41.7313059,"lon":21.3428561,"elevationM":2472},{"id":"node:1875768532","kind":"peak","name":"Кота","lat":41.7441134,"lon":21.3406542,"elevationM":2309},{"id":"node:1875768535","kind":"peak","name":"Миленков Камен","lat":41.7686906,"lon":21.292898,"elevationM":2217},{"id":"node:1875768541","kind":"peak","name":"Ситоица","lat":41.9106741,"lon":21.2666681,"elevationM":1122},{"id":"node:1875768550","kind":"peak","name":"Попово Брдо","lat":41.7107556,"lon":21.3637426,"elevationM":2379},{"id":"node:1875768563","kind":"peak","name":"Уши","lat":41.7922057,"lon":21.2722471,"elevationM":2043},{"id":"node:1875796242","kind":"peak","name":"Jошков Камен","lat":41.5622191,"lon":21.1050221,"elevationM":1917},{"id":"node:1875796248","kind":"peak","name":"Песјак","lat":41.5326446,"lon":21.152967,"elevationM":1839},{"id":"node:1910070079","kind":"peak","name":"Градиште (861)","lat":41.8989095,"lon":21.8363344,"elevationM":861},{"id":"node:1911382376","kind":"peak","name":"Орешец","lat":41.0294033,"lon":21.7739331,"elevationM":1353},{"id":"node:1911382387","kind":"peak","name":"Џаут","lat":41.008292,"lon":21.7007195,"elevationM":1149},{"id":"node:1911382394","kind":"peak","name":"Борчето","lat":41.0044057,"lon":21.6819226,"elevationM":1024},{"id":"node:1911382397","kind":"peak","name":"Перун","lat":41.1498543,"lon":21.8855129,"elevationM":1703},{"id":"node:1911382400","kind":"peak","name":"Ковачевска Чука","lat":41.1856494,"lon":21.8817364,"elevationM":1566},{"id":"node:1969842002","kind":"peak","name":"Старци","lat":41.584089,"lon":21.1034282,"elevationM":1897},{"id":"node:1983951381","kind":"peak","name":"Јусуфица","lat":41.5651177,"lon":21.0543333,"elevationM":1262},{"id":"node:2012218707","kind":"peak","name":"Ќавено","lat":41.4530919,"lon":21.6077436,"elevationM":1445},{"id":"node:2012552007","kind":"peak","name":"Сталев Камен","lat":41.2274338,"lon":21.0331087,"elevationM":1998},{"id":"node:2019528042","kind":"peak","name":"Вртешка","lat":41.044155,"lon":21.1082483,"elevationM":2010},{"id":"node:2097304590","kind":"peak","name":"Тапанче","lat":41.3618756,"lon":21.5400246,"elevationM":945},{"id":"node:2098892075","kind":"peak","name":"Златоврв","lat":41.4060366,"lon":21.5419363,"elevationM":1422},{"id":"node:2098892076","kind":"peak","name":"Единак","lat":41.4113833,"lon":21.5693843,"elevationM":1303},{"id":"node:2098892077","kind":"peak","name":"Липа","lat":41.4101293,"lon":21.5594145,"elevationM":1392},{"id":"node:2098892078","kind":"peak","name":"Кукул / Камена Глава","lat":41.3868226,"lon":21.5766129,"elevationM":980},{"id":"node:2107111520","kind":"peak","name":"Кале","lat":41.3372429,"lon":21.2838227,"elevationM":932},{"id":"node:2112957162","kind":"peak","name":"Ќавено","lat":41.4079897,"lon":21.6271007,"elevationM":1203},{"id":"node:2112957166","kind":"peak","name":"Цуцул","lat":41.4070808,"lon":21.6524535,"elevationM":1101},{"id":"node:2112970001","kind":"peak","name":"Кара Камен","lat":41.3190597,"lon":21.5667531,"elevationM":745},{"id":"node:2112970004","kind":"peak","name":"Мечка","lat":41.3184155,"lon":21.5732119,"elevationM":945},{"id":"node:2113352084","kind":"peak","name":"Кара Камен","lat":41.3076245,"lon":21.5613297,"elevationM":795},{"id":"node:2138788013","kind":"peak","name":"Ножот","lat":41.4293434,"lon":21.7629781,"elevationM":727},{"id":"node:2260711896","kind":"peak","name":"Камен","lat":41.2586975,"lon":21.4181513,"elevationM":736},{"id":"node:2260711900","kind":"peak","name":"Дупен Камен","lat":41.2404,"lon":21.4330626,"elevationM":848},{"id":"node:2265699964","kind":"peak","name":"Ѓупска Чука","lat":41.2580296,"lon":21.4641515,"elevationM":687},{"id":"node:2290530639","kind":"peak","name":"Соколица","lat":41.4671787,"lon":21.4682391,"elevationM":834},{"id":"node:2293459428","kind":"peak","name":"Атанавчица","lat":41.462071,"lon":21.3755667,"elevationM":765},{"id":"node:2306750013","kind":"peak","name":"Омец","lat":41.2818402,"lon":21.4781872,"elevationM":718},{"id":"node:2319596654","kind":"peak","name":"Тумба","lat":41.4465803,"lon":21.2887416,"elevationM":636},{"id":"node:2319892063","kind":"peak","name":"Уши","lat":41.377964,"lon":21.310177,"elevationM":849},{"id":"node:2473099773","kind":"peak","name":"Куклаица","lat":41.8216002,"lon":21.1721654,"elevationM":515},{"id":"node:2632368227","kind":"peak","name":"Сокол","lat":41.0137366,"lon":21.8552292,"elevationM":1822},{"id":"node:3116573331","kind":"peak","name":"Πέτερνικ","lat":41.0387689,"lon":21.9478271,"elevationM":1755},{"id":"node:3331621159","kind":"peak","name":"Кале","lat":41.3886994,"lon":21.3048201,"elevationM":909},{"id":"node:3337490316","kind":"peak","name":"Рид","lat":41.3519115,"lon":21.3297301,"elevationM":663},{"id":"node:3337491744","kind":"peak","name":"Голем Скапец","lat":41.3553331,"lon":21.3139168,"elevationM":800},{"id":"node:3345758675","kind":"peak","name":"Γκόλο Μπίλο","lat":41.0634402,"lon":21.9950728,"elevationM":1410},{"id":"node:3649234308","kind":"peak","name":"Венец","lat":41.9253366,"lon":21.7769746,"elevationM":853},{"id":"node:3650449640","kind":"peak","name":"Лимуње","lat":41.7227475,"lon":21.0380517,"elevationM":1840},{"id":"node:3650449641","kind":"peak","name":"Трновски Рид","lat":41.7480629,"lon":21.0281896,"elevationM":1626},{"id":"node:3650449642","kind":"peak","name":"Цветковско Рамниште","lat":41.7019439,"lon":21.0393997,"elevationM":1722},{"id":"node:3650449643","kind":"peak","name":"Кралевица","lat":41.7101043,"lon":21.0074985,"elevationM":1239},{"id":"node:3760454280","kind":"peak","name":"Μικρό Πέτερνικ","lat":41.0332868,"lon":21.9624188,"elevationM":1525},{"id":"node:3964610973","kind":"peak","name":"Орашец","lat":41.9635418,"lon":21.4100975,"elevationM":941},{"id":"node:4094949685","kind":"peak","name":"Кара Камен","lat":41.2515164,"lon":21.4746659,"elevationM":737},{"id":"node:4147601027","kind":"peak","name":"Маркови Кули","lat":41.3241048,"lon":21.7288339,"elevationM":1510},{"id":"node:4151906406","kind":"peak","name":"Четири Буки","lat":41.3097273,"lon":21.7543874,"elevationM":1462},{"id":"node:4155284903","kind":"peak","name":"Гола Скрка","lat":41.1805598,"lon":21.7962316,"elevationM":1187},{"id":"node:4155357566","kind":"peak","name":"Шут","lat":41.3113328,"lon":21.5842851,"elevationM":1277},{"id":"node:4305525824","kind":"peak","name":"Ѓуле","lat":41.328236,"lon":21.619559,"elevationM":1568},{"id":"node:4309784946","kind":"peak","name":"Туинско Кале","lat":41.6148523,"lon":21.1021591,"elevationM":1808},{"id":"node:4309853943","kind":"peak","name":"Фојник;Црквица","lat":41.7366444,"lon":21.1490857,"elevationM":1421},{"id":"node:4314052734","kind":"peak","name":"Голем Сач","lat":41.4377886,"lon":21.0693614,"elevationM":1698},{"id":"node:4318454175","kind":"peak","name":"Бубулец","lat":41.4505452,"lon":21.5875513,"elevationM":1014},{"id":"node:4319313668","kind":"peak","name":"Козомарица","lat":41.1320936,"lon":21.4336709,"elevationM":582},{"id":"node:4319318894","kind":"peak","name":"Бостаниште","lat":41.1338243,"lon":21.4265054,"elevationM":581},{"id":"node:4346150402","kind":"peak","name":"Голем Камен","lat":41.1245408,"lon":21.095359,"elevationM":1656},{"id":"node:4355668031","kind":"peak","name":"Голеш","lat":41.4194205,"lon":21.8296436,"elevationM":672},{"id":"node:5208042010","kind":"peak","name":"Страчкојца","lat":41.206451,"lon":21.3937332,"elevationM":736},{"id":"node:5349039226","kind":"peak","name":"Св. Илија","lat":41.2707102,"lon":21.4443078,"elevationM":674},{"id":"node:5812693621","kind":"peak","name":"Дупен Камен/Guri çamë","lat":41.7773581,"lon":21.0108921,"elevationM":1857},{"id":"node:5812693622","kind":"peak","name":"Крстовар","lat":41.9650492,"lon":21.3947795,"elevationM":1066},{"id":"node:5812693623","kind":"peak","name":"Крстец","lat":41.9108687,"lon":21.1693668,"elevationM":1401},{"id":"node:5812784175","kind":"peak","name":"Лисец (1935)","lat":41.7541225,"lon":21.5268506,"elevationM":1935},{"id":"node:5812784176","kind":"peak","name":"Перчулица","lat":41.6866577,"lon":21.3697413,"elevationM":2423},{"id":"node:5812784177","kind":"peak","name":"Клепа","lat":41.5703357,"lon":21.8144475,"elevationM":1149},{"id":"node:5812784189","kind":"peak","name":"Балтова Чука","lat":41.1349014,"lon":21.9081759,"elevationM":1823},{"id":"node:5812784190","kind":"peak","name":"Висока","lat":41.2079581,"lon":21.616292,"elevationM":1471},{"id":"node:5812784191","kind":"peak","name":"Студеница / Ливада","lat":41.3282998,"lon":21.6496006,"elevationM":1663},{"id":"node:5814032669","kind":"peak","name":"Бел Камен","lat":41.1154999,"lon":21.2038007,"elevationM":1430},{"id":"node:5814032670","kind":"peak","name":"Кафчал","lat":41.3844089,"lon":21.0761965,"elevationM":1762},{"id":"node:6151850236","kind":"peak","name":"Страга","lat":41.2558777,"lon":21.4691761,"elevationM":787},{"id":"node:6503504436","kind":"peak","name":"Голубарник","lat":41.8639546,"lon":21.1981863,"elevationM":628},{"id":"node:6503511473","kind":"peak","name":"Средни Рид","lat":41.8718906,"lon":21.2022468,"elevationM":619},{"id":"node:6503511474","kind":"peak","name":"Говедарник","lat":41.8762428,"lon":21.2214487,"elevationM":730},{"id":"node:6503515592","kind":"peak","name":"Градец","lat":41.816217,"lon":21.1686464,"elevationM":505},{"id":"node:6503522599","kind":"peak","name":"Теме","lat":41.810404,"lon":21.1535065,"elevationM":658},{"id":"node:6503527366","kind":"peak","name":"Костен","lat":41.854659,"lon":21.1672263,"elevationM":661},{"id":"node:6505534808","kind":"peak","name":"Велја Краста","lat":41.6087116,"lon":21.213175,"elevationM":694},{"id":"node:6505534809","kind":"peak","name":"Мало Брдо","lat":41.611362,"lon":21.2057276,"elevationM":700},{"id":"node:6505534810","kind":"peak","name":"Баба","lat":41.5913966,"lon":21.2039337,"elevationM":705},{"id":"node:6510036532","kind":"peak","name":"Бајраче","lat":41.7596707,"lon":21.7565,"elevationM":448},{"id":"node:6510046885","kind":"peak","name":"Плевенски Рид","lat":41.5866319,"lon":21.608127,"elevationM":1211},{"id":"node:6510046886","kind":"peak","name":"Вршник","lat":41.6885987,"lon":21.584349,"elevationM":705},{"id":"node:6510096078","kind":"peak","name":"Маленица","lat":41.8473462,"lon":21.6533956,"elevationM":474},{"id":"node:6510208917","kind":"peak","name":"Чукар","lat":41.8835893,"lon":21.695401,"elevationM":330},{"id":"node:6510208918","kind":"peak","name":"Пржар","lat":41.8921604,"lon":21.6939308,"elevationM":398},{"id":"node:6510208919","kind":"peak","name":"Црвени Мел","lat":41.8797343,"lon":21.7058622,"elevationM":448},{"id":"node:6515039787","kind":"peak","name":"Ќуле","lat":41.7291181,"lon":21.0811442,"elevationM":1368},{"id":"node:6515790729","kind":"peak","name":"Диховски Рид","lat":41.033712,"lon":21.2460858,"elevationM":1280},{"id":"node:6517955780","kind":"peak","name":"Абедиште","lat":41.9638827,"lon":21.3822659,"elevationM":1044},{"id":"node:6715437546","kind":"peak","name":"Φύλακες","lat":41.0889681,"lon":21.9516708,"elevationM":1182},{"id":"node:6715444545","kind":"peak","name":"Στρογγυλή","lat":41.1159013,"lon":21.9907027,"elevationM":1259},{"id":"node:6715445616","kind":"peak","name":"Λουλουδότοπος","lat":41.0844243,"lon":21.9420216,"elevationM":1387},{"id":"node:6715446828","kind":"peak","name":"Παρθένα","lat":41.0574457,"lon":21.9644519,"elevationM":1371},{"id":"node:6715452910","kind":"peak","name":"Παπαδιά","lat":41.0717891,"lon":21.9591513,"elevationM":1322},{"id":"node:6715453704","kind":"peak","name":"Λουλούδι","lat":41.0892648,"lon":21.936446,"elevationM":1466},{"id":"node:7082347173","kind":"peak","name":"Плочата","lat":41.3690819,"lon":21.9670205,"elevationM":514},{"id":"node:7528185201","kind":"peak","name":"Мечкин Камен","lat":41.3400467,"lon":21.2560134,"elevationM":1453},{"id":"node:7564082502","kind":"peak","name":"Мајкин Крст","lat":41.9723179,"lon":21.1739792,"elevationM":656},{"id":"node:7590595237","kind":"peak","name":"Штрбина","lat":41.9457607,"lon":21.2732961,"elevationM":1184},{"id":"node:7590609051","kind":"peak","name":"Раса","lat":41.9406833,"lon":21.2463607,"elevationM":1369},{"id":"node:7902972368","kind":"peak","name":"Св. Илија","lat":41.0694477,"lon":21.3177925,"elevationM":869},{"id":"node:7998084052","kind":"peak","name":"Галабник","lat":41.2654778,"lon":21.4972615,"elevationM":769},{"id":"node:8179298380","kind":"peak","name":"Кукулајца","lat":41.4768229,"lon":21.3565204,"elevationM":836},{"id":"node:8357393477","kind":"peak","name":"Градот","lat":41.2058438,"lon":21.7169604,"elevationM":484},{"id":"node:8849257093","kind":"peak","name":"Мала Чука","lat":41.0089866,"lon":21.1136407,"elevationM":2009},{"id":"node:8850712741","kind":"peak","name":"Чаула","lat":41.0402366,"lon":21.1501308,"elevationM":1657},{"id":"node:8850804717","kind":"peak","name":"Кале","lat":41.0411564,"lon":21.1917059,"elevationM":1615},{"id":"node:8850804718","kind":"peak","name":"Чун","lat":41.0339837,"lon":21.1040768,"elevationM":1709},{"id":"node:8850804719","kind":"peak","name":"Кодра","lat":41.0279018,"lon":21.0991018,"elevationM":1739},{"id":"node:8891176041","kind":"peak","name":"Шилегарник","lat":41.6856883,"lon":21.0541965,"elevationM":1720},{"id":"node:9159350809","kind":"peak","name":"Галчин","lat":41.3439471,"lon":21.8974581,"elevationM":1472},{"id":"node:9178693679","kind":"peak","name":"Остри Врв","lat":41.7627493,"lon":21.3412964,"elevationM":2263},{"id":"node:9178762906","kind":"peak","name":"Горни Пепељак","lat":41.7615444,"lon":21.358562,"elevationM":2352},{"id":"node:9178787650","kind":"peak","name":"Крајни Камен","lat":41.7507691,"lon":21.2998508,"elevationM":2093},{"id":"node:9779113353","kind":"peak","name":"Кале","lat":41.9596956,"lon":21.3229241,"elevationM":1044},{"id":"node:9985968427","kind":"peak","name":"Орлите","lat":41.3429846,"lon":21.8881076,"elevationM":1480},{"id":"node:9994762161","kind":"peak","name":"Убава","lat":41.7525371,"lon":21.3599308,"elevationM":2344},{"id":"node:10034000514","kind":"peak","name":"Голем Козјак","lat":41.0907615,"lon":21.9091201,"elevationM":1825},{"id":"node:10200880898","kind":"peak","name":"Топузојца","lat":41.5743298,"lon":21.100374,"elevationM":1743},{"id":"node:10200880901","kind":"peak","name":"Широка Падина","lat":41.6375988,"lon":21.0937901,"elevationM":1799},{"id":"node:10200880905","kind":"peak","name":"Скала","lat":41.6423476,"lon":21.0729141,"elevationM":1804},{"id":"node:10200880906","kind":"peak","name":"Острог","lat":41.651405,"lon":21.0503934,"elevationM":1814},{"id":"node:10200880908","kind":"peak","name":"Црколница","lat":41.5970209,"lon":21.0738829,"elevationM":1656},{"id":"node:10200880909","kind":"peak","name":"Чукале","lat":41.5718444,"lon":21.0329919,"elevationM":909},{"id":"node:10200880911","kind":"peak","name":"Магаречка","lat":41.5745256,"lon":21.0659444,"elevationM":1462},{"id":"node:10200880914","kind":"peak","name":"Уши","lat":41.5594191,"lon":21.1160018,"elevationM":1662},{"id":"node:10200880915","kind":"peak","name":"Седлар","lat":41.5507789,"lon":21.1283027,"elevationM":1772},{"id":"node:10200880916","kind":"peak","name":"Даутов Камен","lat":41.5583726,"lon":21.1426411,"elevationM":1471},{"id":"node:10274311567","kind":"peak","name":"Коњарник","lat":41.5365269,"lon":21.1360647,"elevationM":1874},{"id":"node:10274311570","kind":"peak","name":"Девини Кули","lat":41.5417176,"lon":21.2378855,"elevationM":596},{"id":"node:10274311571","kind":"peak","name":"Манастирче","lat":41.52037,"lon":21.1211002,"elevationM":1582},{"id":"node:10274311572","kind":"peak","name":"Соколов Камен","lat":41.5144133,"lon":21.1268693,"elevationM":1475},{"id":"node:10876717766","kind":"peak","name":"Голка","lat":41.8870424,"lon":21.303829,"elevationM":824},{"id":"node:10876717775","kind":"peak","name":"Долни Покојник","lat":41.8743447,"lon":21.3276828,"elevationM":987},{"id":"node:10876717776","kind":"peak","name":"Горни Покојник","lat":41.8628542,"lon":21.3144442,"elevationM":1078},{"id":"node:10876760211","kind":"peak","name":"Житин","lat":41.8412378,"lon":21.2814795,"elevationM":1446},{"id":"node:10882016187","kind":"peak","name":"Краста","lat":41.8566371,"lon":21.4918584,"elevationM":1445},{"id":"node:10925100257","kind":"peak","name":"Тумино","lat":41.9250252,"lon":21.3351471,"elevationM":742},{"id":"node:10925100258","kind":"peak","name":"Глеждино","lat":41.9284317,"lon":21.3276277,"elevationM":777},{"id":"node:10925100259","kind":"peak","name":"Цуцул","lat":41.9188594,"lon":21.3587381,"elevationM":637},{"id":"node:10925100260","kind":"peak","name":"Јарова Глава","lat":41.9203532,"lon":21.3167746,"elevationM":771},{"id":"node:10925100261","kind":"peak","name":"Чадори","lat":41.9037094,"lon":21.2700114,"elevationM":1109},{"id":"node:11478464681","kind":"peak","name":"Калуѓер","lat":41.5403451,"lon":21.0225088,"elevationM":882},{"id":"node:11478464682","kind":"peak","name":"Чука","lat":41.5452728,"lon":21.0350429,"elevationM":952},{"id":"node:11478755078","kind":"peak","name":"Ливадишта","lat":41.4239238,"lon":21.0454232,"elevationM":1509},{"id":"node:11478755079","kind":"peak","name":"Крачунец","lat":41.407642,"lon":21.084535,"elevationM":1356},{"id":"node:11478755080","kind":"peak","name":"Качеј Падиње","lat":41.3971809,"lon":21.0773845,"elevationM":1558},{"id":"node:11478755081","kind":"peak","name":"Китка","lat":41.395081,"lon":21.0619108,"elevationM":1642},{"id":"node:11478755082","kind":"peak","name":"Мртов Маж","lat":41.3757623,"lon":21.0971642,"elevationM":1462},{"id":"node:11478755083","kind":"peak","name":"Коњарник","lat":41.40311,"lon":21.0977327,"elevationM":1301},{"id":"node:11478755084","kind":"peak","name":"Баба Сач","lat":41.4344798,"lon":21.069736,"elevationM":1673},{"id":"node:11478755085","kind":"peak","name":"Стримница","lat":41.429407,"lon":21.0812549,"elevationM":1616},{"id":"node:11489027754","kind":"peak","name":"Черенец","lat":41.6094786,"lon":21.1010491,"elevationM":1581},{"id":"node:11712078201","kind":"peak","name":"Плоча","lat":41.5124119,"lon":21.1059161,"elevationM":1557},{"id":"node:11729145757","kind":"peak","name":"Турла","lat":41.420107,"lon":21.0172319,"elevationM":1142},{"id":"node:12212542444","kind":"peak","name":"Босанџири Рид","lat":41.9287665,"lon":21.5110544,"elevationM":405},{"id":"node:12212542445","kind":"peak","name":"Марков Рид","lat":41.9327951,"lon":21.5085707,"elevationM":359},{"id":"node:12212542447","kind":"peak","name":"Три Круши","lat":41.9291368,"lon":21.5227681,"elevationM":328},{"id":"node:12212542448","kind":"peak","name":"Кота Драчево","lat":41.9087061,"lon":21.5120881,"elevationM":483},{"id":"node:12249088543","kind":"peak","name":"Зелка","lat":41.2347872,"lon":21.8623527,"elevationM":1426},{"id":"node:12249088544","kind":"peak","name":"Неделка","lat":41.2670078,"lon":21.8599904,"elevationM":841},{"id":"node:12249088545","kind":"peak","name":"Варелова Тумба","lat":41.2730611,"lon":21.8681254,"elevationM":769},{"id":"node:12249088546","kind":"peak","name":"Српјановец","lat":41.1710996,"lon":21.8785735,"elevationM":1540},{"id":"node:12249088547","kind":"peak","name":"Гарван","lat":41.1417552,"lon":21.8580162,"elevationM":1265},{"id":"node:12249093746","kind":"peak","name":"Цуцул","lat":41.2177507,"lon":21.7962639,"elevationM":1229},{"id":"node:12249093747","kind":"peak","name":"Становица","lat":41.2214661,"lon":21.8165307,"elevationM":1185},{"id":"node:12249093748","kind":"peak","name":"Враговец","lat":41.2487593,"lon":21.8341779,"elevationM":1107},{"id":"node:12249093749","kind":"peak","name":"Бел Камен","lat":41.2625487,"lon":21.8152621,"elevationM":766},{"id":"node:12249093750","kind":"peak","name":"Вршникот","lat":41.2583162,"lon":21.8312438,"elevationM":1050},{"id":"node:12249127390","kind":"peak","name":"Белулата","lat":41.1915764,"lon":21.816528,"elevationM":854},{"id":"node:12250858574","kind":"peak","name":"Вртеш","lat":41.1245305,"lon":21.793923,"elevationM":1018},{"id":"node:12250914548","kind":"peak","name":"Врвот","lat":41.1275731,"lon":21.7092113,"elevationM":726},{"id":"node:12250914549","kind":"peak","name":"Ѓуптин","lat":41.1080935,"lon":21.722639,"elevationM":863},{"id":"node:12251392310","kind":"peak","name":"Корија","lat":41.2701207,"lon":21.5704448,"elevationM":1106},{"id":"node:12251392311","kind":"peak","name":"Товариште","lat":41.2883855,"lon":21.5872481,"elevationM":929},{"id":"node:12251392312","kind":"peak","name":"Коњарник","lat":41.2980396,"lon":21.6072955,"elevationM":1538},{"id":"node:12251392313","kind":"peak","name":"Паничиште","lat":41.2825524,"lon":21.6061346,"elevationM":1421},{"id":"node:12251392314","kind":"peak","name":"Две Стени","lat":41.2716409,"lon":21.6062343,"elevationM":1473},{"id":"node:12251392315","kind":"peak","name":"Чепигово","lat":41.2459898,"lon":21.5958811,"elevationM":1195},{"id":"node:12251392316","kind":"peak","name":"Шипот","lat":41.2389708,"lon":21.6234605,"elevationM":1103},{"id":"node:12251392317","kind":"peak","name":"Скала","lat":41.2549358,"lon":21.6170571,"elevationM":1177},{"id":"node:12251392318","kind":"peak","name":"Веслец","lat":41.2412383,"lon":21.5680275,"elevationM":1322},{"id":"node:12251392319","kind":"peak","name":"Рогатец","lat":41.1768453,"lon":21.6479971,"elevationM":915},{"id":"node:12251392320","kind":"peak","name":"Маргара","lat":41.1563902,"lon":21.6494618,"elevationM":1016},{"id":"node:12251392321","kind":"peak","name":"Орле Гавран","lat":41.1494992,"lon":21.6274128,"elevationM":1047},{"id":"node:12251392322","kind":"peak","name":"Убава Глава","lat":41.1791246,"lon":21.6987077,"elevationM":756},{"id":"node:12251392323","kind":"peak","name":"Мерсиновиот Кичер","lat":41.2342772,"lon":21.6537688,"elevationM":849},{"id":"node:12251392324","kind":"peak","name":"Горни Камен","lat":41.2400858,"lon":21.6752055,"elevationM":629},{"id":"node:12251392325","kind":"peak","name":"Градиште","lat":41.3012215,"lon":21.6503225,"elevationM":1361},{"id":"node:12251392326","kind":"peak","name":"Калушовец","lat":41.3157671,"lon":21.6111531,"elevationM":1446},{"id":"node:12251392327","kind":"peak","name":"Валот","lat":41.2831761,"lon":21.7095361,"elevationM":1031},{"id":"node:12251392328","kind":"peak","name":"Голина","lat":41.3145663,"lon":21.7028721,"elevationM":1334},{"id":"node:12251392329","kind":"peak","name":"Трите Страги","lat":41.2881649,"lon":21.7715692,"elevationM":1476},{"id":"node:12251392330","kind":"peak","name":"Бадниево Гноиште","lat":41.2716243,"lon":21.7781404,"elevationM":1225},{"id":"node:12251392331","kind":"peak","name":"Буткоец","lat":41.2534301,"lon":21.7557372,"elevationM":1191},{"id":"node:12251392332","kind":"peak","name":"Буова Тумба","lat":41.2459832,"lon":21.7481208,"elevationM":1160},{"id":"node:12251392333","kind":"peak","name":"Борска Стена","lat":41.2304696,"lon":21.7294689,"elevationM":846},{"id":"node:12339590958","kind":"peak","name":"Kodra e Gjalit","lat":41.7296663,"lon":21.0123209,"elevationM":1311},{"id":"node:12434362614","kind":"peak","name":"Гарван","lat":41.5025556,"lon":21.4851989,"elevationM":null},{"id":"node:12451061673","kind":"peak","name":"Висока","lat":41.2080123,"lon":21.6162978,"elevationM":null},{"id":"node:12492249520","kind":"peak","name":"Градиште","lat":41.3518304,"lon":21.3196482,"elevationM":748},{"id":"node:12724426103","kind":"peak","name":"Бајрак","lat":41.8218587,"lon":21.4230615,"elevationM":null},{"id":"node:12729650879","kind":"peak","name":"Бреза","lat":41.7517131,"lon":21.5773319,"elevationM":null},{"id":"node:13342006001","kind":"peak","name":"Островица","lat":41.9991489,"lon":21.8411446,"elevationM":null},{"id":"node:13342390411","kind":"peak","name":"Голик","lat":41.9861042,"lon":21.798224,"elevationM":null}]}