{"tileKey":"la_p65_lo_m172","version":"v1-1775891056926","entries":[{"id":"node:3413828576","kind":"peak","name":"Вычгынай","lat":65.5339467,"lon":-171.5189138,"elevationM":225},{"id":"node:3413854981","kind":"peak","name":"г.Кэнъевин","lat":65.5744176,"lon":-171.7046248,"elevationM":225},{"id":"node:3413864411","kind":"peak","name":"г.Камень","lat":65.6066008,"lon":-171.7065691,"elevationM":409},{"id":"node:3413868693","kind":"peak","name":"г.Эвэнэхтылвен","lat":65.6834096,"lon":-171.6404894,"elevationM":577},{"id":"node:3413870993","kind":"peak","name":"г.Вулканная","lat":65.6642563,"lon":-171.508926,"elevationM":896},{"id":"node:3413883313","kind":"peak","name":"г.Милютун","lat":65.6719242,"lon":-171.8234039,"elevationM":315},{"id":"node:3413889310","kind":"peak","name":"г.Энэтыркэн","lat":65.7139393,"lon":-171.6585085,"elevationM":798},{"id":"node:3415633836","kind":"peak","name":"г.Остаря","lat":65.7698575,"lon":-171.4795397,"elevationM":462},{"id":"node:3415633837","kind":"peak","name":"г.Элыраглын","lat":65.7660513,"lon":-171.7280615,"elevationM":738},{"id":"node:3418952393","kind":"peak","name":"г.Перевальная","lat":65.5447004,"lon":-171.1343333,"elevationM":274},{"id":"node:3418954693","kind":"peak","name":"г.Черная","lat":65.6003232,"lon":-171.175374,"elevationM":295},{"id":"node:3418982993","kind":"peak","name":"г.Лавва","lat":65.5559748,"lon":-171.3475562,"elevationM":715},{"id":"node:3418982994","kind":"peak","name":"г.Шумная","lat":65.5460102,"lon":-171.3497358,"elevationM":663}]}