{"tileKey":"la_p1_lo_p102","version":"v1-1775891056926","entries":[{"id":"node:6732381854","kind":"peak","name":"Bukit Banang","lat":1.8141853,"lon":102.9398465,"elevationM":427},{"id":"node:7775425432","kind":"peak","name":"Bukit Belah","lat":1.9427987,"lon":102.9681998,"elevationM":null},{"id":"node:8781133585","kind":"peak","name":"Bukit Tanjung","lat":1.7379819,"lon":102.9932857,"elevationM":null},{"id":"node:8887222450","kind":"peak","name":"Bukit Segenting","lat":1.7911298,"lon":102.8891828,"elevationM":null},{"id":"node:8887222451","kind":"peak","name":"Bukit Sinding","lat":1.7907851,"lon":102.9023157,"elevationM":null},{"id":"node:8904189344","kind":"peak","name":"Bukit Perah","lat":1.975179,"lon":102.6673704,"elevationM":null},{"id":"node:8904954855","kind":"peak","name":"Bukit Mor","lat":1.9790712,"lon":102.6767608,"elevationM":234},{"id":"node:8971687716","kind":"peak","name":"Bukit Kalong","lat":1.9932014,"lon":102.8954178,"elevationM":163},{"id":"node:8977359483","kind":"peak","name":"Bukit Chapal","lat":1.9905871,"lon":102.9236716,"elevationM":87},{"id":"node:8977373379","kind":"peak","name":"Bukit Payong","lat":1.9656467,"lon":102.9246077,"elevationM":258},{"id":"node:8980010385","kind":"peak","name":"Bukit Soga","lat":1.8552306,"lon":102.9574862,"elevationM":null},{"id":"node:8980100137","kind":"peak","name":"Bukit Penggaram","lat":1.8350722,"lon":102.9679817,"elevationM":360},{"id":"node:8986001015","kind":"peak","name":"Bukit Bindu","lat":1.9070629,"lon":102.9983951,"elevationM":199},{"id":"node:9040032178","kind":"peak","name":"Bukit Belah","lat":1.9527796,"lon":102.9641247,"elevationM":null},{"id":"node:11165395059","kind":"peak","name":"Bukit Bandkuit","lat":1.9675392,"lon":102.91914,"elevationM":null},{"id":"node:11165395104","kind":"peak","name":"Bukit Alam","lat":1.9675948,"lon":102.9138943,"elevationM":241},{"id":"node:11165395164","kind":"peak","name":"Bukit Berdiri","lat":1.9683555,"lon":102.9075596,"elevationM":195},{"id":"node:11166136460","kind":"peak","name":"Bukit Botak","lat":1.9657834,"lon":102.9004732,"elevationM":null},{"id":"node:12119885034","kind":"peak","name":"Bukit Capal","lat":1.9993811,"lon":102.8977303,"elevationM":280},{"id":"node:12119895482","kind":"peak","name":"Bukit Simpah","lat":1.9936111,"lon":102.905,"elevationM":135}]}