{"tileKey":"la_p22_lo_p41","version":"v1-1775891056926","entries":[{"id":"node:1236449372","kind":"peak","name":"ضليعات الرحاوي","lat":22.2675,"lon":41.600278,"elevationM":null},{"id":"node:8731160162","kind":"volcano","name":"أم الضلوع","lat":22.7642083,"lon":41.3566129,"elevationM":null},{"id":"node:11870047963","kind":"peak","name":"جبال الصقّاريّات","lat":22.71229,"lon":41.3699367,"elevationM":null},{"id":"node:11870047969","kind":"peak","name":"جبل جبو أبو ركب","lat":22.5554933,"lon":41.1024222,"elevationM":null},{"id":"node:11870048533","kind":"peak","name":"ضليعات ضعان","lat":22.0385919,"lon":41.6934724,"elevationM":null},{"id":"node:11870238404","kind":"peak","name":"جبل الشهباء","lat":22.5625098,"lon":41.2729208,"elevationM":null},{"id":"node:11870263953","kind":"peak","name":"جبل الوعبة","lat":22.8956867,"lon":41.1211219,"elevationM":null},{"id":"node:11870268233","kind":"peak","name":"جبال الهيل","lat":22.9251678,"lon":41.3432145,"elevationM":null},{"id":"node:11870737790","kind":"peak","name":"جبل القرن","lat":22.6270283,"lon":41.287366,"elevationM":null},{"id":"node:11870738424","kind":"peak","name":"جبال أمّهات بريم","lat":22.6740518,"lon":41.0687568,"elevationM":null},{"id":"node:11870738569","kind":"peak","name":"جبل الأكموم","lat":22.7843092,"lon":41.9486327,"elevationM":null},{"id":"node:11870951226","kind":"peak","name":"برق عسيلات","lat":22.1200206,"lon":41.4132513,"elevationM":null},{"id":"node:11871306288","kind":"peak","name":"جبل أم مليح","lat":22.7427223,"lon":41.0974412,"elevationM":null},{"id":"node:11871306368","kind":"peak","name":"جبل شلمان","lat":22.8282762,"lon":41.2975701,"elevationM":null},{"id":"node:11871306372","kind":"peak","name":"جبل السيسد","lat":22.0129995,"lon":41.3505668,"elevationM":null},{"id":"node:11871306591","kind":"peak","name":"الحلمة","lat":22.3888827,"lon":41.3009131,"elevationM":null},{"id":"node:11871306979","kind":"peak","name":"جبل نفراء الطريق","lat":22.4971931,"lon":41.1704455,"elevationM":null},{"id":"node:11871307175","kind":"peak","name":"جبال دخنة","lat":22.7465098,"lon":41.0137164,"elevationM":null},{"id":"node:11871539549","kind":"peak","name":"جبل يهيّ","lat":22.9511694,"lon":41.4726703,"elevationM":null},{"id":"node:11871539731","kind":"peak","name":"جبال أمّهات بريقة","lat":22.6009191,"lon":41.0275625,"elevationM":null},{"id":"node:11871652378","kind":"peak","name":"جبل قنّة","lat":22.7178946,"lon":41.2930174,"elevationM":null},{"id":"node:11871652393","kind":"peak","name":"ضليعات ام فرقين","lat":22.0731444,"lon":41.4721338,"elevationM":null},{"id":"node:11871652489","kind":"peak","name":"قارة الأشعريّة","lat":22.5923661,"lon":41.574895,"elevationM":null},{"id":"node:11871768965","kind":"volcano","name":"ضليع الدريعاء","lat":22.4880742,"lon":41.2757622,"elevationM":null},{"id":"node:11871768988","kind":"peak","name":"زرايب المحّال","lat":22.2351206,"lon":41.913926,"elevationM":null},{"id":"node:11871883318","kind":"peak","name":"قارة الرحية السويداء","lat":22.395819,"lon":41.604137,"elevationM":null},{"id":"node:11871883436","kind":"peak","name":"جبل صميع","lat":22.7633277,"lon":41.4175416,"elevationM":null},{"id":"node:11871883442","kind":"peak","name":"برقان هكران","lat":22.6182888,"lon":41.7207366,"elevationM":null},{"id":"node:11871883843","kind":"peak","name":"تلال هكران","lat":22.6520705,"lon":41.7070411,"elevationM":null},{"id":"node:11871883998","kind":"peak","name":"ضليع عرنين","lat":22.6879137,"lon":41.9195042,"elevationM":null},{"id":"node:12351319335","kind":"peak","name":"أمهات جويرة الجنوبية","lat":22.6329532,"lon":41.1237567,"elevationM":null},{"id":"node:12829604299","kind":"peak","name":"الفاطر","lat":22.1221944,"lon":41.5970814,"elevationM":null},{"id":"node:12829605464","kind":"peak","name":"البتيلة","lat":22.2733611,"lon":41.5102499,"elevationM":null},{"id":"node:12999986816","kind":"volcano","name":"فوهة الوعبة","lat":22.9010986,"lon":41.1393997,"elevationM":null}]}