{"tileKey":"la_p0_lo_m80","version":"v1-1775891056926","entries":[{"id":"node:249418318","kind":"peak","name":"Peña del Salto","lat":0.9912748,"lon":-79.6171543,"elevationM":null},{"id":"node:4447644782","kind":"peak","name":"Gatazo","lat":0.8078653,"lon":-79.6671331,"elevationM":487},{"id":"node:6184163023","kind":"peak","name":"Cerro Hondo","lat":0.6940959,"lon":-79.331503,"elevationM":null},{"id":"node:6184163024","kind":"peak","name":"Cerro Alto","lat":0.6892039,"lon":-79.2975999,"elevationM":null},{"id":"node:6184163841","kind":"peak","name":"Cerro Nine","lat":0.7413848,"lon":-79.4924784,"elevationM":null},{"id":"node:6271599601","kind":"peak","name":"Cerro Nine","lat":0.7502675,"lon":-79.50104,"elevationM":null},{"id":"node:7206351230","kind":"peak","name":"CerroTapira","lat":0.8852226,"lon":-79.5481397,"elevationM":null},{"id":"node:7206351231","kind":"peak","name":"Loma Zapallo","lat":0.8855229,"lon":-79.5302868,"elevationM":null}]}