{"tileKey":"la_p49_lo_p2","version":"v1-1775891056926","entries":[{"id":"node:472615306","kind":"peak","name":"Mont Pagnotte","lat":49.2798137,"lon":2.6398789,"elevationM":222},{"id":"node:474487579","kind":"peak","name":"Butte d'Aumont","lat":49.2289648,"lon":2.5443245,"elevationM":124},{"id":"node:1992879562","kind":"peak","name":"Butte aux Gens d'Armes","lat":49.1624692,"lon":2.5922493,"elevationM":103},{"id":"node:2627611290","kind":"peak","name":"Mont Saint-Pierre","lat":49.3757042,"lon":2.9497024,"elevationM":127},{"id":"node:2629241629","kind":"peak","name":"Mont Saint-Mard","lat":49.3982865,"lon":2.9453484,"elevationM":null},{"id":"node:2629645977","kind":"peak","name":"Mont d'Arcy","lat":49.3637937,"lon":2.9478313,"elevationM":119},{"id":"node:2801249486","kind":"peak","name":"Mont du Tremble","lat":49.416471,"lon":2.8871302,"elevationM":129},{"id":"node:3441397724","kind":"peak","name":"Mont Bocquet","lat":49.3812745,"lon":2.7488273,"elevationM":121},{"id":"node:3441397725","kind":"peak","name":"Mont Clergé","lat":49.3934656,"lon":2.7297705,"elevationM":150},{"id":"node:3441397726","kind":"peak","name":"Mont Hart","lat":49.3814209,"lon":2.7255609,"elevationM":129},{"id":"node:3441397727","kind":"peak","name":"Mont d'Huette","lat":49.3927414,"lon":2.7409639,"elevationM":151},{"id":"node:3705180916","kind":"peak","name":"Montagne de la Garenne","lat":49.5238985,"lon":2.6700195,"elevationM":121},{"id":"node:3705180918","kind":"peak","name":"Montagne de Lataule","lat":49.531799,"lon":2.6849991,"elevationM":128},{"id":"node:3705180919","kind":"peak","name":"Montagne de la Somme d'Or","lat":49.51629,"lon":2.666825,"elevationM":98},{"id":"node:3717798958","kind":"peak","name":"Mont de Cuy","lat":49.5770107,"lon":2.9206441,"elevationM":163},{"id":"node:3717803510","kind":"peak","name":"La montagne","lat":49.5801754,"lon":2.956072,"elevationM":153},{"id":"node:3718236793","kind":"peak","name":"Montagne d'Attiche","lat":49.5364147,"lon":2.89391,"elevationM":188},{"id":"node:3718237310","kind":"peak","name":"Le Plémont","lat":49.5707728,"lon":2.8522435,"elevationM":163},{"id":"node:3718237326","kind":"peak","name":"Montagne d'Hauette","lat":49.5066904,"lon":2.8782073,"elevationM":148},{"id":"node:3761583820","kind":"peak","name":"Mont Bar","lat":49.8379063,"lon":2.1985841,"elevationM":102},{"id":"node:3834538483","kind":"peak","name":"Butte du Châtelet","lat":49.4404315,"lon":2.8987622,"elevationM":113},{"id":"node:3834538487","kind":"peak","name":"Petite Tête des Chatillons","lat":49.454692,"lon":2.9554231,"elevationM":null},{"id":"node:3851863616","kind":"peak","name":"Mont Moyen","lat":49.442396,"lon":2.9121312,"elevationM":108},{"id":"node:3851863617","kind":"peak","name":"Mont Renard","lat":49.4434572,"lon":2.9226924,"elevationM":107},{"id":"node:3851863618","kind":"peak","name":"Mont du Fouilleux","lat":49.4321656,"lon":2.9472198,"elevationM":null},{"id":"node:3851863619","kind":"peak","name":"Mont l'Ecange","lat":49.4408782,"lon":2.9383276,"elevationM":100},{"id":"node:4347811999","kind":"peak","name":"La Motte du Moulin","lat":49.3535317,"lon":2.7339566,"elevationM":120},{"id":"node:4357941994","kind":"peak","name":"Lieu dit \"Camp de César\" ou \"Fort du Ganelon\"","lat":49.461052,"lon":2.8284916,"elevationM":149},{"id":"node:4377418192","kind":"peak","name":"Mont de Caumont","lat":49.4831091,"lon":2.8426929,"elevationM":137},{"id":"node:4390272546","kind":"peak","name":"Montagne du Champ Verron","lat":49.514257,"lon":2.9072513,"elevationM":null},{"id":"node:4498214056","kind":"peak","name":"Les Beaux Monts","lat":49.4098967,"lon":2.8919156,"elevationM":133},{"id":"node:4498231730","kind":"peak","name":"Mont du Grand Veneur","lat":49.3668832,"lon":2.9821356,"elevationM":132},{"id":"node:4498236764","kind":"peak","name":"Mont des Usages","lat":49.377792,"lon":2.991691,"elevationM":138},{"id":"node:4498241408","kind":"peak","name":"Mont du Voliard","lat":49.3520501,"lon":2.9559267,"elevationM":131},{"id":"node:4498250856","kind":"peak","name":"Mont de la Héronnière","lat":49.3488671,"lon":2.9382699,"elevationM":132},{"id":"node:4559196932","kind":"peak","name":"Mont Renaud","lat":49.5632239,"lon":2.9738532,"elevationM":84},{"id":"node:5314787782","kind":"peak","name":"Mont Conseil","lat":49.5456858,"lon":2.939595,"elevationM":null},{"id":"node:5584896626","kind":"peak","name":"Mont César","lat":49.3614988,"lon":2.522031,"elevationM":157},{"id":"node:5754588343","kind":"peak","name":"Montagne de Clermont","lat":49.4577663,"lon":2.3913234,"elevationM":134},{"id":"node:5932743756","kind":"peak","name":"Mont Florentin","lat":49.3415393,"lon":2.0524305,"elevationM":221},{"id":"node:5932743879","kind":"peak","name":"Butte des Marais","lat":49.4119482,"lon":2.0591197,"elevationM":172},{"id":"node:5999256658","kind":"peak","name":"Le Mont Huet","lat":49.6508004,"lon":2.0305068,"elevationM":180},{"id":"node:6267470151","kind":"peak","name":"Mont César","lat":49.3870692,"lon":2.2389668,"elevationM":138},{"id":"node:6285632510","kind":"peak","name":"Mont de Bourguillemont","lat":49.4137976,"lon":2.1668304,"elevationM":113},{"id":"node:6303796912","kind":"peak","name":"Buttes de Rosne","lat":49.1884217,"lon":2.0270088,"elevationM":216},{"id":"node:6478627180","kind":"peak","name":"Mont Collet","lat":49.3892172,"lon":2.9665446,"elevationM":126},{"id":"node:6509238604","kind":"peak","name":"La montagne de Lagny","lat":49.6164994,"lon":2.90625,"elevationM":164},{"id":"node:6561616993","kind":"peak","name":"Colline de Longueau","lat":49.8737739,"lon":2.3644708,"elevationM":49},{"id":"node:6709222876","kind":"peak","name":"Montagne du Couvent","lat":49.5334548,"lon":2.8094023,"elevationM":null},{"id":"node:6709222877","kind":"peak","name":"Marfontaine","lat":49.5349595,"lon":2.8095419,"elevationM":null},{"id":"node:6709222879","kind":"peak","name":"Montagne du Hazoir","lat":49.5364952,"lon":2.7952351,"elevationM":167},{"id":"node:6709222881","kind":"peak","name":"Le bois brulé","lat":49.5321158,"lon":2.7983649,"elevationM":null},{"id":"node:6783112069","kind":"peak","name":"Mont d'Herlin","lat":49.5293536,"lon":2.8124807,"elevationM":null},{"id":"node:7767208863","kind":"peak","name":"Pierre Quimpièrre","lat":49.5957719,"lon":2.948718,"elevationM":null},{"id":"node:8870054250","kind":"peak","name":"Mont Martin","lat":49.8493019,"lon":2.2975897,"elevationM":117},{"id":"node:8870057423","kind":"peak","name":"Mont Robert","lat":49.8389069,"lon":2.2651809,"elevationM":105},{"id":"node:8907912284","kind":"peak","name":"Le Mont Béthizay","lat":49.2874514,"lon":2.7910737,"elevationM":115},{"id":"node:8926821310","kind":"peak","name":"Mont de Sable","lat":49.3971173,"lon":2.2682232,"elevationM":null},{"id":"node:9283932811","kind":"peak","name":"Mont de Corbie","lat":49.9286109,"lon":2.4559406,"elevationM":123},{"id":"node:9283962189","kind":"peak","name":"Mont Villermont","lat":49.9232808,"lon":2.4926279,"elevationM":108},{"id":"node:9344249943","kind":"peak","name":"l'Olinval","lat":49.4926292,"lon":2.8055113,"elevationM":154},{"id":"node:9344249944","kind":"peak","name":"Les Pointes","lat":49.4960143,"lon":2.813379,"elevationM":140},{"id":"node:9397325442","kind":"peak","name":"Les Montelettes","lat":49.6427763,"lon":2.5707821,"elevationM":94},{"id":"node:9924997288","kind":"peak","name":"Butte du Maulois","lat":49.147258,"lon":2.5981917,"elevationM":96},{"id":"node:9925004966","kind":"peak","name":"Butte témoin de Montmélian","lat":49.0925037,"lon":2.5786453,"elevationM":203},{"id":"node:10300769955","kind":"peak","name":"Les Froids Vents","lat":49.6037823,"lon":2.3507499,"elevationM":156},{"id":"node:10741866666","kind":"peak","name":"Montagne de Cappy","lat":49.9875314,"lon":2.7262904,"elevationM":120},{"id":"node:10741900101","kind":"peak","name":"Mont Fay","lat":49.9968275,"lon":2.4917249,"elevationM":106},{"id":"node:10741900102","kind":"peak","name":"Le Brûlé","lat":49.98579,"lon":2.5721274,"elevationM":107},{"id":"node:10741900103","kind":"peak","name":"Les Longues Raies","lat":49.9779653,"lon":2.5749177,"elevationM":101},{"id":"node:10756828564","kind":"peak","name":"Le Bosquet de Camont","lat":49.8085619,"lon":2.2243743,"elevationM":112},{"id":"node:10756828565","kind":"peak","name":"Le Bosquet","lat":49.7990765,"lon":2.211716,"elevationM":81},{"id":"node:10756828566","kind":"peak","name":"Le Pain de Sucre","lat":49.806277,"lon":2.1671067,"elevationM":110},{"id":"node:10756828567","kind":"peak","name":"Mont de Rot","lat":49.7741779,"lon":2.0612925,"elevationM":167},{"id":"node:10756828568","kind":"peak","name":"Mont Beaudrit","lat":49.7769253,"lon":2.1446705,"elevationM":90},{"id":"node:10757161744","kind":"peak","name":"Le Corneiller","lat":49.8484095,"lon":2.024162,"elevationM":125},{"id":"node:10757161745","kind":"peak","name":"Saint-Acheul","lat":49.8579523,"lon":2.0268118,"elevationM":125},{"id":"node:10757161746","kind":"peak","name":"Haut de Seux","lat":49.8664763,"lon":2.114272,"elevationM":121},{"id":"node:10757161747","kind":"peak","name":"Le Moulin","lat":49.8516885,"lon":2.1004082,"elevationM":130},{"id":"node:10757161748","kind":"peak","name":"Mont de Quevauvillers","lat":49.812747,"lon":2.0915704,"elevationM":139},{"id":"node:10757177467","kind":"peak","name":"Mont aux Pourceaux","lat":49.7327804,"lon":2.0691649,"elevationM":159},{"id":"node:10757177468","kind":"peak","name":"Mont Olivet","lat":49.7336411,"lon":2.0272765,"elevationM":177},{"id":"node:10757177469","kind":"peak","name":"Montagne de Frémontiers","lat":49.7523711,"lon":2.0714587,"elevationM":177},{"id":"node:10757177470","kind":"peak","name":"Montagne d'Uzenneville","lat":49.7533917,"lon":2.058204,"elevationM":128},{"id":"node:10763815240","kind":"peak","name":"Mont Dromel","lat":49.9993079,"lon":2.4391277,"elevationM":102},{"id":"node:10792150383","kind":"peak","name":"La Haute Borne","lat":49.6566282,"lon":2.2929797,"elevationM":120},{"id":"node:10792211199","kind":"peak","name":"Chapereau Mont","lat":49.6092336,"lon":2.403699,"elevationM":144},{"id":"node:10792211200","kind":"peak","name":"Le Quénot","lat":49.6232533,"lon":2.404395,"elevationM":152},{"id":"node:10792211201","kind":"peak","name":"Le Bief","lat":49.618617,"lon":2.3630701,"elevationM":125},{"id":"node:10792212886","kind":"peak","name":"La Haute Borne","lat":49.6606465,"lon":2.4093274,"elevationM":152},{"id":"node:10792212887","kind":"peak","name":"L'Épine","lat":49.647655,"lon":2.3468881,"elevationM":111},{"id":"node:11930978047","kind":"peak","name":"Le Pain de Sucre","lat":49.1320879,"lon":2.4640738,"elevationM":109},{"id":"node:11954498976","kind":"peak","name":"Le Moulin","lat":49.958019,"lon":2.4758813,"elevationM":127},{"id":"node:11954501464","kind":"peak","name":"Mont de Bussy","lat":49.9288022,"lon":2.4207388,"elevationM":71},{"id":"node:11954501465","kind":"peak","name":"Le Carimont","lat":49.9191727,"lon":2.4146054,"elevationM":68},{"id":"node:11954514553","kind":"peak","name":"La Montoye","lat":49.9713863,"lon":2.3849792,"elevationM":111},{"id":"node:11954514554","kind":"peak","name":"Mont à Brouette","lat":49.9957773,"lon":2.4187881,"elevationM":87},{"id":"node:11980133622","kind":"peak","name":"Mont Ducrocq","lat":49.9744112,"lon":2.2346292,"elevationM":97},{"id":"node:11992466179","kind":"peak","name":"Haut de Saint-Aubin","lat":49.7634842,"lon":2.5394953,"elevationM":104},{"id":"node:12012886188","kind":"peak","name":"Maigremont","lat":49.6728819,"lon":2.5453066,"elevationM":112},{"id":"node:12012911971","kind":"peak","name":"Mont Gallet","lat":49.6941135,"lon":2.5543781,"elevationM":112},{"id":"node:12012913662","kind":"peak","name":"Mont de Forestel","lat":49.6685883,"lon":2.5554722,"elevationM":116},{"id":"node:12015658558","kind":"peak","name":"Le Mamont","lat":49.7580285,"lon":2.4233413,"elevationM":95},{"id":"node:12015676868","kind":"peak","name":"Mont d'Heilly","lat":49.8363689,"lon":2.1899263,"elevationM":105},{"id":"node:12015819069","kind":"peak","name":"Mont à Lièvres","lat":49.6962192,"lon":2.2281383,"elevationM":158},{"id":"node:12018289499","kind":"peak","name":"Montagne des Galets","lat":49.6480237,"lon":2.4679142,"elevationM":108},{"id":"node:12018293763","kind":"peak","name":"Montagne de Plainville","lat":49.6152719,"lon":2.4744099,"elevationM":136},{"id":"node:12018298318","kind":"peak","name":"Mont Soufflard","lat":49.6339976,"lon":2.4570231,"elevationM":161},{"id":"node:12020234950","kind":"peak","name":"Mont Joie","lat":49.9508876,"lon":2.1036479,"elevationM":78},{"id":"node:12020372031","kind":"peak","name":"Les Meuliniers","lat":49.976878,"lon":2.1689298,"elevationM":98},{"id":"node:12020373482","kind":"peak","name":"Les Étroits","lat":49.983046,"lon":2.0236518,"elevationM":105},{"id":"node:12023331693","kind":"peak","name":"Montagne Moinet","lat":49.688976,"lon":2.2911246,"elevationM":143},{"id":"node:12023337189","kind":"peak","name":"Mont de Lawarde","lat":49.6822875,"lon":2.2587842,"elevationM":160},{"id":"node:12023337190","kind":"peak","name":"Le Sire Amont","lat":49.6778487,"lon":2.2439413,"elevationM":169},{"id":"node:12655250806","kind":"peak","name":"Les Éminences","lat":49.9782979,"lon":2.9780899,"elevationM":133},{"id":"node:12770102692","kind":"peak","name":"Le Roymont","lat":49.5560323,"lon":2.3929719,"elevationM":136},{"id":"node:13274628100","kind":"peak","name":"Le Mont à Cailloux","lat":49.9274559,"lon":2.1507907,"elevationM":86},{"id":"node:13274640701","kind":"peak","name":"Mont Joie","lat":49.922846,"lon":2.1483879,"elevationM":96},{"id":"node:13274640702","kind":"peak","name":"Le Mont Joye","lat":49.9143732,"lon":2.1442069,"elevationM":86},{"id":"node:13274640703","kind":"peak","name":"Le Mont à Vast","lat":49.9216122,"lon":2.1192875,"elevationM":100},{"id":"node:13274640704","kind":"peak","name":"La Têtelotte","lat":49.9149759,"lon":2.0415072,"elevationM":79},{"id":"node:13357765920","kind":"peak","name":"Butte de Malmont","lat":49.0477617,"lon":2.2102425,"elevationM":114}]}