{"tileKey":"la_p35_lo_p101","version":"v1-1775891056926","entries":[{"id":"node:3276357248","kind":"peak","name":"旭日加营卡山","lat":35.2000198,"lon":101.4252075,"elevationM":null},{"id":"node:3303673927","kind":"peak","name":"阿尼直亥山","lat":35.5602785,"lon":101.5107101,"elevationM":null},{"id":"node:3303673930","kind":"peak","name":"尕玛日岗","lat":35.533308,"lon":101.6306865,"elevationM":null},{"id":"node:3303673933","kind":"peak","name":"来门赛图岗","lat":35.6355856,"lon":101.6249904,"elevationM":null},{"id":"node:3303673939","kind":"peak","name":"也尔普岗","lat":35.5661206,"lon":101.5665567,"elevationM":null},{"id":"node:3303798107","kind":"peak","name":"折戈里山","lat":35.7595839,"lon":101.7858277,"elevationM":null},{"id":"node:6145826845","kind":"peak","name":"折戈里山","lat":35.7540056,"lon":101.8076055,"elevationM":null}]}