{"tileKey":"la_p10_lo_p19","version":"v1-1775891056926","entries":[{"id":"node:7721349202","kind":"peak","name":"H. Takil","lat":10.4056,"lon":19.0379,"elevationM":null},{"id":"node:7721349203","kind":"peak","name":"H. Tandalia","lat":10.4365,"lon":19.0725,"elevationM":null},{"id":"node:7721349257","kind":"peak","name":"Koundjo","lat":10.6366,"lon":19.4129,"elevationM":null},{"id":"node:7721349258","kind":"peak","name":"Amouk","lat":10.6143,"lon":19.2461,"elevationM":null},{"id":"node:7721349259","kind":"peak","name":"Toumoudi","lat":10.9794,"lon":19.1511,"elevationM":null},{"id":"node:7721349261","kind":"peak","name":"Hadjer Kokoro","lat":10.4818,"lon":19.2774,"elevationM":null},{"id":"node:7721349271","kind":"peak","name":"Tari","lat":10.8262,"lon":19.3783,"elevationM":null},{"id":"node:7721349312","kind":"peak","name":"Koo","lat":10.0022,"lon":19.3868,"elevationM":null},{"id":"node:7721349926","kind":"peak","name":"Tountaguil","lat":10.687,"lon":19.4685,"elevationM":null},{"id":"node:7721878026","kind":"peak","name":"Kahim","lat":10.8872,"lon":19.3864,"elevationM":null},{"id":"node:7721878027","kind":"peak","name":"Hadjer Aya Didé","lat":10.324882,"lon":19.018575,"elevationM":null}]}