{"tileKey":"la_p35_lo_m122","version":"v1-1775891056926","entries":[{"id":"node:358780876","kind":"peak","name":"Black Oak Mountain","lat":35.6730251,"lon":-121.1160274,"elevationM":688},{"id":"node:358784633","kind":"peak","name":"Garrity Peak","lat":35.7191352,"lon":-121.2110331,"elevationM":725},{"id":"node:358786450","kind":"peak","name":"Jackson Hill","lat":35.9110784,"lon":-121.0804709,"elevationM":391},{"id":"node:358790626","kind":"peak","name":"Pine Mountain","lat":35.6899693,"lon":-121.0943597,"elevationM":1093},{"id":"node:358790896","kind":"peak","name":"Quail Top","lat":35.8908007,"lon":-121.1132505,"elevationM":344},{"id":"node:358791034","kind":"peak","name":"Red Mountain","lat":35.6435812,"lon":-121.0740805,"elevationM":623},{"id":"node:358791040","kind":"peak","name":"Red Rock","lat":35.6860803,"lon":-121.1454735,"elevationM":495},{"id":"node:358791250","kind":"peak","name":"Rocky Butte","lat":35.6682122,"lon":-121.0616075,"elevationM":1043},{"id":"node:358792382","kind":"peak","name":"Scott Rock","lat":35.5766379,"lon":-121.0735243,"elevationM":182},{"id":"node:358794271","kind":"peak","name":"Vulture Rock","lat":35.6439533,"lon":-121.0199324,"elevationM":857},{"id":"node:358794933","kind":"peak","name":"Yellow Hill","lat":35.7247515,"lon":-121.3032351,"elevationM":149},{"id":"node:358795465","kind":"peak","name":"Willow Peak","lat":35.9213888,"lon":-121.3963836,"elevationM":600},{"id":"node:358795468","kind":"peak","name":"Thorndyke Top","lat":35.810623,"lon":-121.3533748,"elevationM":385},{"id":"node:358795474","kind":"peak","name":"Salmon Head","lat":35.8282651,"lon":-121.3625354,"elevationM":805},{"id":"node:358800736","kind":"peak","name":"Alder Peak","lat":35.8847737,"lon":-121.3696433,"elevationM":1137},{"id":"node:358800843","kind":"peak","name":"Bald Mountain","lat":35.8633009,"lon":-121.1240845,"elevationM":651},{"id":"node:358800983","kind":"peak","name":"Burro Mountain","lat":35.8699672,"lon":-121.2735372,"elevationM":838},{"id":"node:358801592","kind":"peak","name":"Lion Peak","lat":35.8516331,"lon":-121.3221506,"elevationM":1036},{"id":"node:358801702","kind":"peak","name":"Mount Mars","lat":35.8124915,"lon":-121.3408242,"elevationM":806},{"id":"node:358801723","kind":"peak","name":"Mesa Coyote","lat":35.9152452,"lon":-121.2010335,"elevationM":507},{"id":"node:358801923","kind":"peak","name":"Pine Top Mountain","lat":35.7449679,"lon":-121.2604805,"elevationM":798},{"id":"node:358802104","kind":"peak","name":"San Martin Top","lat":35.878298,"lon":-121.4018766,"elevationM":938},{"id":"node:358802177","kind":"peak","name":"Silver Peak","lat":35.8478905,"lon":-121.3590002,"elevationM":1073},{"id":"node:358802305","kind":"peak","name":"Three Peaks","lat":35.8480223,"lon":-121.3065943,"elevationM":974},{"id":"node:358807790","kind":"peak","name":"Bald Top","lat":35.776634,"lon":-121.2971491,"elevationM":746},{"id":"node:358807868","kind":"peak","name":"Burnett Peak","lat":35.756357,"lon":-121.1601973,"elevationM":919},{"id":"node:358807922","kind":"peak","name":"Chalk Peak","lat":35.9885738,"lon":-121.4268783,"elevationM":1070},{"id":"node:358807966","kind":"peak","name":"Crystal Knob","lat":35.8099678,"lon":-121.1640866,"elevationM":751},{"id":"node:358808007","kind":"peak","name":"Eagle Rock","lat":35.6667167,"lon":-121.0073775,"elevationM":408},{"id":"node:358808180","kind":"peak","name":"Jones Mountain","lat":35.8066344,"lon":-121.254925,"elevationM":825},{"id":"node:358808270","kind":"peak","name":"Lone Tree Hill","lat":35.6858024,"lon":-121.1779753,"elevationM":443},{"id":"node:358808400","kind":"peak","name":"Oak Knoll","lat":35.6646915,"lon":-121.2396451,"elevationM":124},{"id":"node:358808513","kind":"peak","name":"Pebblestone Shut-in","lat":35.7457064,"lon":-121.0397744,"elevationM":257},{"id":"node:358808525","kind":"peak","name":"Piedras Blancas","lat":35.6647403,"lon":-121.2889963,"elevationM":2},{"id":"node:358808676","kind":"peak","name":"Salmon Cone","lat":35.8107632,"lon":-121.3651936,"elevationM":119},{"id":"node:358808815","kind":"peak","name":"The Cantinas","lat":35.765524,"lon":-121.0110223,"elevationM":295},{"id":"node:358808889","kind":"peak","name":"Williams Hill","lat":35.9516376,"lon":-121.0015801,"elevationM":846},{"id":"node:358816425","kind":"peak","name":"Porta Suela","lat":35.5033058,"lon":-121.0307438,"elevationM":185},{"id":"node:549656546","kind":"peak","name":"Burro Mtn","lat":35.869967,"lon":-121.273537,"elevationM":null},{"id":"node:549656847","kind":"peak","name":"Quail Top","lat":35.8908,"lon":-121.11325,"elevationM":null},{"id":"node:2144953844","kind":"peak","name":"Soda 2","lat":35.8358739,"lon":-121.3714964,"elevationM":874},{"id":"node:2197209050","kind":"peak","name":"Pine Slope","lat":35.7458944,"lon":-121.2804266,"elevationM":null},{"id":"node:9547826603","kind":"peak","name":"Slick Rock Peak","lat":35.9808879,"lon":-121.3848595,"elevationM":1126}]}