{"tileKey":"la_p37_lo_p25","version":"v1-1775891056926","entries":[{"id":"node:26864080","kind":"peak","name":"Προφήτης Ηλίας","lat":37.0464659,"lon":25.1793609,"elevationM":776},{"id":"node:26864087","kind":"peak","name":"Τσικνιάς","lat":37.5817598,"lon":25.226361,"elevationM":727},{"id":"node:26864150","kind":"peak","name":"Ζας (ή Ζεύς)","lat":37.0304201,"lon":25.5022993,"elevationM":1001},{"id":"node:288036682","kind":"peak","name":"Φανάρι","lat":37.0762459,"lon":25.5122321,"elevationM":843},{"id":"node:2348186834","kind":"peak","name":"Κύνθος","lat":37.3947876,"lon":25.2736198,"elevationM":112},{"id":"node:2962223641","kind":"peak","name":"Χυλόκαστρο","lat":37.1080123,"lon":25.40336,"elevationM":336},{"id":"node:3076035920","kind":"peak","name":"Προφήτης Ηλίας Ανωμερίτης","lat":37.4570702,"lon":25.4442058,"elevationM":341},{"id":"node:4475493462","kind":"peak","name":"Κέφαλος","lat":37.0466817,"lon":25.2591637,"elevationM":173},{"id":"node:4477353978","kind":"peak","name":"Αντικέφαλος","lat":37.0638878,"lon":25.2713367,"elevationM":134},{"id":"node:6695677702","kind":"peak","name":"Πάπα","lat":37.1149353,"lon":25.8151118,"elevationM":394},{"id":"node:7505266789","kind":"peak","name":"Μαυροβούνι","lat":37.1270568,"lon":25.5194012,"elevationM":999},{"id":"node:7505266790","kind":"peak","name":"Καδής","lat":37.105891,"lon":25.5075136,"elevationM":665},{"id":"node:7505266791","kind":"peak","name":"Κόρωνος","lat":37.1241997,"lon":25.4963986,"elevationM":867},{"id":"node:7505266792","kind":"peak","name":"Κόρωνος","lat":37.1266804,"lon":25.5032865,"elevationM":989},{"id":"node:7505266793","kind":"peak","name":"Παστελάς","lat":37.0952973,"lon":25.5217401,"elevationM":871},{"id":"node:7505266794","kind":"peak","name":"Μπιτσά","lat":37.1050739,"lon":25.5608681,"elevationM":590},{"id":"node:7505266795","kind":"peak","name":"Καλόγηρος","lat":37.1672803,"lon":25.5558792,"elevationM":357},{"id":"node:7505282270","kind":"peak","name":"Μαντζημάνης","lat":37.0260855,"lon":25.5234996,"elevationM":591},{"id":"node:7505282271","kind":"peak","name":"Λεπρού","lat":37.007479,"lon":25.5190364,"elevationM":523},{"id":"node:7505282272","kind":"peak","name":"Στρωτή","lat":37.0135275,"lon":25.5386273,"elevationM":506},{"id":"node:7505358115","kind":"peak","name":"Ροπική","lat":37.0482369,"lon":25.5458156,"elevationM":608},{"id":"node:7955983769","kind":"peak","name":"Εξώμβουργο","lat":37.5775373,"lon":25.1678582,"elevationM":641},{"id":"node:9309079106","kind":"peak","name":"Γκαμήλα","lat":37.4075841,"lon":25.2699031,"elevationM":16},{"id":"node:10815940677","kind":"peak","name":"Κορακιά","lat":37.1091508,"lon":25.4407216,"elevationM":294},{"id":"node:10818955045","kind":"peak","name":"Αναθεματίστρα","lat":37.1674656,"lon":25.5217395,"elevationM":778},{"id":"node:10819042440","kind":"peak","name":"Κορφή Ξύδη","lat":37.1167605,"lon":25.406473,"elevationM":206},{"id":"node:10923517984","kind":"peak","name":"Κοκιμάς","lat":37.0648184,"lon":25.4219085,"elevationM":256},{"id":"node:10923536883","kind":"peak","name":"Καντήλι","lat":37.1316422,"lon":25.4174916,"elevationM":120},{"id":"node:10939283549","kind":"peak","name":"Βουρλάς","lat":37.1012851,"lon":25.4689214,"elevationM":483},{"id":"node:10939283600","kind":"peak","name":"Σκάφη","lat":37.0884111,"lon":25.4917819,"elevationM":610},{"id":"node:10948847735","kind":"peak","name":"Στρόγγυλος","lat":37.0051629,"lon":25.4056961,"elevationM":134},{"id":"node:10948854561","kind":"peak","name":"Αη Λιάς","lat":37.0374101,"lon":25.4579712,"elevationM":543},{"id":"node:10948854563","kind":"peak","name":"Ξεράς","lat":37.0222638,"lon":25.4689317,"elevationM":534}]}