{"tileKey":"la_p32_lo_m100","version":"v1-1775891056926","entries":[{"id":"node:356698775","kind":"peak","name":"Antelope Hills","lat":32.9312223,"lon":-99.388692,"elevationM":525},{"id":"node:356699387","kind":"peak","name":"Bald Eagle Mountain","lat":32.1656913,"lon":-99.8017536,"elevationM":693},{"id":"node:356699393","kind":"peak","name":"Bald Knob","lat":32.0215323,"lon":-99.7828614,"elevationM":700},{"id":"node:356700934","kind":"peak","name":"Brown Mountain","lat":32.5923465,"lon":-99.0159034,"elevationM":431},{"id":"node:356701285","kind":"peak","name":"Buzzard Mountain","lat":32.3609599,"lon":-99.9595382,"elevationM":721},{"id":"node:356701642","kind":"peak","name":"Castle Peak","lat":32.366515,"lon":-99.9995393,"elevationM":662},{"id":"node:356701652","kind":"peak","name":"Cat Heads","lat":32.3406829,"lon":-99.9639825,"elevationM":686},{"id":"node:356701960","kind":"peak","name":"Chandlers Peak","lat":32.0206985,"lon":-99.7098022,"elevationM":650},{"id":"node:356703214","kind":"peak","name":"Coyote Peak","lat":32.1281951,"lon":-99.0314513,"elevationM":571},{"id":"node:356704822","kind":"peak","name":"Double Gap Mountain","lat":32.1376371,"lon":-99.8306431,"elevationM":681},{"id":"node:356704991","kind":"peak","name":"Eagle Mountain","lat":32.2734637,"lon":-99.5573008,"elevationM":670},{"id":"node:356705039","kind":"peak","name":"East Caddo Peak","lat":32.1584696,"lon":-99.2256221,"elevationM":616},{"id":"node:356705069","kind":"peak","name":"East Peak","lat":32.372626,"lon":-99.9795388,"elevationM":699},{"id":"node:356705828","kind":"peak","name":"Flat Top","lat":32.6428998,"lon":-99.1372958,"elevationM":435},{"id":"node:356705830","kind":"peak","name":"Flat Top","lat":32.8540046,"lon":-99.0956289,"elevationM":420},{"id":"node:356705840","kind":"peak","name":"Flattop","lat":32.5101246,"lon":-99.5173059,"elevationM":618},{"id":"node:356706950","kind":"peak","name":"Gray Mountain","lat":32.5717916,"lon":-99.0056252,"elevationM":435},{"id":"node:356707137","kind":"peak","name":"Greer Mountains","lat":32.6162331,"lon":-99.2400762,"elevationM":456},{"id":"node:356708011","kind":"peak","name":"High Lonesome Mountain","lat":32.172913,"lon":-99.8167542,"elevationM":674},{"id":"node:356708684","kind":"peak","name":"Indian Knoll","lat":32.5601247,"lon":-99.0870162,"elevationM":450},{"id":"node:356708688","kind":"peak","name":"Indian Mountain","lat":32.2212435,"lon":-99.8778679,"elevationM":696},{"id":"node:356708907","kind":"peak","name":"Jim Ned Peak","lat":32.0276422,"lon":-99.6859124,"elevationM":640},{"id":"node:356711044","kind":"peak","name":"McCathrine Mountain","lat":32.6526213,"lon":-99.2000754,"elevationM":424},{"id":"node:356711249","kind":"peak","name":"Mexican Hat Hill","lat":32.2198568,"lon":-99.146178,"elevationM":612},{"id":"node:356711681","kind":"peak","name":"Moro Mountain","lat":32.0570857,"lon":-99.8720326,"elevationM":700},{"id":"node:356720358","kind":"peak","name":"Round Hill","lat":32.8126156,"lon":-99.2839672,"elevationM":455},{"id":"node:356720412","kind":"peak","name":"Round Top Mountain","lat":32.3281834,"lon":-99.9448152,"elevationM":715},{"id":"node:356720413","kind":"peak","name":"Round Top Mountain","lat":32.6115118,"lon":-99.1292399,"elevationM":418},{"id":"node:356724771","kind":"peak","name":"Steamboat Mountain","lat":32.1693017,"lon":-99.9375916,"elevationM":683},{"id":"node:356725320","kind":"peak","name":"Table Mountain","lat":32.0243099,"lon":-99.8231411,"elevationM":688},{"id":"node:356725482","kind":"peak","name":"Tecumseh Peak","lat":32.150691,"lon":-99.5825767,"elevationM":649},{"id":"node:356727188","kind":"peak","name":"West Caddo Peak","lat":32.1731909,"lon":-99.2764568,"elevationM":628},{"id":"node:356750218","kind":"peak","name":"Mugginsville Mountain","lat":32.6020676,"lon":-99.1325732,"elevationM":431}]}