{"tileKey":"la_p36_lo_m77","version":"v1-1775891056926","entries":[{"id":"node:356570111","kind":"peak","name":"Mount Trashmore","lat":36.8309628,"lon":-76.1242529,"elevationM":18},{"id":"node:356581694","kind":"peak","name":"Baines Hill","lat":36.5754298,"lon":-76.6018959,"elevationM":20},{"id":"node:356581928","kind":"peak","name":"Knob Hill","lat":36.7943159,"lon":-76.5674508,"elevationM":8},{"id":"node:356582175","kind":"peak","name":"White Hill","lat":36.9012586,"lon":-76.025487,"elevationM":10},{"id":"node:356586948","kind":"peak","name":"Round Hill","lat":36.8462612,"lon":-76.928294,"elevationM":14},{"id":"node:4069965821","kind":"peak","name":"Encore Hill","lat":36.8292918,"lon":-76.1203988,"elevationM":null}]}