{"tileKey":"la_p37_lo_p113","version":"v1-1775891056926","entries":[{"id":"node:5268468519","kind":"peak","name":"王明垴","lat":37.9438014,"lon":113.8907785,"elevationM":null},{"id":"node:7747895735","kind":"peak","name":"焦山寨","lat":37.354616,"lon":113.365404,"elevationM":1764},{"id":"node:7747895736","kind":"peak","name":"阳曲山","lat":37.2043294,"lon":113.6445683,"elevationM":2058},{"id":"node:7747895737","kind":"peak","name":"北万山","lat":37.4245879,"lon":113.1749511,"elevationM":1827},{"id":"node:7825097520","kind":"peak","name":"牛群垴","lat":37.3293802,"lon":113.941651,"elevationM":1398},{"id":"node:7825110305","kind":"peak","name":"沧眼山","lat":37.3141697,"lon":113.9573573,"elevationM":1237},{"id":"node:7825111191","kind":"peak","name":"小牛群垴","lat":37.3341026,"lon":113.9280096,"elevationM":1215},{"id":"node:8060800954","kind":"peak","name":"石佛垴","lat":37.3944028,"lon":113.5992551,"elevationM":null},{"id":"node:8060800955","kind":"peak","name":"西岭山","lat":37.410528,"lon":113.5900283,"elevationM":null},{"id":"node:8060810020","kind":"peak","name":"南将军","lat":37.3696456,"lon":113.5578203,"elevationM":null},{"id":"node:8060810021","kind":"peak","name":"松树垴","lat":37.3682131,"lon":113.538444,"elevationM":null},{"id":"node:12069240706","kind":"peak","name":"馒头山","lat":37.6506997,"lon":113.5306897,"elevationM":1415},{"id":"node:12069240803","kind":"peak","name":"高垴山","lat":37.5946315,"lon":113.4801225,"elevationM":1631},{"id":"node:12966601845","kind":"peak","name":"凤凰山","lat":37.6400242,"lon":113.7101417,"elevationM":988},{"id":"node:12969558144","kind":"peak","name":"大垴梁","lat":37.4774295,"lon":113.3553779,"elevationM":1694},{"id":"node:12969596404","kind":"peak","name":"老庙山","lat":37.5486774,"lon":113.4515834,"elevationM":1699},{"id":"node:12969615263","kind":"peak","name":"马道岭","lat":37.6706034,"lon":113.5416143,"elevationM":1337},{"id":"node:12976463537","kind":"peak","name":"蒙山","lat":37.591784,"lon":113.7785795,"elevationM":1327},{"id":"node:12976463538","kind":"peak","name":"虎头山","lat":37.5610891,"lon":113.7298948,"elevationM":1159},{"id":"node:12993633101","kind":"peak","name":"白羊山","lat":37.3930091,"lon":113.9243174,"elevationM":1884},{"id":"node:12993633102","kind":"peak","name":"库城西垴","lat":37.407622,"lon":113.8656467,"elevationM":1485},{"id":"node:13013111851","kind":"peak","name":"三县垴","lat":37.3952722,"lon":113.0361628,"elevationM":1740},{"id":"node:13041062296","kind":"peak","name":"绵山","lat":37.9495361,"lon":113.8838187,"elevationM":null},{"id":"node:13051575095","kind":"peak","name":"西虎头山","lat":37.5473377,"lon":113.7267351,"elevationM":null},{"id":"node:13266317182","kind":"peak","name":"狮脑山","lat":37.8510644,"lon":113.5261677,"elevationM":1160},{"id":"node:13269551999","kind":"peak","name":"翠枫山","lat":37.7748609,"lon":113.4372694,"elevationM":1420},{"id":"node:13563945379","kind":"peak","name":"东虎头山","lat":37.5483755,"lon":113.7332475,"elevationM":null},{"id":"node:13716500456","kind":"peak","name":"南山","lat":37.8540287,"lon":113.5749409,"elevationM":null},{"id":"node:13722294038","kind":"peak","name":"王母垴山","lat":37.8559909,"lon":113.6073339,"elevationM":null}]}