{"tileKey":"la_p23_lo_m105","version":"v1-1775891056926","entries":[{"id":"node:3028947653","kind":"peak","name":"La Calera","lat":23.8806595,"lon":-104.6290295,"elevationM":2130},{"id":"node:3028947658","kind":"peak","name":"El Chiquihuitillo","lat":23.9019481,"lon":-104.5909389,"elevationM":1970},{"id":"node:3028950246","kind":"peak","name":"El Encinal","lat":23.9024778,"lon":-104.6296475,"elevationM":2080},{"id":"node:3028950247","kind":"peak","name":"El Alguacil","lat":23.9239375,"lon":-104.6256392,"elevationM":2010},{"id":"node:3028950249","kind":"peak","name":"La Sangregada","lat":23.9173862,"lon":-104.5820372,"elevationM":1930},{"id":"node:3033894808","kind":"peak","name":"El Peyote","lat":23.2770284,"lon":-104.5047394,"elevationM":2080},{"id":"node:3033900603","kind":"peak","name":"Cerro Gordo","lat":23.2043174,"lon":-104.9453667,"elevationM":3355},{"id":"node:5418568207","kind":"peak","name":"El Tunal","lat":23.950139,"lon":-104.7503445,"elevationM":2200},{"id":"node:5418569821","kind":"peak","name":"San José","lat":23.9288014,"lon":-104.7376416,"elevationM":2220},{"id":"node:5418569836","kind":"peak","name":"El Orégano","lat":23.837879,"lon":-104.5169344,"elevationM":2160},{"id":"node:5418569848","kind":"peak","name":"Los Lobos","lat":23.8190768,"lon":-104.4682684,"elevationM":2080},{"id":"node:5418569863","kind":"peak","name":"Los Pinos","lat":23.8103215,"lon":-104.4900265,"elevationM":2130},{"id":"node:5418569875","kind":"peak","name":"El Fretón","lat":23.8327758,"lon":-104.5053902,"elevationM":2069},{"id":"node:5418621740","kind":"peak","name":"El Clavo","lat":23.9532139,"lon":-104.3552809,"elevationM":2050}]}