{"tileKey":"la_p8_lo_p125","version":"v1-1775891056926","entries":[{"id":"node:319588308","kind":"volcano","name":"Mount Calabugao","lat":8.570347,"lon":125.1179444,"elevationM":1864},{"id":"node:332018870","kind":"peak","name":"Mount Ananaso","lat":8.383333,"lon":125.1,"elevationM":null},{"id":"node:332018885","kind":"peak","name":"Mount Mapa","lat":8.783333,"lon":125.116667,"elevationM":null},{"id":"node:332018921","kind":"peak","name":"Mount Baclasan","lat":8.2129764,"lon":125.0969423,"elevationM":null},{"id":"node:332018928","kind":"peak","name":"Mount Takihaopay","lat":8.2731194,"lon":125.0799641,"elevationM":null},{"id":"node:332018931","kind":"peak","name":"Mount Calauhan","lat":8.4112721,"lon":125.421561,"elevationM":740},{"id":"node:332018985","kind":"peak","name":"Mount Tauaua","lat":8.516667,"lon":125.8,"elevationM":null},{"id":"node:332018986","kind":"peak","name":"Mount Pamalihi","lat":8.6275247,"lon":125.0609054,"elevationM":null},{"id":"node:332019011","kind":"peak","name":"Mount Lanumbaan","lat":8.616667,"lon":125.75,"elevationM":null},{"id":"node:332019013","kind":"peak","name":"Mount Indocay","lat":8.793333,"lon":125.306944,"elevationM":1243},{"id":"node:332019472","kind":"peak","name":"Mount Amaloi","lat":8.533333,"lon":125.233333,"elevationM":null},{"id":"node:332019490","kind":"peak","name":"Mount Baliagan","lat":8.355902,"lon":125.2956334,"elevationM":1440},{"id":"node:332019539","kind":"peak","name":"Mount Tinalungan","lat":8.833333,"lon":125,"elevationM":null},{"id":"node:332019551","kind":"peak","name":"Mount Sinalago","lat":8.783333,"lon":125.066667,"elevationM":null},{"id":"node:332019620","kind":"peak","name":"Mount Sabrang","lat":8.616614,"lon":125.0809727,"elevationM":2130},{"id":"node:332019722","kind":"peak","name":"Mount Mangabon","lat":8.5993056,"lon":125.0978929,"elevationM":2510},{"id":"node:332019796","kind":"peak","name":"Mount Salibugnug","lat":8.2647625,"lon":125.4811993,"elevationM":1316},{"id":"node:332019804","kind":"peak","name":"Mount Pagalongan","lat":8.283333,"lon":125.15,"elevationM":null},{"id":"node:332019828","kind":"peak","name":"Mount Kalindauagan","lat":8.083333,"lon":125.033333,"elevationM":null},{"id":"node:332019998","kind":"peak","name":"Mount Saga","lat":8.3913274,"lon":125.4223728,"elevationM":640},{"id":"node:332020049","kind":"peak","name":"Mount Sumagaya","lat":8.6598847,"lon":125.0361511,"elevationM":2290},{"id":"node:332020055","kind":"peak","name":"Mount Tago","lat":8.396111,"lon":125.075278,"elevationM":2094},{"id":"node:332020164","kind":"peak","name":"Mount Datu Masuyapa","lat":8.2356898,"lon":125.417209,"elevationM":1620},{"id":"node:332020170","kind":"peak","name":"Mount Pinalturan","lat":8.083333,"lon":125.183333,"elevationM":null},{"id":"node:332020735","kind":"peak","name":"Mount Kinabalian","lat":8.2069178,"lon":125.4353076,"elevationM":1332},{"id":"node:332020824","kind":"peak","name":"Mount Gabongabon","lat":8.65,"lon":125.783333,"elevationM":null},{"id":"node:332020920","kind":"peak","name":"Mount Managua","lat":8.766667,"lon":125.2,"elevationM":null},{"id":"node:332020953","kind":"peak","name":"Mount Maranlangit","lat":8.816667,"lon":125,"elevationM":null},{"id":"node:332020963","kind":"peak","name":"Mount Timuyug","lat":8.5475738,"lon":125.4058306,"elevationM":355},{"id":"node:332021173","kind":"peak","name":"Mount Kimangkil","lat":8.606671,"lon":125.1750331,"elevationM":null},{"id":"node:332021345","kind":"peak","name":"Mount Bahaon","lat":8.249131,"lon":125.3364047,"elevationM":1185},{"id":"node:332021356","kind":"peak","name":"Mount Aragatan","lat":8.766667,"lon":125.05,"elevationM":null},{"id":"node:332021370","kind":"peak","name":"Angilut Peak","lat":8.5,"lon":125.4,"elevationM":null},{"id":"node:332021451","kind":"peak","name":"Mount Kapantao","lat":8.733333,"lon":125.266667,"elevationM":null},{"id":"node:332021456","kind":"peak","name":"Mount Gitangilang","lat":8.470556,"lon":125.263611,"elevationM":1282},{"id":"node:332021512","kind":"peak","name":"Mount Kaluayan","lat":8.683333,"lon":125.166667,"elevationM":null},{"id":"node:332021515","kind":"peak","name":"Mount Mayapay","lat":8.878333,"lon":125.4675,"elevationM":675},{"id":"node:332021635","kind":"peak","name":"Mount Piglagahan","lat":8.853889,"lon":125.227778,"elevationM":809},{"id":"node:332021660","kind":"peak","name":"Mount Calasugon","lat":8.2330888,"lon":125.1207976,"elevationM":null},{"id":"node:332021671","kind":"peak","name":"Mount Taguimot","lat":8.45,"lon":125.266667,"elevationM":null},{"id":"node:332021732","kind":"peak","name":"Mount Soldab","lat":8.333333,"lon":125.116667,"elevationM":null},{"id":"node:3911535406","kind":"peak","name":"Mount Capistrano","lat":8.0105616,"lon":125.1772354,"elevationM":750},{"id":"node:6036137270","kind":"peak","name":"Panimahawa Ridge","lat":8.2778228,"lon":125.0419652,"elevationM":840},{"id":"node:6036137311","kind":"peak","name":"Kaanibungan Ridge","lat":8.2719947,"lon":125.0570766,"elevationM":760},{"id":"node:6036252476","kind":"peak","name":"Agupalon Ridge","lat":8.2755066,"lon":125.0520154,"elevationM":720},{"id":"node:6315576149","kind":"peak","name":"Two Trees","lat":8.1551494,"lon":125.1444496,"elevationM":740},{"id":"node:6324600942","kind":"peak","name":"Mount Magdiwata","lat":8.4778346,"lon":125.9874664,"elevationM":560},{"id":"node:6502336691","kind":"peak","name":"Mount Kibuwa","lat":8.2593918,"lon":125.0545862,"elevationM":1150},{"id":"node:6711326551","kind":"peak","name":"Ginawahan Ridge","lat":8.3055992,"lon":125.052596,"elevationM":650},{"id":"node:6711359183","kind":"peak","name":"Kapayawan Ridge","lat":8.2792433,"lon":125.0483367,"elevationM":670},{"id":"node:6782247748","kind":"peak","name":"Engkalumad Ridge","lat":8.3078326,"lon":125.036877,"elevationM":570},{"id":"node:8972261245","kind":"peak","name":"Mount Kiamo","lat":8.2600659,"lon":125.1453762,"elevationM":1823},{"id":"node:9584398624","kind":"peak","name":"Mount Lumot","lat":8.6688408,"lon":125.0450456,"elevationM":2110},{"id":"node:9669827253","kind":"peak","name":"Mount Kulago","lat":8.3219944,"lon":125.0491896,"elevationM":950},{"id":"node:11936645969","kind":"peak","name":"Mount Tralala","lat":8.1418112,"lon":125.1399818,"elevationM":720}]}