{"tileKey":"la_p13_lo_p27","version":"v1-1775891056926","entries":[{"id":"node:7731289253","kind":"peak","name":"Jabal Adashir","lat":13.69359,"lon":27.4589481,"elevationM":781},{"id":"node:7731289352","kind":"peak","name":"Jabal Zughma","lat":13.05,"lon":27.45,"elevationM":null},{"id":"node:7731289355","kind":"peak","name":"Jabal Zarqā’","lat":13.6176669,"lon":27.7973781,"elevationM":null},{"id":"node:7731289356","kind":"peak","name":"Jabal Sarj","lat":13.7193384,"lon":27.8646513,"elevationM":877},{"id":"node:7731289357","kind":"peak","name":"Jabal Zankor","lat":13.8565069,"lon":27.9592661,"elevationM":null},{"id":"node:7731289359","kind":"peak","name":"Quraynat an Nimr","lat":13.7821796,"lon":27.9917661,"elevationM":null},{"id":"node:7731289360","kind":"peak","name":"Jabal Umm Dabākir","lat":13.368195,"lon":27.9767071,"elevationM":756},{"id":"node:7731289361","kind":"peak","name":"Jabal Surayjāt","lat":13.966667,"lon":27.5,"elevationM":null},{"id":"node:7731289363","kind":"peak","name":"Jabal ash Shāmī","lat":13.4395577,"lon":27.6020601,"elevationM":null},{"id":"node:7731289367","kind":"peak","name":"Jabal Barkin","lat":13.7685414,"lon":27.8946859,"elevationM":null},{"id":"node:7731291187","kind":"peak","name":"Jabal Taytal","lat":13.266667,"lon":27.3,"elevationM":null},{"id":"node:7731291612","kind":"peak","name":"Jabal Dufun","lat":13.7851385,"lon":27.2073078,"elevationM":null},{"id":"node:7731291613","kind":"peak","name":"Jabal Tobei","lat":13.5450956,"lon":27.102425,"elevationM":771},{"id":"node:7731291658","kind":"peak","name":"Jabal al Kabsh","lat":13.2020059,"lon":27.2466922,"elevationM":681},{"id":"node:7731291686","kind":"peak","name":"Jabal Satiya","lat":13.1508263,"lon":27.0749147,"elevationM":null},{"id":"node:7731311969","kind":"peak","name":"Jabal Muqsam","lat":13.6366325,"lon":27.6971617,"elevationM":931},{"id":"node:9680586382","kind":"peak","name":"Jebel Rainab Rauweiyana","lat":13.9731934,"lon":27.792829,"elevationM":null},{"id":"node:9680586393","kind":"peak","name":"Zainab 'Atshan","lat":13.9319589,"lon":27.7807225,"elevationM":null},{"id":"node:9680586429","kind":"peak","name":"Jebel Higeiwa","lat":13.8671076,"lon":27.7342014,"elevationM":null},{"id":"node:9680586430","kind":"peak","name":"Jebel Umm Luyunah","lat":13.7773372,"lon":27.7062199,"elevationM":null},{"id":"node:10033965974","kind":"peak","name":"Jebel Tarenka","lat":13.7037258,"lon":27.8695174,"elevationM":null},{"id":"node:10033965975","kind":"peak","name":"Jebel Bakhit","lat":13.6967147,"lon":27.8602295,"elevationM":null},{"id":"node:10033965976","kind":"peak","name":"Jebel Balila / Musa","lat":13.6786211,"lon":27.8455436,"elevationM":null},{"id":"node:10033965977","kind":"peak","name":"Jebel Tasin","lat":13.6313595,"lon":27.7735911,"elevationM":null},{"id":"node:10033966309","kind":"peak","name":"Jebel Umm Hosh","lat":13.6949729,"lon":27.7402689,"elevationM":null},{"id":"node:10034226159","kind":"peak","name":"Jebel Ummat Arifa","lat":13.9034915,"lon":27.9698445,"elevationM":null},{"id":"node:10034226161","kind":"peak","name":"Jebel Umm Qoz","lat":13.8693165,"lon":27.9230633,"elevationM":null},{"id":"node:10034226163","kind":"peak","name":"Jebel Khazanna","lat":13.8542187,"lon":27.9019798,"elevationM":null},{"id":"node:10034226166","kind":"peak","name":"Jebel Qureinat","lat":13.8403693,"lon":27.8645186,"elevationM":null},{"id":"node:10034226167","kind":"peak","name":"Jebel Abu Qurein","lat":13.8170724,"lon":27.9086666,"elevationM":null},{"id":"node:10034226168","kind":"peak","name":"Jebel In","lat":13.7414762,"lon":27.8785208,"elevationM":null},{"id":"node:10034226169","kind":"peak","name":"Qureinat Sa'id","lat":13.7816983,"lon":27.8846801,"elevationM":null},{"id":"node:10034226170","kind":"peak","name":"Jebel Bureisa","lat":13.7941393,"lon":27.9387024,"elevationM":null},{"id":"node:10037461816","kind":"peak","name":"Jebel Radada","lat":13.9734526,"lon":27.9574629,"elevationM":null},{"id":"node:10037461817","kind":"peak","name":"Jebel Tamam","lat":13.9819319,"lon":27.9695103,"elevationM":null},{"id":"node:10037461818","kind":"peak","name":"Jebel el Bukhat","lat":13.9549717,"lon":27.8492667,"elevationM":null},{"id":"node:10037461819","kind":"peak","name":"Jebel Tebeldi Bidi","lat":13.9495086,"lon":27.8547446,"elevationM":null},{"id":"node:10037461820","kind":"peak","name":"Jebel Gemain","lat":13.9758635,"lon":27.8734487,"elevationM":null},{"id":"node:10037461931","kind":"peak","name":"Jebel Umm Shugeira","lat":13.8140392,"lon":27.7758343,"elevationM":null},{"id":"node:10037461932","kind":"peak","name":"Jebel el Barma","lat":13.8911002,"lon":27.7023408,"elevationM":null},{"id":"node:10042639776","kind":"peak","name":"Jebel Darasani","lat":13.9115195,"lon":27.6578815,"elevationM":null},{"id":"node:10042639777","kind":"peak","name":"Jebel Sukunja Kebir","lat":13.8764096,"lon":27.5918379,"elevationM":null},{"id":"node:10042639779","kind":"peak","name":"Jebel Sukunja Sughaiyir","lat":13.8385737,"lon":27.5386026,"elevationM":null},{"id":"node:10042644202","kind":"peak","name":"Sureigat","lat":13.970088,"lon":27.4614847,"elevationM":null},{"id":"node:10043254703","kind":"peak","name":"Jebel Gadum","lat":13.5005966,"lon":27.1095893,"elevationM":null},{"id":"node:10043254704","kind":"peak","name":"Jebel Kursi","lat":13.4988165,"lon":27.129045,"elevationM":711},{"id":"node:10043254706","kind":"peak","name":"Arrafiya","lat":13.4797095,"lon":27.1781703,"elevationM":683},{"id":"node:10043254707","kind":"peak","name":"Jebel Abu Shok","lat":13.4898216,"lon":27.193444,"elevationM":null},{"id":"node:10043254760","kind":"peak","name":"Jebel Umm Sherru","lat":13.5502621,"lon":27.136215,"elevationM":null},{"id":"node:10045068808","kind":"peak","name":"Jebel Terragiya","lat":13.6304725,"lon":27.2884866,"elevationM":696},{"id":"node:10045075275","kind":"peak","name":"Jebel en Nimr","lat":13.5844991,"lon":27.1413811,"elevationM":null},{"id":"node:10045075588","kind":"peak","name":"Jebel Abu Mura","lat":13.5785904,"lon":27.0721877,"elevationM":null},{"id":"node:10045075798","kind":"peak","name":"Jebel Abu Ruba","lat":13.4815424,"lon":27.226064,"elevationM":713},{"id":"node:10051473889","kind":"peak","name":"Jebel el Hilla","lat":13.4406699,"lon":27.086171,"elevationM":750},{"id":"node:10051473890","kind":"peak","name":"Jebel Delinya","lat":13.4471172,"lon":27.1249126,"elevationM":664},{"id":"node:10054269749","kind":"peak","name":"Hugeir Wad Maryud","lat":13.7481876,"lon":27.4506598,"elevationM":null},{"id":"node:10054269750","kind":"peak","name":"Jebel el Ahmar","lat":13.7247657,"lon":27.4930271,"elevationM":null},{"id":"node:10054270004","kind":"peak","name":"Jebel Abu Salama","lat":13.4910905,"lon":27.3064323,"elevationM":null},{"id":"node:10061382697","kind":"peak","name":"Jebel es Sumayin","lat":13.2439327,"lon":27.094986,"elevationM":678},{"id":"node:10064410537","kind":"peak","name":"Jebel Umm Denasim","lat":13.2683828,"lon":27.1882724,"elevationM":null},{"id":"node:10064410636","kind":"peak","name":"Jebel Serreig","lat":13.1652025,"lon":27.2233786,"elevationM":null},{"id":"node:10064410715","kind":"peak","name":"Jebel Wad Reiwa","lat":13.2597783,"lon":27.1631358,"elevationM":null},{"id":"node:10068743724","kind":"peak","name":"Jebel Gelleb","lat":13.2796421,"lon":27.2184607,"elevationM":null},{"id":"node:10068743726","kind":"peak","name":"Jebel Teitel","lat":13.2756143,"lon":27.2653249,"elevationM":null},{"id":"node:10068743727","kind":"peak","name":"Jebel Umm Shanqa","lat":13.2535599,"lon":27.2419557,"elevationM":null},{"id":"node:10068743728","kind":"peak","name":"Jebel Teis Umm Bona","lat":13.1870296,"lon":27.3839732,"elevationM":null},{"id":"node:10068743730","kind":"peak","name":"Jebel Mineidra","lat":13.2106776,"lon":27.4916937,"elevationM":680},{"id":"node:10068743742","kind":"peak","name":"Jebel Humeid","lat":13.1652012,"lon":27.4029235,"elevationM":null},{"id":"node:10068977831","kind":"peak","name":"Jebel Zughma","lat":13.0759837,"lon":27.4226061,"elevationM":null},{"id":"node:10068977940","kind":"peak","name":"Jebel Kabsh Aweida","lat":13.1044371,"lon":27.5060014,"elevationM":null},{"id":"node:10079984214","kind":"peak","name":"Jebel Abu Humeira","lat":13.4488889,"lon":27.7861856,"elevationM":null},{"id":"node:10079984292","kind":"peak","name":"Jebel Abu Baliia","lat":13.4706119,"lon":27.6719862,"elevationM":null},{"id":"node:10079984482","kind":"peak","name":"Jebel Shirr","lat":13.4077285,"lon":27.9866784,"elevationM":null},{"id":"node:10079984484","kind":"peak","name":"Jebel Nur ed Din","lat":13.4527641,"lon":27.8923272,"elevationM":732},{"id":"node:10087300049","kind":"peak","name":"Jebel Abu Kantoga","lat":13.496456,"lon":27.8647579,"elevationM":null},{"id":"node:10087300119","kind":"peak","name":"Jebel el Ugheibish","lat":13.5841704,"lon":27.9548064,"elevationM":null},{"id":"node:10087300405","kind":"peak","name":"Jebel Angareb","lat":13.4636908,"lon":27.9899584,"elevationM":null},{"id":"node:10095833901","kind":"peak","name":"Jebel Madibbo (Zira')","lat":13.2266202,"lon":27.8322459,"elevationM":null},{"id":"node:10101506466","kind":"peak","name":"Jebel Gerawi","lat":13.429165,"lon":27.6316803,"elevationM":null},{"id":"node:10101506642","kind":"peak","name":"Jebel el Kabsh (Hamar)","lat":13.0941099,"lon":27.5060352,"elevationM":null},{"id":"node:10124213458","kind":"peak","name":"Qala'at el Bugr","lat":13.882622,"lon":27.7883592,"elevationM":null}]}