{"tileKey":"la_p29_lo_p104","version":"v1-1775891056926","entries":[{"id":"node:3538723234","kind":"peak","name":"富台山","lat":29.3490416,"lon":104.7637644,"elevationM":null},{"id":"node:4255622425","kind":"peak","name":"piao er shan","lat":29.0774849,"lon":104.4527775,"elevationM":null},{"id":"node:5281366154","kind":"peak","name":"黄岭","lat":29.1516563,"lon":104.9271411,"elevationM":null},{"id":"node:5281366155","kind":"peak","name":"神龟山","lat":29.1826642,"lon":104.9999183,"elevationM":null},{"id":"node:5281366158","kind":"peak","name":"十字岭","lat":29.1990837,"lon":104.9930707,"elevationM":null},{"id":"node:5283334296","kind":"peak","name":"钟秀山","lat":29.1858289,"lon":104.9956559,"elevationM":null},{"id":"node:5283334297","kind":"peak","name":"玛瑙山","lat":29.186895,"lon":104.9929532,"elevationM":null},{"id":"node:5283334298","kind":"peak","name":"招公山","lat":29.2037039,"lon":104.9913734,"elevationM":null},{"id":"node:5283334300","kind":"peak","name":"孝子山","lat":29.1714439,"lon":104.9639081,"elevationM":null},{"id":"node:5283334301","kind":"peak","name":"西山","lat":29.174659,"lon":104.977531,"elevationM":null},{"id":"node:5285316326","kind":"peak","name":"三多寨","lat":29.451806,"lon":104.8722737,"elevationM":null},{"id":"node:8265547242","kind":"peak","name":"马鞍山","lat":29.3719326,"lon":104.7578664,"elevationM":null},{"id":"node:8650616084","kind":"peak","name":"大安寨","lat":29.3639819,"lon":104.786613,"elevationM":null},{"id":"node:8650616085","kind":"peak","name":"久安寨","lat":29.3658866,"lon":104.7895084,"elevationM":null},{"id":"node:9113957838","kind":"peak","name":"兜子山","lat":29.0757509,"lon":104.9371877,"elevationM":null},{"id":"node:9314344909","kind":"peak","name":"保留山体","lat":29.3660585,"lon":104.8241317,"elevationM":null},{"id":"node:12346033630","kind":"peak","name":"五府山","lat":29.1860932,"lon":104.9985651,"elevationM":null},{"id":"node:12346033631","kind":"peak","name":"凌云山","lat":29.1819743,"lon":104.9936067,"elevationM":null},{"id":"node:12615361013","kind":"peak","name":"劝农山","lat":29.1678843,"lon":104.9762085,"elevationM":null},{"id":"node:12615361014","kind":"peak","name":"圣灯山","lat":29.1734359,"lon":104.9696814,"elevationM":null},{"id":"node:12751766350","kind":"peak","name":"几山","lat":29.1702309,"lon":104.9566115,"elevationM":null},{"id":"node:12751766351","kind":"peak","name":"朝阳山","lat":29.2030008,"lon":104.99793,"elevationM":null},{"id":"node:12771629161","kind":"peak","name":"牛峰山","lat":29.540005,"lon":104.2727539,"elevationM":null},{"id":"node:13049421771","kind":"peak","name":"重龙山","lat":29.7843944,"lon":104.8527447,"elevationM":null}]}