{"tileKey":"la_p49_lo_p32","version":"v1-1775891056926","entries":[{"id":"node:3730315633","kind":"peak","name":"Семидубова гора","lat":49.1279567,"lon":32.3733178,"elevationM":177},{"id":"node:3730700745","kind":"peak","name":"Шаєва гора","lat":49.2679622,"lon":32.107974,"elevationM":null},{"id":"node:3762208012","kind":"peak","name":"Жукова гора","lat":49.1280964,"lon":32.3485259,"elevationM":null},{"id":"node:3762317867","kind":"peak","name":"Погибельна гора","lat":49.1483069,"lon":32.3560884,"elevationM":null},{"id":"node:7297196830","kind":"peak","name":"Стрілиця","lat":49.1212413,"lon":32.378124,"elevationM":221},{"id":"node:9258315159","kind":"peak","name":"Курган","lat":49.1513735,"lon":32.7032999,"elevationM":102},{"id":"node:11977790134","kind":"peak","name":"Гора Шпиль","lat":49.0171794,"lon":32.9036786,"elevationM":null}]}