{"tileKey":"la_p52_lo_p106","version":"v1-1775891056926","entries":[{"id":"node:2702504296","kind":"peak","name":"Мишкина гора","lat":52.5426638,"lon":106.0468773,"elevationM":null},{"id":"node:5260471262","kind":"peak","name":"Малая Тондора","lat":52.7154991,"lon":106.5174293,"elevationM":null},{"id":"node:5260471541","kind":"peak","name":"Тондора","lat":52.7816729,"lon":106.6109053,"elevationM":685},{"id":"node:5260471726","kind":"peak","name":"Шебета","lat":52.7729665,"lon":106.5699576,"elevationM":null},{"id":"node:5260471727","kind":"peak","name":"Берхе-Цаган","lat":52.7485287,"lon":106.5665245,"elevationM":null},{"id":"node:7616121186","kind":"peak","name":"Тег-хан","lat":52.967559,"lon":106.8124166,"elevationM":null},{"id":"node:10802055063","kind":"peak","name":"Пик Бишаева","lat":52.7510655,"lon":106.5723034,"elevationM":200}]}