{"tileKey":"la_p49_lo_p8","version":"v1-1775891056926","entries":[{"id":"node:28200525","kind":"peak","name":"Königstuhl","lat":49.4026602,"lon":8.7297882,"elevationM":568},{"id":"node:249312129","kind":"peak","name":"Schloßberg","lat":49.6461172,"lon":8.6484967,"elevationM":295},{"id":"node:260984209","kind":"peak","name":"Petersberg","lat":49.7944994,"lon":8.204302,"elevationM":245},{"id":"node:264543913","kind":"peak","name":"Schlechtberg","lat":49.6656871,"lon":8.7240284,"elevationM":null},{"id":"node:269191390","kind":"peak","name":"Felsberg","lat":49.7299331,"lon":8.6844267,"elevationM":514},{"id":"node:270523163","kind":"peak","name":"Taubenkopf","lat":49.3220804,"lon":8.0886305,"elevationM":604},{"id":"node:271781767","kind":"peak","name":"Oberwaldberg","lat":49.9889289,"lon":8.5917966,"elevationM":145},{"id":"node:293574954","kind":"peak","name":"Michaelsberg","lat":49.0885267,"lon":8.565187,"elevationM":269},{"id":"node:295663182","kind":"peak","name":"Prinzenberg","lat":49.8369554,"lon":8.6655489,"elevationM":241},{"id":"node:295669089","kind":"peak","name":"Herrgottsberg","lat":49.8494121,"lon":8.6724688,"elevationM":227},{"id":"node:300894158","kind":"peak","name":"Kalmit","lat":49.3189243,"lon":8.0826193,"elevationM":674},{"id":"node:301057278","kind":"peak","name":"Gleichenberg","lat":49.0111636,"lon":8.8872557,"elevationM":379},{"id":"node:301412671","kind":"peak","name":"Stabenberg","lat":49.3944318,"lon":8.1364222,"elevationM":496},{"id":"node:302359475","kind":"peak","name":"Michaelsberg","lat":49.4578152,"lon":8.387337,"elevationM":125},{"id":"node:308066945","kind":"peak","name":"Letzenberg","lat":49.2511322,"lon":8.6779614,"elevationM":247},{"id":"node:309437436","kind":"peak","name":"Ölberg","lat":49.4674901,"lon":8.6803835,"elevationM":450},{"id":"node:313494884","kind":"peak","name":"Melibokus","lat":49.72496,"lon":8.6368924,"elevationM":517},{"id":"node:322607838","kind":"peak","name":"Schriesheimer Kopf","lat":49.4658903,"lon":8.7541091,"elevationM":529},{"id":"node:324741549","kind":"peak","name":"Wendenkopf","lat":49.4709458,"lon":8.7121902,"elevationM":360},{"id":"node:327014498","kind":"peak","name":"Heulenberg","lat":49.0032574,"lon":8.5521088,"elevationM":207},{"id":"node:327014502","kind":"peak","name":"Sonnenberg","lat":49.00653,"lon":8.5761715,"elevationM":254},{"id":"node:339892590","kind":"peak","name":"Zigeunerkopf","lat":49.6268522,"lon":8.711101,"elevationM":359},{"id":"node:340471922","kind":"peak","name":"Hemgesberg","lat":49.5862413,"lon":8.7511243,"elevationM":291},{"id":"node:343510641","kind":"peak","name":"Bismarkskopf","lat":49.6182006,"lon":8.7351519,"elevationM":264},{"id":"node:343629889","kind":"peak","name":"Geiersberg","lat":49.5326953,"lon":8.6834274,"elevationM":340},{"id":"node:345824696","kind":"peak","name":"Hundskopf","lat":49.5124355,"lon":8.6766645,"elevationM":283},{"id":"node:354710153","kind":"peak","name":"Eichelberg","lat":49.4992777,"lon":8.7443422,"elevationM":525},{"id":"node:364502749","kind":"peak","name":"Stiefelhöhe","lat":49.5222483,"lon":8.803833,"elevationM":589},{"id":"node:365450291","kind":"peak","name":"Hardberg","lat":49.5390829,"lon":8.8037441,"elevationM":593},{"id":"node:365631381","kind":"peak","name":"Daumberg","lat":49.5187509,"lon":8.7628259,"elevationM":462},{"id":"node:367075488","kind":"peak","name":"Zins","lat":49.4836867,"lon":8.6834358,"elevationM":398},{"id":"node:370046930","kind":"peak","name":"Steinberg","lat":49.4952608,"lon":8.7176385,"elevationM":null},{"id":"node:370068513","kind":"peak","name":"Heiligenberg","lat":49.6798839,"lon":8.6993234,"elevationM":496},{"id":"node:374241173","kind":"peak","name":"Hinterer Gleisberg","lat":49.3657005,"lon":8.0044766,"elevationM":null},{"id":"node:380470163","kind":"peak","name":"Endberg","lat":49.0074129,"lon":8.8986783,"elevationM":364},{"id":"node:385478868","kind":"peak","name":"Großes Köpfchen","lat":49.6156963,"lon":8.6971642,"elevationM":376},{"id":"node:391089329","kind":"peak","name":"Rahnfels","lat":49.4721179,"lon":8.096,"elevationM":502},{"id":"node:392693520","kind":"peak","name":"Ottilienberg","lat":49.1154876,"lon":8.9308171,"elevationM":310},{"id":"node:393965462","kind":"peak","name":"Schenkenberg","lat":49.6883406,"lon":8.785895,"elevationM":481},{"id":"node:393965463","kind":"peak","name":"Das Buch","lat":49.6969761,"lon":8.7786301,"elevationM":535},{"id":"node:393965464","kind":"peak","name":"Heidelberg","lat":49.683526,"lon":8.7976559,"elevationM":321},{"id":"node:393965465","kind":"peak","name":"Knabenberg","lat":49.6801247,"lon":8.7913116,"elevationM":327},{"id":"node:393965466","kind":"peak","name":"Großes Köpfchen","lat":49.6750902,"lon":8.8089171,"elevationM":316},{"id":"node:393965467","kind":"peak","name":"Stotz","lat":49.676271,"lon":8.8312879,"elevationM":476},{"id":"node:393965468","kind":"peak","name":"Kapp","lat":49.6755267,"lon":8.7803523,"elevationM":347},{"id":"node:394815113","kind":"peak","name":"Drachenfels","lat":49.4235882,"lon":8.0519955,"elevationM":571},{"id":"node:402809761","kind":"peak","name":"Tromm","lat":49.6044481,"lon":8.8027395,"elevationM":577},{"id":"node:412477294","kind":"peak","name":"Orensberg","lat":49.2440211,"lon":8.0274942,"elevationM":581},{"id":"node:413218133","kind":"peak","name":"Raupenstein","lat":49.711021,"lon":8.7714674,"elevationM":545},{"id":"node:413218137","kind":"peak","name":"Neunkircher Höhe","lat":49.7189143,"lon":8.7700976,"elevationM":605},{"id":"node:413218140","kind":"peak","name":"Krehberg","lat":49.6841137,"lon":8.7309041,"elevationM":575},{"id":"node:413633393","kind":"peak","name":"Knodener Kopf","lat":49.696672,"lon":8.7107441,"elevationM":511},{"id":"node:414203116","kind":"peak","name":"Heidenknörzel","lat":49.4270459,"lon":8.7212154,"elevationM":446},{"id":"node:418827671","kind":"peak","name":"Hohe Waid","lat":49.4918384,"lon":8.6901979,"elevationM":455},{"id":"node:418877183","kind":"peak","name":"Platte","lat":49.3053997,"lon":8.0385287,"elevationM":608},{"id":"node:418881829","kind":"peak","name":"Hochberg","lat":49.298742,"lon":8.0713484,"elevationM":635},{"id":"node:418891315","kind":"peak","name":"Schafkopf","lat":49.3120287,"lon":8.0488399,"elevationM":617},{"id":"node:418894287","kind":"peak","name":"Rotsohlberg","lat":49.3182062,"lon":8.0514018,"elevationM":607},{"id":"node:427581670","kind":"peak","name":"Kaisersberg","lat":49.0020694,"lon":8.6770571,"elevationM":273},{"id":"node:427581687","kind":"peak","name":"Hohberg","lat":49.0141893,"lon":8.5783648,"elevationM":249},{"id":"node:429810727","kind":"peak","name":"Kammerstein","lat":49.4155178,"lon":8.7899777,"elevationM":481},{"id":"node:434492204","kind":"peak","name":"Monte Scherbelino","lat":49.5276054,"lon":8.3734702,"elevationM":117},{"id":"node:440235157","kind":"peak","name":"Kloppberg","lat":49.7402016,"lon":8.2170123,"elevationM":293},{"id":"node:440830665","kind":"peak","name":"Hohes Bild","lat":49.0586439,"lon":8.5618524,"elevationM":254},{"id":"node:461159075","kind":"peak","name":"Vogelberg","lat":49.0539392,"lon":8.7212111,"elevationM":null},{"id":"node:477261206","kind":"peak","name":"Hoher Nistler","lat":49.44584,"lon":8.7075662,"elevationM":496},{"id":"node:477535342","kind":"peak","name":"Neckarriedkopf","lat":49.3863799,"lon":8.786918,"elevationM":294},{"id":"node:477545184","kind":"peak","name":"Lammerskopf","lat":49.4105654,"lon":8.7914079,"elevationM":480},{"id":"node:495447080","kind":"peak","name":"Nollenkopf","lat":49.3444318,"lon":8.1138806,"elevationM":490},{"id":"node:512618573","kind":"peak","name":"Stotz","lat":49.3143023,"lon":8.0823588,"elevationM":603},{"id":"node:512637446","kind":"peak","name":"Blättersberg","lat":49.2756128,"lon":8.0651314,"elevationM":618},{"id":"node:512644949","kind":"peak","name":"Teufelsberg","lat":49.2518702,"lon":8.0537523,"elevationM":598},{"id":"node:512652243","kind":"peak","name":"Roßberg","lat":49.2617672,"lon":8.0296587,"elevationM":637},{"id":"node:512662471","kind":"peak","name":"Kesselberg","lat":49.2845564,"lon":8.04474,"elevationM":662},{"id":"node:512669087","kind":"peak","name":"Steigerkopf","lat":49.2970815,"lon":8.0262259,"elevationM":613},{"id":"node:528983029","kind":"peak","name":"Kohlplatte","lat":49.6286822,"lon":8.6903816,"elevationM":345},{"id":"node:528983030","kind":"peak","name":"Salzkopf","lat":49.6361149,"lon":8.709319,"elevationM":391},{"id":"node:528983031","kind":"peak","name":"Taschengrube","lat":49.621253,"lon":8.7283744,"elevationM":297},{"id":"node:528983032","kind":"peak","name":"Silbergrubenkopf","lat":49.6564524,"lon":8.7057951,"elevationM":400},{"id":"node:528983033","kind":"peak","name":"Lindenstein","lat":49.6610035,"lon":8.6755741,"elevationM":455},{"id":"node:528993099","kind":"peak","name":"Hirschkopf","lat":49.5658792,"lon":8.6810817,"elevationM":346},{"id":"node:544100085","kind":"peak","name":"Zwerchberg","lat":49.327666,"lon":8.0823974,"elevationM":592},{"id":"node:544100091","kind":"peak","name":"Sternberg","lat":49.3348345,"lon":8.0789424,"elevationM":511},{"id":"node:544100093","kind":"peak","name":"Platte","lat":49.3402868,"lon":8.0602566,"elevationM":561},{"id":"node:544100097","kind":"peak","name":"Giebelstein","lat":49.3451872,"lon":8.0741946,"elevationM":402},{"id":"node:544100100","kind":"peak","name":"Hohberg","lat":49.3470895,"lon":8.0685298,"elevationM":null},{"id":"node:544100101","kind":"peak","name":"Königsberg","lat":49.3482015,"lon":8.0894488,"elevationM":427},{"id":"node:544100102","kind":"peak","name":"Königsberg","lat":49.3515614,"lon":8.1008257,"elevationM":421},{"id":"node:544100104","kind":"peak","name":"Stenzelberg","lat":49.364118,"lon":8.0982746,"elevationM":401},{"id":"node:550262356","kind":"peak","name":"Gemeindeberg","lat":49.5561528,"lon":8.1298702,"elevationM":337},{"id":"node:566674023","kind":"peak","name":"Hartenbühl","lat":49.4620984,"lon":8.7056169,"elevationM":473},{"id":"node:597417524","kind":"peak","name":"Elisabethenruhe","lat":49.7025801,"lon":8.7097406,"elevationM":null},{"id":"node:600109926","kind":"peak","name":"Hinterer Stoppelkopf","lat":49.3971331,"lon":8.073508,"elevationM":566},{"id":"node:600138777","kind":"peak","name":"Jennys Höhe","lat":49.7004249,"lon":8.721834,"elevationM":508},{"id":"node:602099989","kind":"peak","name":"Müllberg","lat":49.6056878,"lon":8.3926962,"elevationM":123},{"id":"node:608194989","kind":"peak","name":"Ochsenkopf","lat":49.4056932,"lon":8.8173047,"elevationM":416},{"id":"node:611151650","kind":"peak","name":"Eckkopf","lat":49.4162041,"lon":8.1389621,"elevationM":516},{"id":"node:655328527","kind":"peak","name":"Geiersberg","lat":49.5433729,"lon":8.72911,"elevationM":415},{"id":"node:662421338","kind":"peak","name":"Ulrichsberg","lat":49.6028978,"lon":8.7484045,"elevationM":null},{"id":"node:662421339","kind":"peak","name":"Wäschberg","lat":49.6112024,"lon":8.7500011,"elevationM":218},{"id":"node:670772538","kind":"peak","name":"Fahrenbacher Kopf","lat":49.6267001,"lon":8.804983,"elevationM":529},{"id":"node:671953740","kind":"peak","name":"Gaisberg","lat":49.4035191,"lon":8.7047078,"elevationM":376},{"id":"node:672138631","kind":"peak","name":"Hirschberg","lat":49.3340953,"lon":8.7115932,"elevationM":317},{"id":"node:672138635","kind":"peak","name":"Bammertsberg","lat":49.3674288,"lon":8.7824873,"elevationM":250},{"id":"node:672138638","kind":"peak","name":"Michelsberg","lat":49.4198621,"lon":8.7043293,"elevationM":376},{"id":"node:672138639","kind":"peak","name":"Heiligenberg","lat":49.4261495,"lon":8.706263,"elevationM":439},{"id":"node:672138640","kind":"peak","name":"Auerhahnenkopf","lat":49.4035105,"lon":8.7605887,"elevationM":487},{"id":"node:672138641","kind":"peak","name":"Apfelskopf","lat":49.4467404,"lon":8.7467641,"elevationM":449},{"id":"node:672138642","kind":"peak","name":"Dossenheimer Kopf","lat":49.4580313,"lon":8.7464236,"elevationM":539},{"id":"node:672138643","kind":"peak","name":"Hollmuth","lat":49.3754058,"lon":8.7951283,"elevationM":285},{"id":"node:677194126","kind":"peak","name":"Müllberg Speyer","lat":49.3388559,"lon":8.4559388,"elevationM":null},{"id":"node:717637162","kind":"peak","name":"Altkellerkopf","lat":49.0386856,"lon":8.8548147,"elevationM":386},{"id":"node:717637167","kind":"peak","name":"Mettenberg","lat":49.0201204,"lon":8.8779916,"elevationM":377},{"id":"node:717637172","kind":"peak","name":"Heukopf","lat":49.038074,"lon":8.9118563,"elevationM":404},{"id":"node:717637174","kind":"peak","name":"Hamberg","lat":49.0117221,"lon":8.9332359,"elevationM":387},{"id":"node:759237584","kind":"peak","name":"Hohberg","lat":49.6980033,"lon":8.686927,"elevationM":372},{"id":"node:767092476","kind":"peak","name":"Marienhöhe","lat":49.838892,"lon":8.6585862,"elevationM":220},{"id":"node:774110953","kind":"peak","name":"Dachsberg","lat":49.6885922,"lon":8.8459116,"elevationM":385},{"id":"node:800626543","kind":"peak","name":"Weißer Stein","lat":49.4530773,"lon":8.7229998,"elevationM":549},{"id":"node:828193631","kind":"peak","name":"Schauinsland-Höhe","lat":49.7790877,"lon":8.0434236,"elevationM":225},{"id":"node:828216102","kind":"peak","name":"Galgen","lat":49.7741924,"lon":8.0512517,"elevationM":null},{"id":"node:860385261","kind":"peak","name":"Seeberg","lat":49.0525916,"lon":8.9628492,"elevationM":271},{"id":"node:886362479","kind":"peak","name":"Ohrsberg","lat":49.4695858,"lon":8.9893881,"elevationM":237},{"id":"node:894689674","kind":"peak","name":"Hemsberg","lat":49.6689072,"lon":8.6394224,"elevationM":262},{"id":"node:908159025","kind":"peak","name":"Ebersberg","lat":49.4484039,"lon":8.1396026,"elevationM":342},{"id":"node:908498048","kind":"peak","name":"Galgenhöhe","lat":49.5617985,"lon":8.8157819,"elevationM":451},{"id":"node:936745379","kind":"peak","name":"Gorxenkopf","lat":49.5332635,"lon":8.7068661,"elevationM":312},{"id":"node:937464176","kind":"peak","name":"Frankenberg","lat":49.2819934,"lon":8.0368496,"elevationM":556},{"id":"node:1005749983","kind":"peak","name":"Hohe Harth","lat":49.5572424,"lon":8.7344796,"elevationM":382},{"id":"node:1024839104","kind":"peak","name":"Goldkopf","lat":49.5329834,"lon":8.6942444,"elevationM":324},{"id":"node:1099687844","kind":"peak","name":"Schnarrenberg","lat":49.0757435,"lon":8.9782015,"elevationM":293},{"id":"node:1099687855","kind":"peak","name":"Am Galgen","lat":49.0976146,"lon":8.9990035,"elevationM":332},{"id":"node:1099687944","kind":"peak","name":"Neuberg","lat":49.1688941,"lon":8.9862213,"elevationM":258},{"id":"node:1128635034","kind":"peak","name":"Kreuzberg","lat":49.6122071,"lon":8.758609,"elevationM":215},{"id":"node:1139856578","kind":"peak","name":"Bannelshöhe","lat":49.6062787,"lon":8.7798484,"elevationM":304},{"id":"node:1156833321","kind":"peak","name":"Jüdenberg","lat":49.1971254,"lon":8.6742036,"elevationM":180},{"id":"node:1156833328","kind":"peak","name":"Gerlisberg","lat":49.1817805,"lon":8.698784,"elevationM":184},{"id":"node:1189588913","kind":"peak","name":"Eselsberg","lat":49.6731887,"lon":8.6860191,"elevationM":441},{"id":"node:1189969643","kind":"peak","name":"Eichelberg","lat":49.679768,"lon":8.6877801,"elevationM":396},{"id":"node:1304715825","kind":"peak","name":"Hohberg","lat":49.5363584,"lon":8.7778097,"elevationM":531},{"id":"node:1315598102","kind":"peak","name":"Heuberg","lat":49.0284244,"lon":8.5472192,"elevationM":251},{"id":"node:1322151473","kind":"peak","name":"Toter Mann","lat":49.5438753,"lon":8.8379075,"elevationM":554},{"id":"node:1322155558","kind":"peak","name":"Kottenberg","lat":49.5503836,"lon":8.8293873,"elevationM":551},{"id":"node:1336808086","kind":"peak","name":"Kisselbusch","lat":49.5537877,"lon":8.7565973,"elevationM":502},{"id":"node:1339099718","kind":"peak","name":"Taubenberg","lat":49.6180354,"lon":8.6596765,"elevationM":257},{"id":"node:1339107326","kind":"peak","name":"Essigkamm","lat":49.6342842,"lon":8.6508254,"elevationM":231},{"id":"node:1358096162","kind":"peak","name":"Rimdidim","lat":49.7387072,"lon":8.8007176,"elevationM":498},{"id":"node:1366483081","kind":"peak","name":"Feuersteinskopf","lat":49.4396448,"lon":8.8009847,"elevationM":316},{"id":"node:1371993011","kind":"peak","name":"Glockenbuckel","lat":49.5397056,"lon":8.5452664,"elevationM":111},{"id":"node:1388230566","kind":"peak","name":"Clemensenberg","lat":49.5289025,"lon":8.8267028,"elevationM":527},{"id":"node:1388230577","kind":"peak","name":"Viehkopf","lat":49.5275933,"lon":8.8520658,"elevationM":426},{"id":"node:1388230582","kind":"peak","name":"Lannertskopf","lat":49.5495131,"lon":8.8643901,"elevationM":472},{"id":"node:1388230592","kind":"peak","name":"Stillfüssel","lat":49.5375719,"lon":8.8353948,"elevationM":568},{"id":"node:1388721595","kind":"peak","name":"Königsbuckel","lat":49.5674632,"lon":8.8395058,"elevationM":376},{"id":"node:1390559859","kind":"peak","name":"Bocksberg","lat":49.5699425,"lon":8.8527954,"elevationM":481},{"id":"node:1398298177","kind":"peak","name":"Salz-Berg","lat":49.5959496,"lon":8.8420012,"elevationM":452},{"id":"node:1398332661","kind":"peak","name":"Kochert","lat":49.6027427,"lon":8.8425937,"elevationM":447},{"id":"node:1454005316","kind":"peak","name":"Bollenberg","lat":49.0428928,"lon":8.5814614,"elevationM":221},{"id":"node:1459152621","kind":"peak","name":"Hoher Darsberg","lat":49.4198339,"lon":8.817932,"elevationM":440},{"id":"node:1494171593","kind":"peak","name":"Steinhau","lat":49.0353552,"lon":8.9961645,"elevationM":472},{"id":"node:1495267906","kind":"peak","name":"Schlierkopf","lat":49.0325011,"lon":8.9327718,"elevationM":450},{"id":"node:1498577960","kind":"peak","name":"Baiselsberg","lat":49.0038527,"lon":8.9883934,"elevationM":477},{"id":"node:1500300289","kind":"peak","name":"Hohe Warte","lat":49.4945584,"lon":8.9844449,"elevationM":552},{"id":"node:1500300292","kind":"peak","name":"Gickelsberg","lat":49.5374871,"lon":8.9921995,"elevationM":554},{"id":"node:1534321763","kind":"peak","name":"Höninger Kopf","lat":49.4259591,"lon":8.1514465,"elevationM":387},{"id":"node:1534322034","kind":"peak","name":"Rindskehler Kopf","lat":49.4350008,"lon":8.1347235,"elevationM":462},{"id":"node:1547995732","kind":"peak","name":"Kanzelberg","lat":49.4985473,"lon":8.687505,"elevationM":410},{"id":"node:1551989355","kind":"peak","name":"Becherskopf","lat":49.425585,"lon":8.0846125,"elevationM":522},{"id":"node:1551989368","kind":"peak","name":"Hahnackerkopf","lat":49.4451394,"lon":8.0715044,"elevationM":454},{"id":"node:1551990038","kind":"peak","name":"Steinkopf","lat":49.4315465,"lon":8.0870964,"elevationM":527},{"id":"node:1559467554","kind":"peak","name":"Plankenberg","lat":49.4288682,"lon":8.1108408,"elevationM":493},{"id":"node:1559467858","kind":"peak","name":"Seekopf","lat":49.4191183,"lon":8.1003505,"elevationM":519},{"id":"node:1559467860","kind":"peak","name":"Taubenrux","lat":49.4093036,"lon":8.0885792,"elevationM":471},{"id":"node:1559508223","kind":"peak","name":"Steinkopf","lat":49.5426781,"lon":8.7382581,"elevationM":409},{"id":"node:1561545155","kind":"peak","name":"Böllenscheid","lat":49.4631848,"lon":8.0746388,"elevationM":484},{"id":"node:1561545156","kind":"peak","name":"Eckberg","lat":49.4574438,"lon":8.0625568,"elevationM":414},{"id":"node:1561545167","kind":"peak","name":"Eichelsberg","lat":49.4570186,"lon":8.044173,"elevationM":402},{"id":"node:1561545171","kind":"peak","name":"Kieskautberg","lat":49.4725587,"lon":8.0398142,"elevationM":460},{"id":"node:1561545619","kind":"peak","name":"Steinkopf","lat":49.4733882,"lon":8.0568948,"elevationM":484},{"id":"node:1561545620","kind":"peak","name":"Weilers Köpfchen","lat":49.4655151,"lon":8.0619756,"elevationM":429},{"id":"node:1563212585","kind":"peak","name":"Lindenberg","lat":49.8313075,"lon":8.6825327,"elevationM":254},{"id":"node:1568911115","kind":"peak","name":"Kirchberg","lat":49.8359695,"lon":8.684936,"elevationM":280},{"id":"node:1582851899","kind":"peak","name":"Spitzkopf","lat":49.4520548,"lon":8.0032598,"elevationM":429},{"id":"node:1584365085","kind":"peak","name":"Dommerberg","lat":49.8445863,"lon":8.6799374,"elevationM":264},{"id":"node:1584391028","kind":"peak","name":"Dachsberg","lat":49.8501572,"lon":8.6837089,"elevationM":258},{"id":"node:1584740564","kind":"peak","name":"Schnapphahnberg","lat":49.4542728,"lon":8.0244515,"elevationM":380},{"id":"node:1599029944","kind":"peak","name":"Hohe Kopf","lat":49.4158719,"lon":8.0359063,"elevationM":507},{"id":"node:1599030566","kind":"peak","name":"Steinkopf","lat":49.4111886,"lon":8.0469679,"elevationM":508},{"id":"node:1631289269","kind":"peak","name":"Hungerberg","lat":49.0622781,"lon":8.8130218,"elevationM":221},{"id":"node:1631389650","kind":"peak","name":"Eschelberg","lat":49.0625091,"lon":8.8394425,"elevationM":303},{"id":"node:1631392765","kind":"peak","name":"Augenberg","lat":49.0499503,"lon":8.846841,"elevationM":null},{"id":"node:1632452237","kind":"peak","name":"Kupferhaldenkopf","lat":49.0483896,"lon":8.812689,"elevationM":304},{"id":"node:1632452257","kind":"peak","name":"Horn","lat":49.0447181,"lon":8.8089071,"elevationM":321},{"id":"node:1632513076","kind":"peak","name":"Auf der Mauer","lat":49.0623569,"lon":8.8141045,"elevationM":null},{"id":"node:1640405590","kind":"peak","name":"Weinbiet","lat":49.3763452,"lon":8.1213098,"elevationM":550},{"id":"node:1648606809","kind":"peak","name":"Silzberg","lat":49.0209784,"lon":8.5115026,"elevationM":246},{"id":"node:1656035848","kind":"peak","name":"Geisberg","lat":49.6324948,"lon":8.9514544,"elevationM":441},{"id":"node:1656035851","kind":"peak","name":"Kirchberg","lat":49.6782266,"lon":8.9278636,"elevationM":407},{"id":"node:1659062729","kind":"peak","name":"Hoher Berg","lat":49.7168155,"lon":8.9696896,"elevationM":327},{"id":"node:1659062736","kind":"peak","name":"Hoher Zorn","lat":49.6982222,"lon":8.9218542,"elevationM":455},{"id":"node:1659062744","kind":"peak","name":"Kirchberg","lat":49.7454143,"lon":8.9444121,"elevationM":339},{"id":"node:1659062753","kind":"peak","name":"Müllert","lat":49.7533627,"lon":8.9495309,"elevationM":323},{"id":"node:1659062770","kind":"peak","name":"Sandbuckel","lat":49.7156246,"lon":8.9518746,"elevationM":332},{"id":"node:1659062775","kind":"peak","name":"Steinert","lat":49.7291553,"lon":8.9794559,"elevationM":304},{"id":"node:1659135767","kind":"peak","name":"Kollerbuckel","lat":49.6624032,"lon":8.9185414,"elevationM":436},{"id":"node:1659135768","kind":"peak","name":"Lärmfeuer","lat":49.6640103,"lon":8.8945232,"elevationM":501},{"id":"node:1659363791","kind":"peak","name":"Burgberg","lat":49.712297,"lon":8.8862657,"elevationM":404},{"id":"node:1659363793","kind":"peak","name":"Galgenberg","lat":49.7346481,"lon":8.9232183,"elevationM":413},{"id":"node:1659363794","kind":"peak","name":"Hasenbuckel","lat":49.7237869,"lon":8.8558843,"elevationM":277},{"id":"node:1659363795","kind":"peak","name":"Hasenberg","lat":49.7310611,"lon":8.8535026,"elevationM":260},{"id":"node:1659363797","kind":"peak","name":"Heidelberg","lat":49.7196085,"lon":8.9194563,"elevationM":443},{"id":"node:1659363798","kind":"peak","name":"Hoher Stein","lat":49.7293353,"lon":8.9039149,"elevationM":389},{"id":"node:1659363800","kind":"peak","name":"Morsberg","lat":49.7073642,"lon":8.8987443,"elevationM":517},{"id":"node:1659363801","kind":"peak","name":"Mönchshöhe","lat":49.7628123,"lon":8.9724313,"elevationM":317},{"id":"node:1659363803","kind":"peak","name":"Reichenberg","lat":49.7165179,"lon":8.8476616,"elevationM":308},{"id":"node:1659363804","kind":"peak","name":"Riedelberg","lat":49.7851394,"lon":8.9688258,"elevationM":285},{"id":"node:1659363806","kind":"peak","name":"Schludroff","lat":49.7756665,"lon":8.9188414,"elevationM":374},{"id":"node:1659363807","kind":"peak","name":"Schnellerts","lat":49.7407161,"lon":8.8953059,"elevationM":351},{"id":"node:1659363808","kind":"peak","name":"Spätstraßenberg","lat":49.6919998,"lon":8.9084368,"elevationM":459},{"id":"node:1659363810","kind":"peak","name":"Tannenkopf","lat":49.7626276,"lon":8.9275413,"elevationM":388},{"id":"node:1659363815","kind":"peak","name":"Vogelherd","lat":49.7571771,"lon":8.9090549,"elevationM":371},{"id":"node:1659796069","kind":"peak","name":"Zeller Kopf","lat":49.7052698,"lon":8.9826586,"elevationM":355},{"id":"node:1664912313","kind":"peak","name":"Herrnberg","lat":49.6478452,"lon":8.9536906,"elevationM":406},{"id":"node:1665145075","kind":"peak","name":"Eckberg","lat":49.5117887,"lon":8.958567,"elevationM":411},{"id":"node:1665145120","kind":"peak","name":"Freudenberg","lat":49.540992,"lon":8.961043,"elevationM":446},{"id":"node:1665145131","kind":"peak","name":"Geiersberg","lat":49.539405,"lon":8.8856933,"elevationM":485},{"id":"node:1665145540","kind":"peak","name":"Sauersbuckel","lat":49.5191681,"lon":8.9868604,"elevationM":475},{"id":"node:1665145557","kind":"peak","name":"Schnappgalgen","lat":49.6071494,"lon":8.9397635,"elevationM":471},{"id":"node:1665145574","kind":"peak","name":"Wetterberg","lat":49.5309889,"lon":8.9071552,"elevationM":387},{"id":"node:1666682485","kind":"peak","name":"Dachsberg","lat":49.6415315,"lon":8.8753506,"elevationM":482},{"id":"node:1666682509","kind":"peak","name":"Kahlberg","lat":49.655249,"lon":8.8571342,"elevationM":521},{"id":"node:1666682515","kind":"peak","name":"Kirchberg","lat":49.630872,"lon":8.8741541,"elevationM":493},{"id":"node:1666682520","kind":"peak","name":"Affolterbacher Höhe","lat":49.6034121,"lon":8.8798759,"elevationM":526},{"id":"node:1666682559","kind":"peak","name":"Spessartskopf","lat":49.6171462,"lon":8.875054,"elevationM":548},{"id":"node:1667454420","kind":"peak","name":"Toter Mann","lat":49.4896322,"lon":8.0881089,"elevationM":421},{"id":"node:1678308041","kind":"peak","name":"Hermannskopf","lat":49.3892365,"lon":8.0811191,"elevationM":532},{"id":"node:1707483835","kind":"peak","name":"Fichtelberg","lat":49.5616642,"lon":8.8824411,"elevationM":492},{"id":"node:1707484024","kind":"peak","name":"Wiesenberg","lat":49.5126776,"lon":8.9433975,"elevationM":425},{"id":"node:1707490287","kind":"peak","name":"Kleiner Meisenberg","lat":49.5878318,"lon":8.8732778,"elevationM":528},{"id":"node:1707490300","kind":"peak","name":"Meisenberg","lat":49.5802955,"lon":8.8599868,"elevationM":540},{"id":"node:1707490309","kind":"peak","name":"Heckmannsbild","lat":49.5640397,"lon":8.8623724,"elevationM":508},{"id":"node:1707646380","kind":"peak","name":"Dammberg","lat":49.4604556,"lon":8.8839835,"elevationM":428},{"id":"node:1707646384","kind":"peak","name":"Breuningsberg","lat":49.5125151,"lon":8.8801859,"elevationM":486},{"id":"node:1707646405","kind":"peak","name":"Rinke","lat":49.5175283,"lon":8.8451557,"elevationM":489},{"id":"node:1713322506","kind":"peak","name":"Hermesberg","lat":49.7849074,"lon":8.9149648,"elevationM":381},{"id":"node:1713322527","kind":"peak","name":"Böllsteiner Höhe","lat":49.7398098,"lon":8.9206754,"elevationM":416},{"id":"node:1724432969","kind":"peak","name":"Engelskopf","lat":49.423386,"lon":8.0109826,"elevationM":441},{"id":"node:1734259980","kind":"peak","name":"Katzenberg","lat":49.6570622,"lon":8.746155,"elevationM":263},{"id":"node:1734259985","kind":"peak","name":"Kohlplatte","lat":49.6120823,"lon":8.7013388,"elevationM":337},{"id":"node:1734259995","kind":"peak","name":"Krehhöhe","lat":49.603512,"lon":8.7546734,"elevationM":241},{"id":"node:1734260006","kind":"peak","name":"Käfernberg","lat":49.6111136,"lon":8.6822883,"elevationM":328},{"id":"node:1734260219","kind":"peak","name":"Höhnberg","lat":49.6344743,"lon":8.7136731,"elevationM":375},{"id":"node:1734260401","kind":"peak","name":"Knörschhügel","lat":49.6950025,"lon":8.7237275,"elevationM":536},{"id":"node:1734260410","kind":"peak","name":"Steigkopf","lat":49.6445858,"lon":8.7100902,"elevationM":340},{"id":"node:1734260417","kind":"peak","name":"Steinböhl","lat":49.6129552,"lon":8.7288907,"elevationM":267},{"id":"node:1734260441","kind":"peak","name":"Weißer Berg","lat":49.6497698,"lon":8.6775917,"elevationM":292},{"id":"node:1734368032","kind":"peak","name":"Galgenberg","lat":49.6710101,"lon":8.7760625,"elevationM":269},{"id":"node:1734368036","kind":"peak","name":"Lerchenberg","lat":49.6323844,"lon":8.7713332,"elevationM":227},{"id":"node:1734368196","kind":"peak","name":"Wolfsberg","lat":49.6272168,"lon":8.7688744,"elevationM":211},{"id":"node:1736617846","kind":"peak","name":"Erzberg","lat":49.6518129,"lon":8.8157025,"elevationM":475},{"id":"node:1736617887","kind":"peak","name":"Gänsberg","lat":49.6556128,"lon":8.778912,"elevationM":248},{"id":"node:1736618146","kind":"peak","name":"Salzlackenbuckel","lat":49.604764,"lon":8.7997654,"elevationM":null},{"id":"node:1736618165","kind":"peak","name":"Sauberg","lat":49.6664913,"lon":8.7908545,"elevationM":234},{"id":"node:1736618177","kind":"peak","name":"Wagenberg","lat":49.6355968,"lon":8.8083054,"elevationM":534},{"id":"node:1736646897","kind":"peak","name":"Eselsstein","lat":49.6538385,"lon":8.8292104,"elevationM":448},{"id":"node:1736646901","kind":"peak","name":"Im Hubenstrich","lat":49.6093976,"lon":8.8282365,"elevationM":447},{"id":"node:1736646909","kind":"peak","name":"Küfershöhe","lat":49.6870778,"lon":8.8230121,"elevationM":334},{"id":"node:1736646913","kind":"peak","name":"Lenzenbuckel","lat":49.6254844,"lon":8.8233775,"elevationM":491},{"id":"node:1736646918","kind":"peak","name":"Mühlberg","lat":49.6953966,"lon":8.8225855,"elevationM":276},{"id":"node:1745745199","kind":"peak","name":"Hoher Kopf","lat":49.3416921,"lon":8.0164252,"elevationM":465},{"id":"node:1745745205","kind":"peak","name":"Kropfsberg","lat":49.3385115,"lon":8.0277715,"elevationM":478},{"id":"node:1749805743","kind":"peak","name":"Messeler Höhe","lat":49.9496557,"lon":8.7670992,"elevationM":196},{"id":"node:1751781973","kind":"peak","name":"Bocksberg","lat":49.587869,"lon":8.6801953,"elevationM":347},{"id":"node:1751781999","kind":"peak","name":"Kreuzberg","lat":49.6037988,"lon":8.6807283,"elevationM":372},{"id":"node:1751782024","kind":"peak","name":"Hinkelstein","lat":49.601464,"lon":8.6962027,"elevationM":null},{"id":"node:1753981078","kind":"peak","name":"Weilerskopf","lat":49.4906798,"lon":8.1266528,"elevationM":470},{"id":"node:1763853680","kind":"peak","name":"Mausberg","lat":49.1639438,"lon":8.6967843,"elevationM":165},{"id":"node:1764309400","kind":"peak","name":"Alteberg","lat":49.5872027,"lon":8.6664921,"elevationM":235},{"id":"node:1766529011","kind":"peak","name":"Kanzelkopf","lat":49.3245643,"lon":8.0121779,"elevationM":489},{"id":"node:1768640047","kind":"peak","name":"Kühlkopf","lat":49.3196674,"lon":8.0066963,"elevationM":474},{"id":"node:1772745599","kind":"peak","name":"Studerbildkopf","lat":49.3243968,"lon":8.0325024,"elevationM":478},{"id":"node:1773641289","kind":"peak","name":"Flachkopf","lat":49.3090143,"lon":8.0086601,"elevationM":498},{"id":"node:1773641292","kind":"peak","name":"Kleyenkopf","lat":49.3077201,"lon":8.0209129,"elevationM":559},{"id":"node:1774187886","kind":"peak","name":"Weinheimer Kopf","lat":49.5767783,"lon":8.6808034,"elevationM":null},{"id":"node:1781630621","kind":"peak","name":"Kautzekopf","lat":49.5230234,"lon":8.832291,"elevationM":558},{"id":"node:1795982868","kind":"peak","name":"Hermeskopf","lat":49.2908047,"lon":8.0030317,"elevationM":581},{"id":"node:1829525887","kind":"peak","name":"Wartberg","lat":49.7330846,"lon":8.1093776,"elevationM":275},{"id":"node:1833582964","kind":"peak","name":"Otzberg","lat":49.819784,"lon":8.9108742,"elevationM":368},{"id":"node:1877470773","kind":"peak","name":"Steinkopf","lat":49.6237714,"lon":8.6764302,"elevationM":402},{"id":"node:1888176273","kind":"peak","name":"In der Krätze","lat":49.6185017,"lon":8.9073152,"elevationM":381},{"id":"node:1888176274","kind":"peak","name":"Lengertsberg","lat":49.6273521,"lon":8.9275516,"elevationM":387},{"id":"node:1888176275","kind":"peak","name":"Mühlberg","lat":49.6273036,"lon":8.9113174,"elevationM":397},{"id":"node:1888176276","kind":"peak","name":"Vogelherd","lat":49.6099401,"lon":8.9220734,"elevationM":406},{"id":"node:1900815941","kind":"peak","name":"Leuchtenberg","lat":49.4807495,"lon":8.0631382,"elevationM":491},{"id":"node:1927834684","kind":"peak","name":"Grasberg","lat":49.7817869,"lon":8.7822602,"elevationM":244},{"id":"node:1927834687","kind":"peak","name":"Hellersberg","lat":49.7854018,"lon":8.8051764,"elevationM":null},{"id":"node:1927834688","kind":"peak","name":"Kohlstöcke","lat":49.7881447,"lon":8.7922691,"elevationM":281},{"id":"node:1927834690","kind":"peak","name":"Riedberg","lat":49.7813103,"lon":8.8019901,"elevationM":203},{"id":"node:1927834693","kind":"peak","name":"Russberg","lat":49.7636173,"lon":8.816539,"elevationM":282},{"id":"node:1927893500","kind":"peak","name":"Buch","lat":49.7133859,"lon":8.8118409,"elevationM":415},{"id":"node:1927893501","kind":"peak","name":"Germannshöhe","lat":49.7279402,"lon":8.7930886,"elevationM":517},{"id":"node:1927893502","kind":"peak","name":"Hahlkopf","lat":49.7469593,"lon":8.8001441,"elevationM":416},{"id":"node:1927893503","kind":"peak","name":"Knösberg","lat":49.722494,"lon":8.9041199,"elevationM":null},{"id":"node:1927893601","kind":"peak","name":"Steinkopf","lat":49.7416601,"lon":8.7851777,"elevationM":451},{"id":"node:1927903802","kind":"peak","name":"Heidenbuckel","lat":49.7059821,"lon":8.9338405,"elevationM":372},{"id":"node:1929020403","kind":"peak","name":"Metzgersrod","lat":49.5595303,"lon":8.8605316,"elevationM":499},{"id":"node:1929020488","kind":"peak","name":"Taubenberg","lat":49.5667751,"lon":8.8812915,"elevationM":482},{"id":"node:1977100764","kind":"peak","name":"Sachsenbuckel","lat":49.633196,"lon":8.5725898,"elevationM":110},{"id":"node:2069960007","kind":"peak","name":"Nellenköpfl","lat":49.2815048,"lon":8.0104224,"elevationM":558},{"id":"node:2074778886","kind":"peak","name":"Küchenkopf","lat":49.2885229,"lon":8.0203832,"elevationM":563},{"id":"node:2092609870","kind":"peak","name":"Hungerberg","lat":49.4457087,"lon":8.9042248,"elevationM":165},{"id":"node:2108122945","kind":"peak","name":"Krähberg","lat":49.3528874,"lon":8.7894049,"elevationM":181},{"id":"node:2130667680","kind":"peak","name":"Arensberg","lat":49.4241355,"lon":8.1302596,"elevationM":464},{"id":"node:2155915176","kind":"peak","name":"Ameisenbuckel","lat":49.3925405,"lon":8.6991164,"elevationM":296},{"id":"node:2330785525","kind":"volcano","name":"Wachenberg","lat":49.5499192,"lon":8.693489,"elevationM":400},{"id":"node:2346620369","kind":"peak","name":"Rehköpfchen","lat":49.2287999,"lon":8.0249717,"elevationM":397},{"id":"node:2348148558","kind":"peak","name":"Eichberg","lat":49.238912,"lon":8.043034,"elevationM":474},{"id":"node:2348148568","kind":"peak","name":"Kalkofenberg","lat":49.2524996,"lon":8.0332731,"elevationM":565},{"id":"node:2348148575","kind":"peak","name":"Kittenberg","lat":49.240113,"lon":8.0564223,"elevationM":422},{"id":"node:2348148579","kind":"peak","name":"Lambertskopf","lat":49.2592321,"lon":8.0508485,"elevationM":544},{"id":"node:2348148583","kind":"peak","name":"Mittelberg","lat":49.2345637,"lon":8.0374343,"elevationM":373},{"id":"node:2348150183","kind":"peak","name":"Ringelsberg","lat":49.2310466,"lon":8.0452546,"elevationM":450},{"id":"node:2364655469","kind":"peak","name":"Hohenberg","lat":49.2027166,"lon":8.0051473,"elevationM":552},{"id":"node:2367478449","kind":"peak","name":"Breitenberg","lat":49.3090864,"lon":8.0898985,"elevationM":545},{"id":"node:2367478657","kind":"peak","name":"Wetterkreuzberg","lat":49.3128004,"lon":8.1067537,"elevationM":400},{"id":"node:2407215039","kind":"peak","name":"Kahlenberg","lat":49.6166333,"lon":8.1417487,"elevationM":300},{"id":"node:2478934347","kind":"peak","name":"Bußkopf","lat":49.4848725,"lon":8.8559248,"elevationM":487},{"id":"node:2503367496","kind":"peak","name":"Galgenberg","lat":49.406346,"lon":8.8508519,"elevationM":280},{"id":"node:2556252819","kind":"peak","name":"Ballerts","lat":49.7560433,"lon":8.9250952,"elevationM":376},{"id":"node:2556263861","kind":"peak","name":"Buchböhl","lat":49.7671443,"lon":8.9215841,"elevationM":371},{"id":"node:2556263862","kind":"peak","name":"Steinberg","lat":49.7662122,"lon":8.9107427,"elevationM":362},{"id":"node:2556281524","kind":"peak","name":"Backofenberg","lat":49.7631219,"lon":8.9214589,"elevationM":373},{"id":"node:2581967186","kind":"peak","name":"Gertenberg","lat":49.027767,"lon":8.5184183,"elevationM":206},{"id":"node:2581967187","kind":"peak","name":"Hinterer Heuberg","lat":49.0331765,"lon":8.5324346,"elevationM":252},{"id":"node:2581967188","kind":"peak","name":"Hummelberg","lat":49.015445,"lon":8.5235593,"elevationM":209},{"id":"node:2581967189","kind":"peak","name":"Kirchberg","lat":49.0454422,"lon":8.5353102,"elevationM":236},{"id":"node:2581967190","kind":"peak","name":"Knittelberg","lat":49.0124257,"lon":8.5044581,"elevationM":222},{"id":"node:2581967191","kind":"peak","name":"Vorderer Heuberg","lat":49.0394384,"lon":8.5302829,"elevationM":null},{"id":"node:2595253203","kind":"peak","name":"Harzweilerkopf","lat":49.5180147,"lon":8.1138368,"elevationM":415},{"id":"node:2615194618","kind":"peak","name":"Katzenberg","lat":49.0587515,"lon":8.5424283,"elevationM":249},{"id":"node:2615194622","kind":"peak","name":"Hinterkatzenberg","lat":49.0674685,"lon":8.5487368,"elevationM":253},{"id":"node:2709177534","kind":"peak","name":"Kleiner Peterskopf","lat":49.4713088,"lon":8.1321671,"elevationM":null},{"id":"node:2721477609","kind":"peak","name":"Adalbertshöhe","lat":49.6815126,"lon":8.9871903,"elevationM":null},{"id":"node:2823499041","kind":"peak","name":"Blieshügel","lat":49.4698098,"lon":8.419031,"elevationM":null},{"id":"node:2949598861","kind":"peak","name":"Darsberg","lat":49.7391912,"lon":8.6449042,"elevationM":373},{"id":"node:2949598863","kind":"peak","name":"Tannenberg","lat":49.7566951,"lon":8.6566698,"elevationM":340},{"id":"node:2964372355","kind":"peak","name":"Kahlenberg","lat":49.4925345,"lon":8.0427804,"elevationM":368},{"id":"node:2964988684","kind":"peak","name":"Hebert","lat":49.4360972,"lon":8.9780195,"elevationM":519},{"id":"node:2968615422","kind":"peak","name":"Kastanienbusch","lat":49.1992953,"lon":8.0217612,"elevationM":360},{"id":"node:2972764539","kind":"peak","name":"Hungerberg","lat":49.6518491,"lon":8.040747,"elevationM":290},{"id":"node:2975686529","kind":"peak","name":"Zimmerberg","lat":49.5062219,"lon":8.0868635,"elevationM":325},{"id":"node:3043599482","kind":"peak","name":"Dörrenberg","lat":49.3702739,"lon":8.0145901,"elevationM":429},{"id":"node:3044338519","kind":"peak","name":"Schloßberg","lat":49.0489587,"lon":8.853125,"elevationM":380},{"id":"node:3061322786","kind":"peak","name":"Tunnelkopf","lat":49.4027557,"lon":8.0192983,"elevationM":268},{"id":"node:3125969443","kind":"peak","name":"Langenberg","lat":49.7831669,"lon":8.6679727,"elevationM":430},{"id":"node:3143640521","kind":"peak","name":"Kesselberg","lat":49.6773397,"lon":8.7056729,"elevationM":531},{"id":"node:3144113100","kind":"peak","name":"Götzischberg","lat":49.6959965,"lon":8.7308376,"elevationM":510},{"id":"node:3341917776","kind":"peak","name":"Peterskopf","lat":49.4792657,"lon":8.1296831,"elevationM":493},{"id":"node:3354580889","kind":"peak","name":"Auerstein","lat":49.4396455,"lon":8.6868291,"elevationM":null},{"id":"node:3369453484","kind":"peak","name":"Schneeberg","lat":49.3281358,"lon":8.7956472,"elevationM":null},{"id":"node:3382442956","kind":"peak","name":"Hühnerberg","lat":49.2384667,"lon":8.9718502,"elevationM":290},{"id":"node:3426711835","kind":"peak","name":"Judenkopf","lat":49.3320345,"lon":8.0014425,"elevationM":430},{"id":"node:3442986734","kind":"peak","name":"Ameisenberg","lat":49.333445,"lon":8.4002404,"elevationM":null},{"id":"node:3552957470","kind":"peak","name":"Tannenkopf","lat":49.466761,"lon":8.9439783,"elevationM":364},{"id":"node:3560288275","kind":"peak","name":"Hainrich","lat":49.8651043,"lon":8.9451526,"elevationM":264},{"id":"node:3560288276","kind":"peak","name":"Herrnberg","lat":49.8769114,"lon":8.9431187,"elevationM":256},{"id":"node:3560288277","kind":"peak","name":"Oberhöhe","lat":49.8834594,"lon":8.9718218,"elevationM":327},{"id":"node:3564224593","kind":"peak","name":"Steinbuckel","lat":49.5238808,"lon":8.5407907,"elevationM":104},{"id":"node:3577099894","kind":"peak","name":"Felgenwaldkopf","lat":49.4550133,"lon":8.7747593,"elevationM":538},{"id":"node:3597120742","kind":"peak","name":"Kirchberg","lat":49.4540744,"lon":8.6905171,"elevationM":324},{"id":"node:3670382745","kind":"peak","name":"Heidenloch","lat":49.5061965,"lon":8.6857298,"elevationM":352},{"id":"node:3712726705","kind":"peak","name":"Itterberg","lat":49.4733107,"lon":8.9766328,"elevationM":390},{"id":"node:3766796878","kind":"peak","name":"Waldskopf","lat":49.5401048,"lon":8.7696503,"elevationM":538},{"id":"node:3925700876","kind":"peak","name":"Kirchberg","lat":49.3949961,"lon":8.8608333,"elevationM":null},{"id":"node:3926715103","kind":"peak","name":"Saukopf","lat":49.570397,"lon":8.6830676,"elevationM":348},{"id":"node:4058068326","kind":"peak","name":"Kleine Kalmit","lat":49.1860845,"lon":8.0574454,"elevationM":271},{"id":"node:4058085711","kind":"peak","name":"Schlossberg","lat":49.3248559,"lon":8.1188025,"elevationM":374},{"id":"node:4153765500","kind":"peak","name":"Schneeberg","lat":49.2484809,"lon":8.9614562,"elevationM":null},{"id":"node:4166000348","kind":"peak","name":"Rodelhügel","lat":49.5337239,"lon":8.5105606,"elevationM":104},{"id":"node:4215182965","kind":"peak","name":"Buchwaldkopf","lat":49.4439244,"lon":8.8236282,"elevationM":459},{"id":"node:4258954430","kind":"peak","name":"Galgenberg","lat":49.2578445,"lon":8.6980557,"elevationM":243},{"id":"node:4258998749","kind":"peak","name":"Schindelberg","lat":49.2024449,"lon":8.759549,"elevationM":277},{"id":"node:4259006622","kind":"peak","name":"Kapellenberg","lat":49.1917998,"lon":8.8075686,"elevationM":302},{"id":"node:4259029271","kind":"peak","name":"Eichelberg","lat":49.1987957,"lon":8.8240055,"elevationM":330},{"id":"node:4259046906","kind":"peak","name":"Kreuzberg","lat":49.1707266,"lon":8.8161081,"elevationM":294},{"id":"node:4259079360","kind":"peak","name":"Altenberg","lat":49.196169,"lon":8.7065452,"elevationM":220},{"id":"node:4259095303","kind":"peak","name":"Hummelberg","lat":49.2095843,"lon":8.7145077,"elevationM":237},{"id":"node:4259100689","kind":"peak","name":"Armenberg","lat":49.214154,"lon":8.748518,"elevationM":240},{"id":"node:4260108487","kind":"peak","name":"Schafbuckel","lat":49.2991342,"lon":8.7209838,"elevationM":180},{"id":"node:4261065904","kind":"peak","name":"Schlehberg","lat":49.2351637,"lon":8.7338971,"elevationM":245},{"id":"node:4297545253","kind":"peak","name":"Schinnersbuckel","lat":49.5548883,"lon":8.5885687,"elevationM":106},{"id":"node:4313434087","kind":"peak","name":"Bettenberg","lat":49.5224413,"lon":8.5798441,"elevationM":104},{"id":"node:4313476469","kind":"peak","name":"Scharrbuckel","lat":49.5901494,"lon":8.542899,"elevationM":103},{"id":"node:4320004826","kind":"peak","name":"Steinsberg","lat":49.2143313,"lon":8.8773315,"elevationM":333},{"id":"node:4320021651","kind":"peak","name":"Wallenberg","lat":49.271234,"lon":8.7410758,"elevationM":240},{"id":"node:4326460714","kind":"peak","name":"Gallus Bildhäusel","lat":49.2036117,"lon":8.7301967,"elevationM":243},{"id":"node:4326955234","kind":"peak","name":"Dilsberg","lat":49.3988799,"lon":8.8368357,"elevationM":289},{"id":"node:4340171472","kind":"peak","name":"Wilhelmsberg","lat":49.3087693,"lon":8.7062455,"elevationM":204},{"id":"node:4361621058","kind":"peak","name":"Murrmirnichtviel","lat":49.4425775,"lon":8.0944175,"elevationM":490},{"id":"node:4362061983","kind":"peak","name":"Maisenberg","lat":49.2551101,"lon":8.3097541,"elevationM":128},{"id":"node:4362495189","kind":"peak","name":"Bergstein","lat":49.3585702,"lon":8.1236769,"elevationM":394},{"id":"node:4383001437","kind":"peak","name":"Mühlberg","lat":49.2969608,"lon":8.9342125,"elevationM":235},{"id":"node:4405713955","kind":"peak","name":"Kobelsberg","lat":49.3078871,"lon":8.7267413,"elevationM":220},{"id":"node:4430587723","kind":"peak","name":"Rothenberg","lat":49.1709757,"lon":8.0041924,"elevationM":476},{"id":"node:4463477650","kind":"peak","name":"Heidelberg","lat":49.3332034,"lon":8.123754,"elevationM":313},{"id":"node:4463482369","kind":"peak","name":"Häuselberg","lat":49.3400958,"lon":8.1246634,"elevationM":320},{"id":"node:4471298171","kind":"peak","name":"Eulenberg","lat":49.1861259,"lon":8.7568237,"elevationM":228},{"id":"node:4523119961","kind":"peak","name":"Galgenberg","lat":49.2558517,"lon":8.761778,"elevationM":257},{"id":"node:4562227476","kind":"peak","name":"Bettelbuckel","lat":49.5963741,"lon":8.5353583,"elevationM":102},{"id":"node:4592998773","kind":"peak","name":"Bründelsberg","lat":49.2625153,"lon":8.3360931,"elevationM":131},{"id":"node:4722382594","kind":"peak","name":"Gänsberg","lat":49.2780933,"lon":8.6880545,"elevationM":152},{"id":"node:4736907460","kind":"peak","name":"Alter Berg","lat":49.7412169,"lon":8.9264674,"elevationM":null},{"id":"node:4781985990","kind":"peak","name":"Scheuelberg","lat":49.0209372,"lon":8.8266583,"elevationM":382},{"id":"node:4781991621","kind":"peak","name":"Bannhalde","lat":49.0458887,"lon":8.8640822,"elevationM":417},{"id":"node:4798790802","kind":"peak","name":"Überzwerchberg","lat":49.3510985,"lon":8.0505375,"elevationM":502},{"id":"node:4816809970","kind":"peak","name":"Stöckberg","lat":49.4603144,"lon":8.9071655,"elevationM":null},{"id":"node:4817753755","kind":"peak","name":"Feuerberg","lat":49.4481651,"lon":8.919332,"elevationM":null},{"id":"node:4831673710","kind":"peak","name":"Böser Berg","lat":49.462776,"lon":8.9586425,"elevationM":null},{"id":"node:4856539546","kind":"peak","name":"Hohe Loog","lat":49.3325551,"lon":8.0962149,"elevationM":619},{"id":"node:4866177430","kind":"peak","name":"Orensfels","lat":49.237203,"lon":8.0250888,"elevationM":544},{"id":"node:4866278300","kind":"peak","name":"Kohlberg","lat":49.8113179,"lon":8.6786577,"elevationM":270},{"id":"node:4885825885","kind":"peak","name":"Höllenberg","lat":49.7297025,"lon":8.2167052,"elevationM":284},{"id":"node:4886009646","kind":"peak","name":"Hohe Pappel","lat":49.7229881,"lon":8.2122071,"elevationM":278},{"id":"node:4886009648","kind":"peak","name":"die Haier","lat":49.7178836,"lon":8.2141619,"elevationM":276},{"id":"node:5026125455","kind":"peak","name":"Orlenberg","lat":49.5490347,"lon":8.2045252,"elevationM":191},{"id":"node:5043169958","kind":"peak","name":"Hermannsberg","lat":49.2389691,"lon":8.7895129,"elevationM":243},{"id":"node:5062143565","kind":"peak","name":"Sommerberg","lat":49.3231915,"lon":8.1056442,"elevationM":502},{"id":"node:5097240366","kind":"peak","name":"Rittersberg","lat":49.3290356,"lon":8.1082643,"elevationM":532},{"id":"node:5101645581","kind":"peak","name":"Bordenberg","lat":49.825247,"lon":8.6778366,"elevationM":257},{"id":"node:5121295452","kind":"peak","name":"Schraußenberg","lat":49.2939026,"lon":8.0777063,"elevationM":583},{"id":"node:5155648389","kind":"peak","name":"Stiefelsberg","lat":49.3047443,"lon":8.9795756,"elevationM":264},{"id":"node:5156476909","kind":"peak","name":"Knorz","lat":49.7259028,"lon":8.7165941,"elevationM":404},{"id":"node:5160190411","kind":"peak","name":"Kühnberg","lat":49.3092203,"lon":8.9117125,"elevationM":231},{"id":"node:5161279084","kind":"peak","name":"Speißberg","lat":49.3372743,"lon":8.8805719,"elevationM":223},{"id":"node:5161284009","kind":"peak","name":"Kaiserberg","lat":49.2547476,"lon":8.8163235,"elevationM":253},{"id":"node:5161293067","kind":"peak","name":"Kornberg","lat":49.2139638,"lon":8.8129758,"elevationM":249},{"id":"node:5165411675","kind":"peak","name":"Rotenberg","lat":49.1270805,"lon":8.6292163,"elevationM":215},{"id":"node:5165424845","kind":"peak","name":"Seeberg","lat":49.1224543,"lon":8.7523035,"elevationM":202},{"id":"node:5174210520","kind":"peak","name":"Bergstein bei Hambach","lat":49.3338887,"lon":8.1142752,"elevationM":481},{"id":"node:5202065268","kind":"peak","name":"Schloßberg","lat":49.2621225,"lon":8.2735664,"elevationM":null},{"id":"node:5273698472","kind":"peak","name":"Köpfel","lat":49.3444843,"lon":8.1248561,"elevationM":322},{"id":"node:5322096934","kind":"peak","name":"Ludwigshöhe","lat":49.8430548,"lon":8.6608187,"elevationM":242},{"id":"node:5561341071","kind":"peak","name":"Taschberg","lat":49.2081464,"lon":8.024192,"elevationM":301},{"id":"node:5613343039","kind":"peak","name":"Äschebuckel","lat":49.6194657,"lon":8.3687891,"elevationM":null},{"id":"node:5632137178","kind":"peak","name":"Leonhardsberg","lat":49.5099543,"lon":8.7970233,"elevationM":536},{"id":"node:5660800116","kind":"peak","name":"Bachberg","lat":49.5254987,"lon":8.6938814,"elevationM":305},{"id":"node:5753201122","kind":"peak","name":"Schloßberg","lat":49.549655,"lon":8.0266252,"elevationM":327},{"id":"node:5753210809","kind":"peak","name":"Kühberg","lat":49.5546073,"lon":8.0261497,"elevationM":366},{"id":"node:5983878403","kind":"peak","name":"Großer Pfaffenkopf","lat":49.4263129,"lon":8.022771,"elevationM":486},{"id":"node:5983878404","kind":"peak","name":"Kleiner Pfaffenkopf","lat":49.4222597,"lon":8.0275748,"elevationM":437},{"id":"node:5986524514","kind":"peak","name":"Gr. Mainzer Berg","lat":49.4144866,"lon":8.0166097,"elevationM":404},{"id":"node:5989485251","kind":"peak","name":"Hansentaler Höhe","lat":49.4357106,"lon":8.0090348,"elevationM":401},{"id":"node:6003135928","kind":"peak","name":"Bauschheimer Hügel","lat":49.9760363,"lon":8.408803,"elevationM":96},{"id":"node:6011026649","kind":"peak","name":"Kirschtaler Höhe","lat":49.4431351,"lon":8.0157738,"elevationM":383},{"id":"node:6011026650","kind":"peak","name":"Wolfsberg","lat":49.4285044,"lon":8.0056249,"elevationM":405},{"id":"node:6011026651","kind":"peak","name":"Mitteleck","lat":49.4368131,"lon":8.0049795,"elevationM":379},{"id":"node:6289321850","kind":"peak","name":"Kirchberg","lat":49.4154676,"lon":8.1650894,"elevationM":344},{"id":"node:6405883373","kind":"peak","name":"Taubersberg","lat":49.5115308,"lon":8.0760733,"elevationM":null},{"id":"node:6496434515","kind":"peak","name":"Kalvarienberg","lat":49.4478177,"lon":8.5388748,"elevationM":107},{"id":"node:6568226026","kind":"peak","name":"Mittelberg","lat":49.4916013,"lon":8.098299,"elevationM":396},{"id":"node:6694202659","kind":"peak","name":"Leiterberg","lat":49.4559488,"lon":8.7937832,"elevationM":null},{"id":"node:6694202660","kind":"peak","name":"Röschberg","lat":49.4840464,"lon":8.7652981,"elevationM":534},{"id":"node:6694202661","kind":"peak","name":"Lockersberg","lat":49.4794041,"lon":8.7801146,"elevationM":null},{"id":"node:6738731006","kind":"peak","name":"Mönchskappe","lat":49.4689749,"lon":8.0723808,"elevationM":450},{"id":"node:6783673425","kind":"peak","name":"Heidelberg","lat":49.2935515,"lon":8.0946625,"elevationM":338},{"id":"node:6783685336","kind":"peak","name":"Werderberg","lat":49.287147,"lon":8.094203,"elevationM":349},{"id":"node:6984993481","kind":"peak","name":"Schwalbeneck","lat":49.3762708,"lon":8.1056546,"elevationM":428},{"id":"node:7024475703","kind":"peak","name":"Rotsteiger Kopf","lat":49.4119162,"lon":8.1075902,"elevationM":399},{"id":"node:7150425705","kind":"peak","name":"Stupfelberg","lat":49.3132527,"lon":8.7250695,"elevationM":220},{"id":"node:7159542329","kind":"peak","name":"Moosberg","lat":49.8470162,"lon":8.6632249,"elevationM":225},{"id":"node:7294376219","kind":"peak","name":"Schanzenberg","lat":49.3864184,"lon":8.0388513,"elevationM":363},{"id":"node:7468189758","kind":"peak","name":"491","lat":49.4725792,"lon":8.7694502,"elevationM":null},{"id":"node:7468222180","kind":"peak","name":"Leichtersberg","lat":49.4705748,"lon":8.7316391,"elevationM":398},{"id":"node:7492630500","kind":"peak","name":"Galgenberg","lat":49.2824761,"lon":8.9485144,"elevationM":null},{"id":"node:7492630502","kind":"peak","name":"Hängberg","lat":49.2814438,"lon":8.9152658,"elevationM":null},{"id":"node:7492630503","kind":"peak","name":"Waßenbuckel","lat":49.2823362,"lon":8.9267349,"elevationM":null},{"id":"node:7492677865","kind":"peak","name":"Schwarzer Berg","lat":49.2644861,"lon":8.938247,"elevationM":279},{"id":"node:7549703856","kind":"peak","name":"Hessenbuckel","lat":49.4649454,"lon":8.5007272,"elevationM":null},{"id":"node:7629044647","kind":"peak","name":"Liebfrauenbuckel","lat":49.6397518,"lon":8.3692667,"elevationM":null},{"id":"node:7686955615","kind":"peak","name":"Rauenstein","lat":49.7206411,"lon":8.7460957,"elevationM":454},{"id":"node:7920248017","kind":"peak","name":"Frankenberg","lat":49.2774263,"lon":8.0372433,"elevationM":557},{"id":"node:7945803450","kind":"peak","name":"Vatzenberg","lat":49.5793304,"lon":8.8256866,"elevationM":452},{"id":"node:7952070091","kind":"peak","name":"Paulusberg","lat":49.4873203,"lon":8.5325935,"elevationM":108},{"id":"node:7978668562","kind":"peak","name":"Hilsigbuckel","lat":49.6305359,"lon":8.8345316,"elevationM":475},{"id":"node:7978668563","kind":"peak","name":"Hardt","lat":49.621301,"lon":8.8357523,"elevationM":435},{"id":"node:8072475640","kind":"peak","name":"Menschenkopf","lat":49.5689642,"lon":8.8906095,"elevationM":428},{"id":"node:8149907734","kind":"peak","name":"Roter Berg","lat":49.6805416,"lon":8.8689654,"elevationM":333},{"id":"node:8152154190","kind":"peak","name":"Pfeffersberg","lat":49.6999349,"lon":8.857139,"elevationM":316},{"id":"node:8152154191","kind":"peak","name":"Leimberg","lat":49.6998761,"lon":8.8510501,"elevationM":263},{"id":"node:8152235011","kind":"peak","name":"Klössbuckel","lat":49.6963744,"lon":8.8390867,"elevationM":367},{"id":"node:8152235012","kind":"peak","name":"Schmelzbuckel","lat":49.6915433,"lon":8.8366465,"elevationM":365},{"id":"node:8152235013","kind":"peak","name":"Range","lat":49.6839663,"lon":8.8403881,"elevationM":410},{"id":"node:8162267055","kind":"peak","name":"Stutz","lat":49.6882413,"lon":8.8940907,"elevationM":465},{"id":"node:8199163818","kind":"peak","name":"Hallenstrich","lat":49.5802628,"lon":8.8391323,"elevationM":512},{"id":"node:8223174744","kind":"peak","name":"Finkenberg","lat":49.5381439,"lon":8.9148571,"elevationM":null},{"id":"node:8237684494","kind":"peak","name":"Sodabuckel","lat":49.6047734,"lon":8.5190472,"elevationM":null},{"id":"node:8242128189","kind":"peak","name":"Steinkopf","lat":49.6797027,"lon":8.8549608,"elevationM":331},{"id":"node:8259999706","kind":"peak","name":"Schorschberg","lat":49.8090081,"lon":8.994054,"elevationM":null},{"id":"node:8281723700","kind":"peak","name":"Blösenberg","lat":49.3178713,"lon":8.8301307,"elevationM":210},{"id":"node:8344914375","kind":"peak","name":"Burzelberg","lat":49.8282325,"lon":8.968221,"elevationM":352},{"id":"node:8381312758","kind":"peak","name":"Ölmühlenkopf","lat":49.0621273,"lon":8.8317847,"elevationM":null},{"id":"node:8437700546","kind":"peak","name":"Pechsteinkopf","lat":49.4260533,"lon":8.1616608,"elevationM":355},{"id":"node:8600112352","kind":"peak","name":"Rathsberg","lat":49.4924176,"lon":8.5297559,"elevationM":null},{"id":"node:8613174157","kind":"peak","name":"Tabor","lat":49.8265272,"lon":8.6420824,"elevationM":null},{"id":"node:8857280415","kind":"peak","name":"Kreuzberg","lat":49.4866949,"lon":8.9996159,"elevationM":null},{"id":"node:9072640565","kind":"peak","name":"Kaiserberg","lat":49.8334158,"lon":8.7143441,"elevationM":257},{"id":"node:9182873730","kind":"peak","name":"Hungerbuckel","lat":49.4593548,"lon":8.9785214,"elevationM":null},{"id":"node:9271806148","kind":"peak","name":"Pfadberg","lat":49.0686429,"lon":8.5698716,"elevationM":251},{"id":"node:9354870411","kind":"peak","name":"Erlenberg","lat":49.3846071,"lon":8.1461853,"elevationM":349},{"id":"node:9471599685","kind":"peak","name":"Fockenberg","lat":49.587834,"lon":8.7819735,"elevationM":384},{"id":"node:9474152485","kind":"peak","name":"Steinberg","lat":49.5034959,"lon":8.7223991,"elevationM":429},{"id":"node:9483576753","kind":"peak","name":"Röther Berg","lat":49.790338,"lon":8.139646,"elevationM":181},{"id":"node:9483576754","kind":"peak","name":"Galgenberg","lat":49.7642134,"lon":8.1324031,"elevationM":250},{"id":"node:9487658100","kind":"peak","name":"Rotzenberg","lat":49.5557627,"lon":8.8089895,"elevationM":512},{"id":"node:9492744946","kind":"peak","name":"Götzenstein","lat":49.5531388,"lon":8.7705892,"elevationM":522},{"id":"node:9717244371","kind":"peak","name":"Sarg","lat":49.4435112,"lon":8.9862663,"elevationM":497},{"id":"node:9717575282","kind":"peak","name":"Einspacher Höhe","lat":49.8409622,"lon":8.7587482,"elevationM":263},{"id":"node:9785237422","kind":"peak","name":"Bocksberg","lat":49.4538601,"lon":8.9674132,"elevationM":374},{"id":"node:9863895515","kind":"peak","name":"Wilbrandhöhe","lat":49.8401773,"lon":8.6667031,"elevationM":235},{"id":"node:9976572933","kind":"peak","name":"Spitzenberg","lat":49.057888,"lon":8.9335316,"elevationM":276},{"id":"node:10006374150","kind":"peak","name":"Edinger Rodelhügel","lat":49.4422915,"lon":8.6036277,"elevationM":110},{"id":"node:10086507162","kind":"peak","name":"Kirchberg","lat":49.4874513,"lon":8.5374827,"elevationM":108},{"id":"node:10101479421","kind":"peak","name":"Saulochköpfchen","lat":49.4010523,"lon":8.118013,"elevationM":477},{"id":"node:10164918720","kind":"peak","name":"Geißberg","lat":49.4984,"lon":8.794943,"elevationM":517},{"id":"node:10164955946","kind":"peak","name":"Flockenbusch","lat":49.5025722,"lon":8.8653154,"elevationM":511},{"id":"node:10177747717","kind":"peak","name":"Weihwesel","lat":49.6411888,"lon":8.8397757,"elevationM":507},{"id":"node:10253667394","kind":"peak","name":"Schleifberg","lat":49.8177675,"lon":8.6747174,"elevationM":195},{"id":"node:10253726767","kind":"peak","name":"Büchelsberg","lat":49.8254024,"lon":8.6720407,"elevationM":216},{"id":"node:10289568182","kind":"peak","name":"Wellberg","lat":49.5682758,"lon":8.7791497,"elevationM":null},{"id":"node:10300044414","kind":"peak","name":"Hammelberg","lat":49.6206947,"lon":8.8496632,"elevationM":491},{"id":"node:10300678443","kind":"peak","name":"Grähberg","lat":49.4823643,"lon":8.0894173,"elevationM":480},{"id":"node:10302392830","kind":"peak","name":"Harsberg","lat":49.4806905,"lon":8.0465692,"elevationM":433},{"id":"node:10302584674","kind":"peak","name":"Ameisenkopf","lat":49.4685217,"lon":8.0813114,"elevationM":459},{"id":"node:10304205950","kind":"peak","name":"Kanzel","lat":49.3177409,"lon":8.0913624,"elevationM":533},{"id":"node:10541918655","kind":"peak","name":"Oberscheid","lat":49.3268987,"lon":8.0553376,"elevationM":582},{"id":"node:10558823604","kind":"peak","name":"Westergiebel","lat":49.7284378,"lon":8.7650324,"elevationM":555},{"id":"node:10558840071","kind":"peak","name":"Gehrenstein","lat":49.7257052,"lon":8.758638,"elevationM":526},{"id":"node:10582818470","kind":"peak","name":"Löschberg","lat":49.0125006,"lon":8.6877964,"elevationM":270},{"id":"node:10582818471","kind":"peak","name":"Schlohberg","lat":49.0266598,"lon":8.6360882,"elevationM":257},{"id":"node:10582818472","kind":"peak","name":"Hammberg","lat":49.0571097,"lon":8.7383231,"elevationM":266},{"id":"node:10585154354","kind":"peak","name":"Lugenberg","lat":49.0166489,"lon":8.638376,"elevationM":266},{"id":"node:10585206011","kind":"peak","name":"Kälberberg","lat":49.0200479,"lon":8.668923,"elevationM":265},{"id":"node:10701251159","kind":"peak","name":"Rotsteig","lat":49.4923414,"lon":8.1450105,"elevationM":304},{"id":"node:10800177795","kind":"peak","name":"Wieselesberg","lat":49.0122618,"lon":8.6733227,"elevationM":250},{"id":"node:10928591073","kind":"peak","name":"Gauberg","lat":49.9212822,"lon":8.2786168,"elevationM":212},{"id":"node:10976499185","kind":"peak","name":"Hohberg","lat":49.5354255,"lon":8.8541588,"elevationM":null},{"id":"node:10976505406","kind":"peak","name":"Schötzenberg","lat":49.5427454,"lon":8.8452408,"elevationM":496},{"id":"node:10976527363","kind":"peak","name":"Hasselrain","lat":49.5300688,"lon":8.8854063,"elevationM":452},{"id":"node:11001736850","kind":"peak","name":"Schard","lat":49.6214635,"lon":8.8123677,"elevationM":535},{"id":"node:11015700182","kind":"peak","name":"Köhlerswald","lat":49.4810707,"lon":8.7621359,"elevationM":532},{"id":"node:11015707690","kind":"peak","name":"Pfarrwaldkopf","lat":49.458459,"lon":8.7770438,"elevationM":519},{"id":"node:11015709741","kind":"peak","name":"Geigersheide","lat":49.456843,"lon":8.757669,"elevationM":537},{"id":"node:11027213480","kind":"peak","name":"Greiner Eck","lat":49.4558452,"lon":8.8323129,"elevationM":503},{"id":"node:11066810043","kind":"peak","name":"Kreuzberg","lat":49.6026271,"lon":8.6727226,"elevationM":340},{"id":"node:11113476825","kind":"peak","name":"Sensbacher Höhe","lat":49.5455598,"lon":8.9947707,"elevationM":558},{"id":"node:11212542740","kind":"peak","name":"Hühnereck","lat":49.5699498,"lon":8.8117678,"elevationM":464},{"id":"node:11512382447","kind":"peak","name":"Vorderer Langenberg","lat":49.4148723,"lon":8.1276728,"elevationM":546},{"id":"node:11512398075","kind":"peak","name":"Zimmerberg","lat":49.41032,"lon":8.1132118,"elevationM":442},{"id":"node:11539723444","kind":"peak","name":"Wißberg","lat":49.8544737,"lon":8.0237981,"elevationM":270},{"id":"node:11767485196","kind":"peak","name":"Rödersberg","lat":49.8370799,"lon":8.7650845,"elevationM":266},{"id":"node:11767485215","kind":"peak","name":"Schloßberg","lat":49.8067036,"lon":8.7414526,"elevationM":280},{"id":"node:11953449068","kind":"peak","name":"Galgenhöhe","lat":49.5625305,"lon":8.817738,"elevationM":456},{"id":"node:11955205939","kind":"peak","name":"Geisberg","lat":49.5612434,"lon":8.8323634,"elevationM":431},{"id":"node:11989535951","kind":"peak","name":"Knöll","lat":49.8130615,"lon":8.8018845,"elevationM":241},{"id":"node:12070319752","kind":"peak","name":"Salweidenkopf","lat":49.4046573,"lon":8.0586672,"elevationM":552},{"id":"node:12122454098","kind":"peak","name":"Spiesberg","lat":49.4886664,"lon":8.1604117,"elevationM":254},{"id":"node:12122454099","kind":"peak","name":"Spielberg","lat":49.4765459,"lon":8.1706364,"elevationM":182},{"id":"node:12125808172","kind":"peak","name":"Rehberg","lat":49.3995132,"lon":8.1542379,"elevationM":335},{"id":"node:12125808173","kind":"peak","name":"Hartenberg","lat":49.3960516,"lon":8.1586392,"elevationM":332},{"id":"node:12125808174","kind":"peak","name":"Sommerberg","lat":49.3958666,"lon":8.1494712,"elevationM":346},{"id":"node:12125808175","kind":"peak","name":"Kehrberg","lat":49.3981762,"lon":8.1435919,"elevationM":378},{"id":"node:12129328390","kind":"peak","name":"Zigeunerkopf","lat":49.3839153,"lon":8.0290695,"elevationM":423},{"id":"node:12132686387","kind":"peak","name":"Kreuzberg","lat":49.3844261,"lon":8.080536,"elevationM":492},{"id":"node:12135916406","kind":"peak","name":"Mittlerer Stoppelkopf","lat":49.3998826,"lon":8.0833814,"elevationM":516},{"id":"node:12239615558","kind":"peak","name":"Steinberg","lat":49.4032392,"lon":8.0637698,"elevationM":555},{"id":"node:12287864963","kind":"peak","name":"Güttersbacher Höhe","lat":49.7447483,"lon":8.8344052,"elevationM":256},{"id":"node:12553806668","kind":"peak","name":"Bretterkopf","lat":49.4444244,"lon":8.1202614,"elevationM":420},{"id":"node:12553824100","kind":"peak","name":"Dreispitz","lat":49.4436648,"lon":8.0991366,"elevationM":462},{"id":"node:12677528575","kind":"peak","name":"Kellerberg","lat":49.819418,"lon":8.5024704,"elevationM":null},{"id":"node:13013983757","kind":"peak","name":"Geiersberg","lat":49.8156281,"lon":8.0798382,"elevationM":230},{"id":"node:13408802351","kind":"peak","name":"Kuhbuckel","lat":49.5247078,"lon":8.507602,"elevationM":103},{"id":"node:13436112657","kind":"peak","name":"Stüterkopf","lat":49.4363798,"lon":8.0339251,"elevationM":486},{"id":"node:13524211838","kind":"peak","name":"Windmühlenberg","lat":49.0206143,"lon":8.3351922,"elevationM":null},{"id":"node:13532756829","kind":"peak","name":"Weissenberg","lat":49.4163899,"lon":8.0773187,"elevationM":503},{"id":"node:13533480568","kind":"peak","name":"Michelsberg","lat":49.4714041,"lon":8.1719852,"elevationM":152},{"id":"node:13618223301","kind":"peak","name":"Bitternell","lat":49.5435856,"lon":8.1233203,"elevationM":336},{"id":"node:13645817574","kind":"peak","name":"Walterskopf","lat":49.2839773,"lon":8.0028309,"elevationM":569},{"id":"node:13672036040","kind":"peak","name":"Plankenberg","lat":49.4209909,"lon":8.1041041,"elevationM":532},{"id":"node:13704160968","kind":"peak","name":"Waldberg","lat":49.4095442,"lon":8.1621288,"elevationM":343},{"id":"node:13704213433","kind":"peak","name":"Mittelberg","lat":49.4039754,"lon":8.1338792,"elevationM":477}]}