{"tileKey":"la_p65_lo_m167","version":"v1-1775891056926","entries":[{"id":"node:5609871196","kind":"peak","name":"Red Mountain","lat":65.3587864,"lon":-166.4097405,"elevationM":1380},{"id":"node:7359535741","kind":"peak","name":"East Peak","lat":65.9263833,"lon":-166.194048,"elevationM":null},{"id":"node:7359535750","kind":"peak","name":"Ears Peak","lat":65.9251525,"lon":-166.2320152,"elevationM":689},{"id":"node:7359535751","kind":"peak","name":"West Peaa","lat":65.921061,"lon":-166.245632,"elevationM":710},{"id":"node:11252354642","kind":"peak","name":"North Hill","lat":65.9416786,"lon":-166.2066222,"elevationM":null},{"id":"node:11660575753","kind":"peak","name":"Deese Creek Dome","lat":65.1832315,"lon":-166.2373654,"elevationM":336},{"id":"node:11660575763","kind":"peak","name":"Eva Mountain","lat":65.360691,"lon":-166.1438601,"elevationM":365},{"id":"node:11660873174","kind":"peak","name":"Coyote Creek Dome","lat":65.1945955,"lon":-166.3623781,"elevationM":206},{"id":"node:11660873179","kind":"peak","name":"Mukacharni Mountain","lat":65.3568035,"lon":-166.1920731,"elevationM":435},{"id":"node:11660873180","kind":"peak","name":"Black Mountain","lat":65.4966561,"lon":-166.6640545,"elevationM":571}]}