{"tileKey":"la_p59_lo_p144","version":"v1-1775891056926","entries":[{"id":"node:3673781367","kind":"peak","name":"Валетная гора","lat":59.7828823,"lon":144.5269176,"elevationM":null},{"id":"node:3673781368","kind":"peak","name":"Ветреная гора","lat":59.7689053,"lon":144.8649696,"elevationM":null},{"id":"node:3673781369","kind":"peak","name":"Высокая гора","lat":59.895815,"lon":144.8451422,"elevationM":null},{"id":"node:3673781370","kind":"peak","name":"Зелёная гора","lat":59.6952122,"lon":144.0280818,"elevationM":null},{"id":"node:3673781371","kind":"peak","name":"Командная гора","lat":59.6556473,"lon":144.0525574,"elevationM":null},{"id":"node:3673781372","kind":"peak","name":"Междуречная гора","lat":59.9358704,"lon":144.7207351,"elevationM":null},{"id":"node:3673781373","kind":"peak","name":"Окружная гора","lat":59.7713377,"lon":144.4033071,"elevationM":null},{"id":"node:3673781374","kind":"peak","name":"Острая гора","lat":59.8253054,"lon":144.430454,"elevationM":null},{"id":"node:3673781375","kind":"peak","name":"Перевальная гора","lat":59.9559465,"lon":144.2197794,"elevationM":null},{"id":"node:3673781376","kind":"peak","name":"Плоская гора","lat":59.9306504,"lon":144.0723558,"elevationM":null},{"id":"node:3673781377","kind":"peak","name":"Подкаменная гора","lat":59.4513792,"lon":144.6331952,"elevationM":null},{"id":"node:3673781378","kind":"peak","name":"Скалистая гора","lat":59.8646557,"lon":144.0434299,"elevationM":null},{"id":"node:3673781379","kind":"peak","name":"Скальная гора","lat":59.9723222,"lon":144.5009918,"elevationM":null},{"id":"node:3673781380","kind":"peak","name":"Снежная гора","lat":59.898365,"lon":144.477377,"elevationM":null},{"id":"node:3673781381","kind":"peak","name":"Южная гора","lat":59.5661635,"lon":144.9888476,"elevationM":null},{"id":"node:3673781382","kind":"peak","name":"гора Алагля","lat":59.696965,"lon":144.9886844,"elevationM":null},{"id":"node:3673781383","kind":"peak","name":"гора Ветряный Камушек","lat":59.4186317,"lon":144.2344023,"elevationM":null},{"id":"node:3673781384","kind":"peak","name":"гора Восточный Зуб","lat":59.4103389,"lon":144.3740141,"elevationM":null},{"id":"node:3673781385","kind":"peak","name":"гора Джангы","lat":59.8931502,"lon":144.5424137,"elevationM":null},{"id":"node:3673781387","kind":"peak","name":"гора Дунькина","lat":59.4232803,"lon":144.3989394,"elevationM":null},{"id":"node:3673781388","kind":"peak","name":"гора Игарка","lat":59.6486152,"lon":144.6983171,"elevationM":null},{"id":"node:3673781389","kind":"peak","name":"гора Кадар","lat":59.7436653,"lon":144.7875557,"elevationM":null},{"id":"node:3673781390","kind":"peak","name":"гора Калра","lat":59.8325849,"lon":144.5556348,"elevationM":null},{"id":"node:3673781391","kind":"peak","name":"гора Нгэку","lat":59.580344,"lon":144.6791214,"elevationM":null},{"id":"node:3673781392","kind":"peak","name":"гора Нюлк","lat":59.6185284,"lon":144.5830332,"elevationM":null},{"id":"node:3673781393","kind":"peak","name":"гора Ой","lat":59.6146765,"lon":144.4367793,"elevationM":null},{"id":"node:3673781394","kind":"peak","name":"гора Порока","lat":59.8660682,"lon":144.1533378,"elevationM":null},{"id":"node:3673781395","kind":"peak","name":"гора Тумусах","lat":59.8450819,"lon":144.9756468,"elevationM":null},{"id":"node:3673781396","kind":"peak","name":"гора Ульберикан","lat":59.5227225,"lon":144.1455096,"elevationM":null},{"id":"node:3673781397","kind":"peak","name":"гора Урэ","lat":59.6742937,"lon":144.2991606,"elevationM":null},{"id":"node:3673781398","kind":"peak","name":"гора Хилир","lat":59.5333921,"lon":144.5933216,"elevationM":null},{"id":"node:3673781399","kind":"peak","name":"гора Хопкэн","lat":59.6825309,"lon":144.574116,"elevationM":null},{"id":"node:3673781400","kind":"peak","name":"гора Хопкэнчэн","lat":59.4750132,"lon":144.5548663,"elevationM":null},{"id":"node:3673781401","kind":"peak","name":"гора Эвури","lat":59.947053,"lon":144.430886,"elevationM":null},{"id":"node:3717571534","kind":"peak","name":"гора Эйле","lat":59.6371569,"lon":144.3270035,"elevationM":null},{"id":"node:3717577247","kind":"peak","name":"гора Игарна","lat":59.7147732,"lon":144.1375035,"elevationM":null}]}