{"tileKey":"la_p17_lo_p34","version":"v1-1775891056926","entries":[{"id":"node:6135466794","kind":"peak","name":"sharareet mountain","lat":17.6878747,"lon":34.8512853,"elevationM":null},{"id":"node:7731288981","kind":"peak","name":"Qal‘at Ḩāmid","lat":17.033333,"lon":34.15,"elevationM":null},{"id":"node:7731290310","kind":"peak","name":"Jabal ‘Abdān","lat":17.15,"lon":34.383333,"elevationM":null},{"id":"node:7731290311","kind":"peak","name":"Jabal Laterba","lat":17.3,"lon":34.166667,"elevationM":null},{"id":"node:7731290329","kind":"peak","name":"Qal‘at Garatit","lat":17.216667,"lon":34.166667,"elevationM":null},{"id":"node:7731291898","kind":"peak","name":"Jebel Suit","lat":17.196667,"lon":34.0975,"elevationM":null},{"id":"node:7731291949","kind":"peak","name":"Jabal Ogrein","lat":17.683333,"lon":34.849722,"elevationM":null},{"id":"node:7731292846","kind":"peak","name":"Jabal Siyeteb","lat":17.9930931,"lon":34.9738902,"elevationM":625}]}