{"tileKey":"la_p16_lo_p23","version":"v1-1775891056926","entries":[{"id":"node:3104088473","kind":"peak","name":"Hadjer Houmégoulema","lat":16.027916,"lon":23.1469444,"elevationM":null},{"id":"node:7721349073","kind":"peak","name":"Kasèra Manga","lat":16.034567,"lon":23.425228,"elevationM":null},{"id":"node:7721349078","kind":"peak","name":"Akoubé","lat":16.544981,"lon":23.890663,"elevationM":null},{"id":"node:7721349099","kind":"peak","name":"Kéténa Séna","lat":16.757681,"lon":23.025613,"elevationM":null},{"id":"node:7721349100","kind":"peak","name":"Hadjer Habili Djinga","lat":16.4,"lon":23.083333,"elevationM":null},{"id":"node:7721349101","kind":"peak","name":"Hadjer Ouori","lat":16.837655,"lon":23.525328,"elevationM":null},{"id":"node:7721349102","kind":"peak","name":"Natoué","lat":16.75,"lon":23.083333,"elevationM":null},{"id":"node:7721875636","kind":"peak","name":"Hadjer Borbéri","lat":16.067824,"lon":23.092999,"elevationM":null},{"id":"node:7721875639","kind":"peak","name":"Toukou","lat":16.984948,"lon":23.018509,"elevationM":null},{"id":"node:7721875647","kind":"peak","name":"Neo","lat":16.958204,"lon":23.884674,"elevationM":null},{"id":"node:7721875648","kind":"peak","name":"Hadjer Tégroba","lat":16.933688,"lon":23.3053826,"elevationM":null},{"id":"node:7721875654","kind":"peak","name":"Géhuchi","lat":16.335102,"lon":23.336503,"elevationM":null},{"id":"node:7721875668","kind":"peak","name":"Hadjer Oho","lat":16.732306,"lon":23.047207,"elevationM":null},{"id":"node:7721875669","kind":"peak","name":"Koinékei","lat":16.497345,"lon":23.050782,"elevationM":null},{"id":"node:7721875670","kind":"peak","name":"Habili-Manga","lat":16.355358,"lon":23.166369,"elevationM":null},{"id":"node:7721875671","kind":"peak","name":"Hadjer Takoa","lat":16.6235,"lon":23.550981,"elevationM":null},{"id":"node:7721875672","kind":"peak","name":"Barané","lat":16.28427,"lon":23.40777,"elevationM":null},{"id":"node:7721875673","kind":"peak","name":"Hadjer Sini","lat":16.635777,"lon":23.393038,"elevationM":null},{"id":"node:7721875674","kind":"peak","name":"Tougouni","lat":16.659767,"lon":23.245915,"elevationM":null},{"id":"node:7721875683","kind":"peak","name":"Hadjer Serde China","lat":16.843268,"lon":23.759774,"elevationM":null}]}