{"tileKey":"la_p53_lo_m56","version":"v1-1775891056926","entries":[{"id":"node:7283428980","kind":"peak","name":"Old Head","lat":53.4855272,"lon":-55.8103323,"elevationM":null},{"id":"node:7283428981","kind":"peak","name":"Herring Cove Hill","lat":53.4689895,"lon":-55.7605237,"elevationM":null},{"id":"node:7283428982","kind":"peak","name":"Big Hill","lat":53.46951,"lon":-55.7654858,"elevationM":null},{"id":"node:7283428983","kind":"peak","name":"Normans Hill","lat":53.4625771,"lon":-55.7609528,"elevationM":null},{"id":"node:7283428984","kind":"peak","name":"James Hill","lat":53.4571187,"lon":-55.7597405,"elevationM":null},{"id":"node:7283442385","kind":"peak","name":"Snowy Hill","lat":53.4248588,"lon":-55.8818829,"elevationM":null},{"id":"node:7283442386","kind":"peak","name":"The Sisters","lat":53.4091481,"lon":-55.8397508,"elevationM":null},{"id":"node:7283442387","kind":"peak","name":"Round Hill","lat":53.4153385,"lon":-55.7930589,"elevationM":null},{"id":"node:7283442388","kind":"peak","name":"Inside Big Hill","lat":53.4111115,"lon":-55.7867289,"elevationM":null},{"id":"node:7283442389","kind":"peak","name":"Outside Big Hill","lat":53.4071463,"lon":-55.7821477,"elevationM":null},{"id":"node:7283442390","kind":"peak","name":"Porters Head","lat":53.3334678,"lon":-55.8029348,"elevationM":null},{"id":"node:7283442391","kind":"peak","name":"Sugarloaf","lat":53.2159386,"lon":-55.7291418,"elevationM":null}]}