{"tileKey":"la_p43_lo_m99","version":"v1-1775891056926","entries":[{"id":"node:357080782","kind":"peak","name":"Archer Hill","lat":43.8163829,"lon":-98.675923,"elevationM":513},{"id":"node:357081989","kind":"peak","name":"Devils Grave Hill","lat":43.1188865,"lon":-98.9942581,"elevationM":600},{"id":"node:357088136","kind":"peak","name":"Sunrise Hill","lat":43.0761057,"lon":-98.569527,"elevationM":415},{"id":"node:357099672","kind":"peak","name":"Took Tay Hill","lat":43.3013842,"lon":-98.866753,"elevationM":592},{"id":"node:11369596807","kind":"peak","name":"Scalp Butte","lat":43.0831594,"lon":-98.7536582,"elevationM":null}]}