{"tileKey":"la_p62_lo_m145","version":"v1-1775891056926","entries":[{"id":"node:4516484299","kind":"peak","name":"The Dome","lat":62.8066638,"lon":-144.0894603,"elevationM":1252},{"id":"node:4525707799","kind":"volcano","name":"Mount Sanford","lat":62.213889,"lon":-144.128889,"elevationM":4949},{"id":"node:4526208281","kind":"peak","name":"Mount Zanetti","lat":62.0385366,"lon":-144.1108783,"elevationM":3965},{"id":"node:4526208282","kind":"volcano","name":"Mount Wrangell","lat":62.0058333,"lon":-144.0194444,"elevationM":4317},{"id":"node:4535213487","kind":"volcano","name":"Mount Drum","lat":62.1161772,"lon":-144.6368269,"elevationM":3661},{"id":"node:4535213488","kind":"peak","name":"Snider Peak","lat":62.0687131,"lon":-144.6298317,"elevationM":2525},{"id":"node:11661593361","kind":"peak","name":"Ruddy Mountain","lat":62.0882072,"lon":-144.7664397,"elevationM":2274},{"id":"node:11661593367","kind":"peak","name":"Nathlie Mountain","lat":62.1473915,"lon":-144.4088937,"elevationM":2108},{"id":"node:11661595372","kind":"peak","name":"Capital Mountain","lat":62.4235392,"lon":-144.1139572,"elevationM":2274}]}