{"tileKey":"la_p44_lo_p147","version":"v1-1775891056926","entries":[{"id":"node:1642980821","kind":"volcano","name":"Атсонупури","lat":44.8077041,"lon":147.1274786,"elevationM":1205},{"id":"node:1642980822","kind":"volcano","name":"Стокап","lat":44.8395349,"lon":147.3497353,"elevationM":1634},{"id":"node:1643058642","kind":"peak","name":"Медвежонок","lat":44.9371031,"lon":147.4638159,"elevationM":882},{"id":"node:3528626409","kind":"peak","name":"Буревестник","lat":44.8765942,"lon":147.4592268,"elevationM":1424},{"id":"node:7986955022","kind":"peak","name":"Стокап (вершина)","lat":44.8392791,"lon":147.3445095,"elevationM":1634},{"id":"node:7987086492","kind":"peak","name":"Атсонупури (вершина)","lat":44.8075439,"lon":147.1307363,"elevationM":1205},{"id":"node:7987086507","kind":"peak","name":"гора Малеева","lat":44.6613106,"lon":147.2142421,"elevationM":672},{"id":"node:9659592114","kind":"peak","name":"Ребуншири","lat":44.9732977,"lon":147.7997204,"elevationM":789},{"id":"node:11190795447","kind":"peak","name":"Пирог","lat":44.9963705,"lon":147.7666198,"elevationM":291},{"id":"node:11191225378","kind":"peak","name":"Мотонопури","lat":44.9928667,"lon":147.8374945,"elevationM":956},{"id":"node:11194444402","kind":"peak","name":"Клинок","lat":44.6252024,"lon":147.1544673,"elevationM":745},{"id":"node:11194520040","kind":"peak","name":"Голубка","lat":44.5856332,"lon":147.166394,"elevationM":910}]}