{"tileKey":"la_p64_lo_m51","version":"v1-1775891056926","entries":[{"id":"node:2057705814","kind":"peak","name":"Kinaussak","lat":64.45,"lon":-50.5166667,"elevationM":1630},{"id":"node:2059718219","kind":"peak","name":"Qajuuttaa","lat":64.2251722,"lon":-50.8774694,"elevationM":1254},{"id":"node:3239970801","kind":"peak","name":"Sulussugutaasaasaq","lat":64.1561387,"lon":-50.9578898,"elevationM":814},{"id":"node:3241289577","kind":"peak","name":"Qaqarssuaq","lat":64.2790193,"lon":-50.9315915,"elevationM":1360},{"id":"node:3241320842","kind":"peak","name":"Sagdliata","lat":64.3650061,"lon":-50.9159703,"elevationM":1400},{"id":"node:3241367605","kind":"peak","name":"Pingo","lat":64.3713181,"lon":-50.7195897,"elevationM":810},{"id":"node:3241374397","kind":"peak","name":"Kuanit Qaqat","lat":64.2348619,"lon":-50.7779546,"elevationM":1200},{"id":"node:3241397666","kind":"peak","name":"Norsana","lat":64.2629859,"lon":-50.6896785,"elevationM":1340},{"id":"node:3241404010","kind":"peak","name":"Aqajamerngit gulat","lat":64.2905506,"lon":-50.6100912,"elevationM":1260},{"id":"node:3241408465","kind":"peak","name":"Quagssugarssuaq","lat":64.3654622,"lon":-50.5490717,"elevationM":970},{"id":"node:3241412003","kind":"peak","name":"Aputitoq","lat":64.3407815,"lon":-50.2842192,"elevationM":1137},{"id":"node:3241415331","kind":"peak","name":"Aputitooq","lat":64.3732395,"lon":-50.2463097,"elevationM":800},{"id":"node:3241419065","kind":"peak","name":"Pingu","lat":64.4238044,"lon":-50.252904,"elevationM":470},{"id":"node:3241423223","kind":"peak","name":"Niiggu","lat":64.4330487,"lon":-50.0879298,"elevationM":961}]}