{"tileKey":"la_p11_lo_m65","version":"v1-1775891056926","entries":[{"id":"node:5535997499","kind":"peak","name":"Cerro Solaya","lat":11.0694447,"lon":-64.2180491,"elevationM":null},{"id":"node:5535997500","kind":"peak","name":"Cerro Taguapiral","lat":11.0676969,"lon":-64.231782,"elevationM":null},{"id":"node:5535997501","kind":"peak","name":"Cerro Volantín","lat":11.0568305,"lon":-64.2363739,"elevationM":null},{"id":"node:5535997503","kind":"peak","name":"Morro del Robledal","lat":11.0438892,"lon":-64.3754625,"elevationM":null},{"id":"node:5535997506","kind":"peak","name":"Cerro Guaraguao","lat":11.0037139,"lon":-64.2766071,"elevationM":null},{"id":"node:5535997507","kind":"peak","name":"Cerro Macanao","lat":11.0020078,"lon":-64.3157673,"elevationM":null},{"id":"node:10250056325","kind":"peak","name":"Cerro Riso Blanco","lat":11.0035875,"lon":-64.3020988,"elevationM":null},{"id":"node:10250056327","kind":"peak","name":"Cerro El Cedral","lat":11.0105804,"lon":-64.2717362,"elevationM":null},{"id":"node:10250056329","kind":"peak","name":"Cerro Guarataro","lat":11.0113176,"lon":-64.2497206,"elevationM":null},{"id":"node:10250056331","kind":"peak","name":"Cerro El Castillo","lat":11.0118863,"lon":-64.2365456,"elevationM":null},{"id":"node:10250056332","kind":"peak","name":"Topo Taguapiral","lat":11.0495754,"lon":-64.2299795,"elevationM":null},{"id":"node:10250056335","kind":"peak","name":"Loma de Sabana","lat":11.0644854,"lon":-64.2148733,"elevationM":null},{"id":"node:10250056336","kind":"peak","name":"Cerro El Magüey","lat":11.0697711,"lon":-64.1997993,"elevationM":null},{"id":"node:10250056338","kind":"peak","name":"Cerro Toroima","lat":11.078784,"lon":-64.202975,"elevationM":null},{"id":"node:10250056339","kind":"peak","name":"Topo El Infierno","lat":11.0743934,"lon":-64.2160428,"elevationM":null},{"id":"node:10250056344","kind":"peak","name":"Morro de La Carmela","lat":11.0517024,"lon":-64.3348163,"elevationM":null}]}