{"tileKey":"la_p67_lo_p135","version":"v1-1775891056926","entries":[{"id":"node:6253072340","kind":"peak","name":"Кылыяр-Чогура","lat":67.6664813,"lon":135.0996923,"elevationM":573},{"id":"node:6253073015","kind":"peak","name":"Дагына","lat":67.6451901,"lon":135.2015304,"elevationM":496},{"id":"node:8481853870","kind":"peak","name":"Эбиет-Чогура","lat":67.6301646,"lon":135.1269972,"elevationM":null},{"id":"node:8481853872","kind":"peak","name":"Сартахай","lat":67.440175,"lon":135.1808452,"elevationM":null},{"id":"node:8481853873","kind":"peak","name":"Кербенг-Чогура","lat":67.4847353,"lon":135.2431154,"elevationM":null},{"id":"node:8481886657","kind":"peak","name":"Оччугуй-Ынах","lat":67.4956939,"lon":135.1178454,"elevationM":null},{"id":"node:11791881499","kind":"peak","name":"Бёттё","lat":67.127157,"lon":135.9698867,"elevationM":null}]}