{"tileKey":"la_p34_lo_p103","version":"v1-1775891056926","entries":[{"id":"node:4287798945","kind":"peak","name":"姊妹山","lat":34.9176244,"lon":103.7035305,"elevationM":null},{"id":"node:7589965833","kind":"peak","name":"措美峰","lat":34.1903537,"lon":103.4373566,"elevationM":4920},{"id":"node:11226591982","kind":"peak","name":"达杂纳","lat":34.6676644,"lon":103.2061243,"elevationM":null},{"id":"node:12174462356","kind":"peak","name":"贡玛尔喀","lat":34.8425509,"lon":103.1473744,"elevationM":null},{"id":"node:12339390957","kind":"peak","name":"树路那","lat":34.6625256,"lon":103.2526483,"elevationM":null},{"id":"node:12339390958","kind":"peak","name":"若占那","lat":34.6604865,"lon":103.2765492,"elevationM":null},{"id":"node:13001240046","kind":"peak","name":"涅甘达哇","lat":34.2557117,"lon":103.2030498,"elevationM":null},{"id":"node:13001240047","kind":"peak","name":"阿涅地","lat":34.2603778,"lon":103.2055558,"elevationM":null},{"id":"node:13001240048","kind":"peak","name":"朵巴玛巴塞","lat":34.2806098,"lon":103.2227404,"elevationM":null},{"id":"node:13003640145","kind":"peak","name":"吉隆柯","lat":34.0274125,"lon":103.0387711,"elevationM":null},{"id":"node:13359185924","kind":"peak","name":"玉皇阁","lat":34.9412027,"lon":103.7640526,"elevationM":3578}]}