{"tileKey":"la_p64_lo_p11","version":"v1-1775891056926","entries":[{"id":"node:26863138","kind":"peak","name":"Hemnafjellet","lat":64.4161111,"lon":11.2497222,"elevationM":null},{"id":"node:283571187","kind":"peak","name":"Vardeheia","lat":64.0895813,"lon":11.1229786,"elevationM":null},{"id":"node:2354937775","kind":"peak","name":"Pikhaugen","lat":64.129542,"lon":11.4937,"elevationM":null},{"id":"node:2354939615","kind":"peak","name":"Nyhaugen","lat":64.512247,"lon":11.536228,"elevationM":null},{"id":"node:2586987692","kind":"peak","name":"Bjørumsklumpen","lat":64.4705819,"lon":11.496233,"elevationM":114},{"id":"node:3113741067","kind":"peak","name":"Falkhetta","lat":64.8792923,"lon":11.2253064,"elevationM":146},{"id":"node:3113741068","kind":"peak","name":"Gluggfjellet","lat":64.8709474,"lon":11.247786,"elevationM":73},{"id":"node:3113741069","kind":"peak","name":"Middagspålen","lat":64.8572237,"lon":11.2066439,"elevationM":99},{"id":"node:3113741070","kind":"peak","name":"Munken","lat":64.8539028,"lon":11.2057812,"elevationM":null},{"id":"node:4181174606","kind":"peak","name":"Barstadbøla","lat":64.4150864,"lon":11.5836332,"elevationM":448},{"id":"node:4181174607","kind":"peak","name":"Spillumsaksla","lat":64.4421335,"lon":11.5377728,"elevationM":251},{"id":"node:4181174608","kind":"peak","name":"Dugurdsmålsfjellet","lat":64.4421311,"lon":11.559783,"elevationM":442},{"id":"node:4181210791","kind":"peak","name":"Svartfjellet","lat":64.4840474,"lon":11.5251504,"elevationM":247},{"id":"node:5054083975","kind":"peak","name":"Spillumsfjellet","lat":64.4422549,"lon":11.5628743,"elevationM":447},{"id":"node:5578897656","kind":"peak","name":"Mastervikfjellet","lat":64.6262471,"lon":11.4917339,"elevationM":234},{"id":"node:5585943447","kind":"peak","name":"Dyrvadhaugen","lat":64.6197575,"lon":11.4931847,"elevationM":190},{"id":"node:5596892259","kind":"peak","name":"Litlseiertuva","lat":64.6506332,"lon":11.4689433,"elevationM":342},{"id":"node:5596914695","kind":"peak","name":"Seiertuva","lat":64.661825,"lon":11.4798975,"elevationM":416},{"id":"node:5602815084","kind":"peak","name":"450","lat":64.646995,"lon":11.5401614,"elevationM":null},{"id":"node:5602863947","kind":"peak","name":"Svartdalshornet","lat":64.6361877,"lon":11.5648269,"elevationM":369},{"id":"node:5626555541","kind":"peak","name":"Øyensskavlen","lat":64.2802703,"lon":11.0814089,"elevationM":687},{"id":"node:8873192089","kind":"peak","name":"Vattafjellet","lat":64.4646697,"lon":11.4506932,"elevationM":240},{"id":"node:9249008928","kind":"peak","name":"Jønnemsklumpen","lat":64.1597804,"lon":11.4653242,"elevationM":531},{"id":"node:9428214900","kind":"peak","name":"Isbolen","lat":64.1522127,"lon":11.6470447,"elevationM":368}]}