{"tileKey":"la_p55_lo_m161","version":"v1-1775891056926","entries":[{"id":"node:2665369658","kind":"peak","name":"Apollo Mountain","lat":55.1885625,"lon":-160.6137143,"elevationM":497},{"id":"node:2665369855","kind":"peak","name":"Bloomer Peak","lat":55.2090265,"lon":-160.5790001,"elevationM":375},{"id":"node:2665370026","kind":"peak","name":"Red Mountain","lat":55.218164,"lon":-160.6142936,"elevationM":376},{"id":"node:5376599291","kind":"peak","name":"Hunt's Hill","lat":55.1829828,"lon":-160.5080236,"elevationM":null},{"id":"node:11657854405","kind":"peak","name":"Pyramid Mountain","lat":55.6368108,"lon":-160.6797829,"elevationM":879},{"id":"node:11657854407","kind":"peak","name":"Cathedral Peak","lat":55.6088457,"lon":-160.7202793,"elevationM":879},{"id":"node:11657854441","kind":"peak","name":"Eagle Mountain","lat":55.085144,"lon":-160.0432451,"elevationM":514},{"id":"node:11657854444","kind":"peak","name":"Staniukovich Mountain","lat":55.8247627,"lon":-160.6205089,"elevationM":770},{"id":"node:11657854451","kind":"peak","name":"Chichagof Peak","lat":55.7079876,"lon":-160.2088416,"elevationM":1089},{"id":"node:11657854457","kind":"peak","name":"Mount Stepo","lat":55.7169845,"lon":-160.1779268,"elevationM":1130},{"id":"node:11657854463","kind":"peak","name":"Pinnacle Peak","lat":55.7334193,"lon":-160.7442028,"elevationM":809},{"id":"node:11862630937","kind":"peak","name":"Mount Davidson","lat":55.10412,"lon":-160.0386175,"elevationM":469},{"id":"node:12694855105","kind":"peak","name":"Danger Point Peak","lat":55.3433072,"lon":-160.4351405,"elevationM":null}]}