{"tileKey":"la_p52_lo_p26","version":"v1-1775891056926","entries":[{"id":"node:3828721502","kind":"peak","name":"Гульніца","lat":52.0649896,"lon":26.1749727,"elevationM":136},{"id":"node:3893340420","kind":"peak","name":"Найвышэйшы пункт Клецкага раёна","lat":52.930017,"lon":26.6448063,"elevationM":232},{"id":"node:5209063019","kind":"peak","name":"гара Яшукова","lat":52.585369,"lon":26.5483189,"elevationM":158},{"id":"node:5233400996","kind":"peak","name":"Смалігава","lat":52.6440472,"lon":26.5636175,"elevationM":156},{"id":"node:5431881599","kind":"peak","name":"Сігнальная","lat":52.0358879,"lon":26.5986419,"elevationM":143},{"id":"node:5738090393","kind":"peak","name":"Шадрац","lat":52.2074873,"lon":26.9358101,"elevationM":133},{"id":"node:5738090400","kind":"peak","name":"Таболы","lat":52.0228533,"lon":26.2585895,"elevationM":141},{"id":"node:5738090406","kind":"peak","name":"Рабінавая","lat":52.6089318,"lon":26.5247579,"elevationM":159},{"id":"node:5738090414","kind":"peak","name":"Арол","lat":52.1000128,"lon":26.1710433,"elevationM":136},{"id":"node:5738091225","kind":"peak","name":"Лысая","lat":52.0102833,"lon":26.5783833,"elevationM":null},{"id":"node:5738091229","kind":"peak","name":"Лысая","lat":52.0715236,"lon":26.3051941,"elevationM":141},{"id":"node:5738091230","kind":"peak","name":"Лысая","lat":52.2046686,"lon":26.9832612,"elevationM":133},{"id":"node:5738091242","kind":"peak","name":"Казёл","lat":52.2188167,"lon":26.8818754,"elevationM":136},{"id":"node:10086921717","kind":"peak","name":"150","lat":52.5092788,"lon":26.5653089,"elevationM":null},{"id":"node:11691620879","kind":"peak","name":"Орлова","lat":52.583756,"lon":26.5603285,"elevationM":156},{"id":"node:13197840872","kind":"peak","name":"ДЕПО-Б","lat":52.2572657,"lon":26.8134594,"elevationM":null},{"id":"node:13197850414","kind":"peak","name":"ДЕПО-А","lat":52.2526138,"lon":26.8081152,"elevationM":null}]}