{"tileKey":"la_p61_lo_p24","version":"v1-1775891056926","entries":[{"id":"node:217540754","kind":"peak","name":"Vahovuori","lat":61.0611922,"lon":24.6244146,"elevationM":159},{"id":"node:223138785","kind":"peak","name":"Aulangonvuori","lat":61.0221733,"lon":24.4698959,"elevationM":150},{"id":"node:240298021","kind":"peak","name":"Tenholan linnavuori","lat":61.096708,"lon":24.2877411,"elevationM":144},{"id":"node:1881440546","kind":"peak","name":"Töyryvuori","lat":61.7751117,"lon":24.8156473,"elevationM":216},{"id":"node:1981018725","kind":"peak","name":"Lehtisvuori","lat":61.5766096,"lon":24.3492666,"elevationM":172},{"id":"node:2175452030","kind":"peak","name":"Koskenkorvanvuori","lat":61.7404888,"lon":24.5235844,"elevationM":null},{"id":"node:2175452063","kind":"peak","name":"Kamppistenvuori","lat":61.7410568,"lon":24.5110531,"elevationM":null},{"id":"node:2175452282","kind":"peak","name":"Haapalanvuori","lat":61.7438616,"lon":24.5119543,"elevationM":null},{"id":"node:2361230812","kind":"peak","name":"Kaukavuori","lat":61.5146866,"lon":24.1735171,"elevationM":158},{"id":"node:2415920609","kind":"peak","name":"Pälkänevuori","lat":61.4185125,"lon":24.3633891,"elevationM":156},{"id":"node:2474415454","kind":"peak","name":"Kuorikkavuori","lat":61.8963852,"lon":24.8487347,"elevationM":null},{"id":"node:2534818592","kind":"peak","name":"Pärepuukallio","lat":61.2363418,"lon":24.3238131,"elevationM":null},{"id":"node:2875406738","kind":"peak","name":"Hevospierettämänmäki","lat":61.1062125,"lon":24.805303,"elevationM":130},{"id":"node:2880783243","kind":"peak","name":"Laurinkallio","lat":61.1609924,"lon":24.7613582,"elevationM":125},{"id":"node:2894481125","kind":"peak","name":"Kyläkallio","lat":61.1577598,"lon":24.7717902,"elevationM":null},{"id":"node:2895821326","kind":"peak","name":"Valkeankallionmäki","lat":61.1792618,"lon":24.7951978,"elevationM":null},{"id":"node:2895821327","kind":"peak","name":"Kaluvuori","lat":61.1404087,"lon":24.8151612,"elevationM":null},{"id":"node:2895821328","kind":"peak","name":"Vuohikallio","lat":61.1386799,"lon":24.8200595,"elevationM":null},{"id":"node:2895857819","kind":"peak","name":"Rapakallio","lat":61.1628364,"lon":24.7971665,"elevationM":null},{"id":"node:2896250463","kind":"peak","name":"Korkeisvuori","lat":61.1531227,"lon":24.8346737,"elevationM":null},{"id":"node:2897523999","kind":"peak","name":"Kitaruvenkallio","lat":61.1352948,"lon":24.8264658,"elevationM":null},{"id":"node:2903410541","kind":"peak","name":"Persteenmäki","lat":61.0354769,"lon":24.8244987,"elevationM":null},{"id":"node:2903448926","kind":"peak","name":"Junnunkallio","lat":61.0543326,"lon":24.855907,"elevationM":null},{"id":"node:2903467039","kind":"peak","name":"Äijäparanmäki","lat":61.0547166,"lon":24.8420492,"elevationM":140},{"id":"node:2903467174","kind":"peak","name":"Taipaleenmäki","lat":61.0584839,"lon":24.8363319,"elevationM":null},{"id":"node:2903537939","kind":"peak","name":"Saunamäki","lat":61.0785489,"lon":24.8448691,"elevationM":null},{"id":"node:2903538124","kind":"peak","name":"Palaneenmäki","lat":61.0883649,"lon":24.8386541,"elevationM":null},{"id":"node:2903538172","kind":"peak","name":"Ristimäki","lat":61.0900136,"lon":24.8477363,"elevationM":null},{"id":"node:3393444634","kind":"peak","name":"Koskelankorkea","lat":61.7679359,"lon":24.0849987,"elevationM":211},{"id":"node:4785658422","kind":"peak","name":"Korkeusvuori","lat":61.2871615,"lon":24.2117132,"elevationM":162},{"id":"node:4785658519","kind":"peak","name":"Korkeakangas","lat":61.2518913,"lon":24.0921256,"elevationM":null},{"id":"node:4786159851","kind":"peak","name":"Kokovuori","lat":61.3654173,"lon":24.0460796,"elevationM":152},{"id":"node:4786421295","kind":"peak","name":"Hangastenvuori","lat":61.3366385,"lon":24.1840949,"elevationM":118},{"id":"node:4881654180","kind":"peak","name":"Haukiaisenvuori","lat":61.6939255,"lon":24.9763243,"elevationM":null},{"id":"node:4881654203","kind":"peak","name":"Kaatvuori","lat":61.7135439,"lon":24.9545697,"elevationM":null},{"id":"node:4881654204","kind":"peak","name":"Haapavuori","lat":61.7107319,"lon":24.97307,"elevationM":null},{"id":"node:4881654205","kind":"peak","name":"Hirvivuori","lat":61.711229,"lon":24.9797857,"elevationM":null},{"id":"node:4881688612","kind":"peak","name":"Kurkilamminvuori","lat":61.699562,"lon":24.9884146,"elevationM":null},{"id":"node:4881688613","kind":"peak","name":"Lortikanvuoret","lat":61.6970475,"lon":24.9988744,"elevationM":null},{"id":"node:5075936153","kind":"peak","name":"Hinnonmäki","lat":61.1123164,"lon":24.3209672,"elevationM":null},{"id":"node:5088738228","kind":"peak","name":"Metsänkylänvuori","lat":61.0429208,"lon":24.4422736,"elevationM":null},{"id":"node:5341209423","kind":"peak","name":"Kettumäki","lat":61.07541,"lon":24.399733,"elevationM":null},{"id":"node:5345301526","kind":"peak","name":"Karittainmäki","lat":61.0569417,"lon":24.5778127,"elevationM":null},{"id":"node:5345301527","kind":"peak","name":"Hirvikumpu","lat":61.0493016,"lon":24.5669476,"elevationM":null},{"id":"node:5345301528","kind":"peak","name":"Ilamonvuori","lat":61.0521864,"lon":24.5428667,"elevationM":160},{"id":"node:5345302343","kind":"peak","name":"Kymmenvuotiset","lat":61.0451456,"lon":24.5929168,"elevationM":null},{"id":"node:5345302344","kind":"peak","name":"Kerinmäki","lat":61.0476688,"lon":24.6054116,"elevationM":150},{"id":"node:5345302874","kind":"peak","name":"Mäkelänmäki","lat":61.0486441,"lon":24.6301802,"elevationM":null},{"id":"node:5345302875","kind":"peak","name":"Porinmäki","lat":61.0440304,"lon":24.6187636,"elevationM":null},{"id":"node:5345308890","kind":"peak","name":"Sarkonvuori","lat":61.0597967,"lon":24.6387622,"elevationM":null},{"id":"node:5345317797","kind":"peak","name":"Vaivaronmäki","lat":61.0660551,"lon":24.6335383,"elevationM":100},{"id":"node:5345326784","kind":"peak","name":"Kivipesänmäki","lat":61.0671327,"lon":24.6094714,"elevationM":null},{"id":"node:5345332698","kind":"peak","name":"Kyöpelivuori","lat":61.0662046,"lon":24.5181035,"elevationM":null},{"id":"node:5347508448","kind":"peak","name":"Kulhoinmäki","lat":61.037135,"lon":24.4791981,"elevationM":null},{"id":"node:5347516977","kind":"peak","name":"Satulinmäki","lat":61.042397,"lon":24.5226692,"elevationM":null},{"id":"node:5347520401","kind":"peak","name":"Lepomäki","lat":61.0527203,"lon":24.4894374,"elevationM":null},{"id":"node:5347520404","kind":"peak","name":"Ahdastenmäki","lat":61.0565493,"lon":24.4835583,"elevationM":null},{"id":"node:5347522444","kind":"peak","name":"Koivusuonmäki","lat":61.073092,"lon":24.4802366,"elevationM":null},{"id":"node:5347524409","kind":"peak","name":"Tilomaanvuori","lat":61.0956571,"lon":24.5117322,"elevationM":null},{"id":"node:5348827524","kind":"peak","name":"Molkkarinmäki","lat":61.0242265,"lon":24.4510164,"elevationM":null},{"id":"node:5348828721","kind":"peak","name":"Kilometrimäki","lat":61.0192761,"lon":24.4641495,"elevationM":null},{"id":"node:5348829008","kind":"peak","name":"Mummunmäki","lat":61.0156864,"lon":24.4857767,"elevationM":null},{"id":"node:5348830352","kind":"peak","name":"Iitinmäet","lat":61.0245695,"lon":24.532739,"elevationM":null},{"id":"node:5348832539","kind":"peak","name":"Rautamäki","lat":61.0172653,"lon":24.5207602,"elevationM":null},{"id":"node:5348840042","kind":"peak","name":"Hätilänvuori","lat":61.0253211,"lon":24.5548393,"elevationM":null},{"id":"node:5348841421","kind":"peak","name":"Velssinmäki","lat":61.0178299,"lon":24.5711192,"elevationM":null},{"id":"node:5355023083","kind":"peak","name":"Ruttanmäki","lat":61.0118746,"lon":24.315314,"elevationM":null},{"id":"node:5355027301","kind":"peak","name":"Koivistonmäki","lat":61.0147477,"lon":24.3069208,"elevationM":null},{"id":"node:5355051800","kind":"peak","name":"Kaivetunkankaanmäki","lat":61.0199167,"lon":24.2640817,"elevationM":null},{"id":"node:5355052095","kind":"peak","name":"Mettisianmäki","lat":61.0169068,"lon":24.2680117,"elevationM":null},{"id":"node:5355052096","kind":"peak","name":"Korkeamäki","lat":61.0186883,"lon":24.2665021,"elevationM":null},{"id":"node:5355052098","kind":"peak","name":"Viljetynmäki","lat":61.0140089,"lon":24.2927588,"elevationM":null},{"id":"node:5355052536","kind":"peak","name":"Raholanmäki","lat":61.0093231,"lon":24.2519141,"elevationM":null},{"id":"node:5363338242","kind":"peak","name":"Kerälänvuori","lat":61.0632571,"lon":24.3324067,"elevationM":null},{"id":"node:5363339365","kind":"peak","name":"Laikkaanvuori","lat":61.088861,"lon":24.2779482,"elevationM":null},{"id":"node:5363339366","kind":"peak","name":"Kansionmäki","lat":61.0807182,"lon":24.3083709,"elevationM":null},{"id":"node:5363363618","kind":"peak","name":"Tenholanlukot","lat":61.0913994,"lon":24.285232,"elevationM":null},{"id":"node:5363626498","kind":"peak","name":"Mustanvuorenmäki","lat":61.10673,"lon":24.3926051,"elevationM":null},{"id":"node:5363680868","kind":"peak","name":"Pitkämäki","lat":61.1028273,"lon":24.3652112,"elevationM":null},{"id":"node:5363747912","kind":"peak","name":"Loukaanmäki","lat":61.1160597,"lon":24.4436282,"elevationM":null},{"id":"node:5363747913","kind":"peak","name":"Isomäki","lat":61.1182726,"lon":24.4538893,"elevationM":120},{"id":"node:5363750421","kind":"peak","name":"Hieronmäki","lat":61.08631,"lon":24.4176559,"elevationM":null},{"id":"node:5363750422","kind":"peak","name":"Pumpunmäki","lat":61.0888154,"lon":24.3957154,"elevationM":null},{"id":"node:5363751418","kind":"peak","name":"Saajanmäki","lat":61.1078124,"lon":24.4071245,"elevationM":null},{"id":"node:5363752669","kind":"peak","name":"Korventaustanmäki","lat":61.1298192,"lon":24.4230804,"elevationM":null},{"id":"node:5363754603","kind":"peak","name":"Jänisleirinmäki","lat":61.122535,"lon":24.4372446,"elevationM":null},{"id":"node:5363755275","kind":"peak","name":"Änkäsvuori","lat":61.1294048,"lon":24.4055259,"elevationM":null},{"id":"node:5363756841","kind":"peak","name":"Härkäniitynmäki","lat":61.1625668,"lon":24.4187073,"elevationM":null},{"id":"node:5363756842","kind":"peak","name":"Kurikkamäki","lat":61.157405,"lon":24.4259085,"elevationM":null},{"id":"node:5363757385","kind":"peak","name":"Lehmusmäki","lat":61.1658878,"lon":24.3943807,"elevationM":null},{"id":"node:5453729716","kind":"peak","name":"Utterinvuori","lat":61.1941548,"lon":24.6018668,"elevationM":null},{"id":"node:5502625704","kind":"peak","name":"Vuori","lat":61.0317058,"lon":24.7150131,"elevationM":170},{"id":"node:5540852309","kind":"peak","name":"Kettulanmäki","lat":61.0268614,"lon":24.3152783,"elevationM":null},{"id":"node:5556574340","kind":"peak","name":"Huhdanmäki","lat":61.0170846,"lon":24.3548179,"elevationM":null},{"id":"node:5587914033","kind":"peak","name":"Käenmäki","lat":61.0540757,"lon":24.4591404,"elevationM":100},{"id":"node:5792795959","kind":"peak","name":"Pajanteenmäki","lat":61.0267339,"lon":24.4966703,"elevationM":null},{"id":"node:5878168688","kind":"peak","name":"Harvoilanmäki","lat":61.0069434,"lon":24.5347991,"elevationM":null},{"id":"node:5908281248","kind":"peak","name":"Marjomäki","lat":61.0360602,"lon":24.3806627,"elevationM":null},{"id":"node:5911346572","kind":"peak","name":"Töyrynmäki","lat":61.1953841,"lon":24.5214892,"elevationM":null},{"id":"node:5911714354","kind":"peak","name":"Ruojanmäki","lat":61.1955124,"lon":24.5383822,"elevationM":null},{"id":"node:5911726298","kind":"peak","name":"Tourunmäki","lat":61.2049297,"lon":24.5203578,"elevationM":null},{"id":"node:5912170616","kind":"peak","name":"Savikonvuori","lat":61.2389725,"lon":24.4591614,"elevationM":130},{"id":"node:5912175590","kind":"peak","name":"Lahdenmäki","lat":61.2298856,"lon":24.4552151,"elevationM":null},{"id":"node:5918414831","kind":"peak","name":"Porsasvuori","lat":61.135187,"lon":24.1008709,"elevationM":150},{"id":"node:5918415282","kind":"peak","name":"Isomäki","lat":61.1347777,"lon":24.0844351,"elevationM":130},{"id":"node:5918430361","kind":"peak","name":"Tunturivuori","lat":61.1390651,"lon":24.1149083,"elevationM":150},{"id":"node:5921350512","kind":"peak","name":"Kaakkovuori","lat":61.3325753,"lon":24.0615654,"elevationM":140},{"id":"node:5959719480","kind":"peak","name":"Saarenmäki","lat":61.0564028,"lon":24.7414199,"elevationM":125},{"id":"node:5959719481","kind":"peak","name":"Vahtermäki","lat":61.0416877,"lon":24.777451,"elevationM":170},{"id":"node:5959724291","kind":"peak","name":"Rappumäki","lat":61.0396989,"lon":24.8360941,"elevationM":null},{"id":"node:5996684881","kind":"peak","name":"Nuorioisvuori","lat":61.3772872,"lon":24.5319021,"elevationM":null},{"id":"node:5996685321","kind":"peak","name":"Sappeenvuori","lat":61.3881559,"lon":24.5108758,"elevationM":null},{"id":"node:6007315024","kind":"peak","name":"Vermasvuori","lat":61.1888273,"lon":24.4021089,"elevationM":null},{"id":"node:6109499189","kind":"peak","name":"Vuohenkallio","lat":61.0073915,"lon":24.6054904,"elevationM":140},{"id":"node:6113215383","kind":"peak","name":"Harjunmäki","lat":61.0491744,"lon":24.6470777,"elevationM":null},{"id":"node:6113369015","kind":"peak","name":"Sorsamustenmäki","lat":61.0730115,"lon":24.733562,"elevationM":null},{"id":"node:6113596887","kind":"peak","name":"Isomäki","lat":61.0289846,"lon":24.6157296,"elevationM":150},{"id":"node:6113679098","kind":"peak","name":"Kikaristonmäki","lat":61.0353794,"lon":24.5150681,"elevationM":140},{"id":"node:6113683286","kind":"peak","name":"Metsämäki","lat":61.0361063,"lon":24.5023304,"elevationM":null},{"id":"node:6113683287","kind":"peak","name":"Linjanmäki","lat":61.033737,"lon":24.4956785,"elevationM":140},{"id":"node:6113691079","kind":"peak","name":"Kulonneenmäki","lat":61.0715395,"lon":24.6210876,"elevationM":null},{"id":"node:6113691080","kind":"peak","name":"Päkinmäki","lat":61.078076,"lon":24.6381614,"elevationM":null},{"id":"node:6113691081","kind":"peak","name":"Toramäki","lat":61.110754,"lon":24.6013634,"elevationM":null},{"id":"node:6282525876","kind":"peak","name":"Riihimäki","lat":61.0258622,"lon":24.4187841,"elevationM":null},{"id":"node:6333257041","kind":"peak","name":"Vesunninmäki","lat":61.0901752,"lon":24.372502,"elevationM":null},{"id":"node:6584668900","kind":"peak","name":"Roominvuori","lat":61.3375135,"lon":24.0451222,"elevationM":139},{"id":"node:6584933950","kind":"peak","name":"Lavianvuori","lat":61.32458,"lon":24.0355334,"elevationM":146},{"id":"node:6596583308","kind":"peak","name":"Papinmäki","lat":61.1095663,"lon":24.3522577,"elevationM":null},{"id":"node:6618341123","kind":"peak","name":"Tepulinna","lat":61.3336838,"lon":24.4954777,"elevationM":null},{"id":"node:6621083551","kind":"peak","name":"Mustikkavuori","lat":61.3454778,"lon":24.5100367,"elevationM":null},{"id":"node:7014847445","kind":"peak","name":"Multivuori","lat":61.7393537,"lon":24.0436675,"elevationM":null},{"id":"node:7014867072","kind":"peak","name":"Rankovuori","lat":61.7414688,"lon":24.0373595,"elevationM":null},{"id":"node:7014892285","kind":"peak","name":"Ilvesvuori","lat":61.7457061,"lon":24.0494308,"elevationM":null},{"id":"node:7014892286","kind":"peak","name":"Lammasvuori","lat":61.7458995,"lon":24.0586465,"elevationM":null},{"id":"node:7014892287","kind":"peak","name":"Kotavuori","lat":61.7429901,"lon":24.0652218,"elevationM":null},{"id":"node:7209246777","kind":"peak","name":"Riuttanmäki","lat":61.1294475,"lon":24.974678,"elevationM":null},{"id":"node:7211697628","kind":"peak","name":"Hevosojanmäki","lat":61.1243435,"lon":24.8820572,"elevationM":130},{"id":"node:7211697629","kind":"peak","name":"Mäntymäki","lat":61.1206289,"lon":24.8827626,"elevationM":125},{"id":"node:7211697630","kind":"peak","name":"Kolunmäki","lat":61.1210041,"lon":24.8956662,"elevationM":null},{"id":"node:7220553045","kind":"peak","name":"Vanhankartanonmäki","lat":61.1013789,"lon":24.9916387,"elevationM":130},{"id":"node:7220553049","kind":"peak","name":"Kukkuramäki","lat":61.1242108,"lon":24.9786235,"elevationM":null},{"id":"node:7222104431","kind":"peak","name":"Pyssymäki","lat":61.0773337,"lon":24.9312577,"elevationM":150},{"id":"node:7222104432","kind":"peak","name":"Kellotapuli","lat":61.086176,"lon":24.9114403,"elevationM":null},{"id":"node:7222104433","kind":"peak","name":"Maantienkorkee","lat":61.0883415,"lon":24.9026226,"elevationM":145},{"id":"node:7233609056","kind":"peak","name":"Korkoi","lat":61.1775102,"lon":24.40922,"elevationM":null},{"id":"node:7233609182","kind":"peak","name":"Kurkovuori","lat":61.1869974,"lon":24.4208445,"elevationM":null},{"id":"node:7233609194","kind":"peak","name":"Viittasmaankalliot","lat":61.1898023,"lon":24.4294812,"elevationM":120},{"id":"node:7233609195","kind":"peak","name":"Valtianmäki","lat":61.1890162,"lon":24.4185574,"elevationM":120},{"id":"node:7368344083","kind":"peak","name":"Haapavuori","lat":61.7643125,"lon":24.5183086,"elevationM":183},{"id":"node:7492439959","kind":"peak","name":"Vartiavuori","lat":61.4700404,"lon":24.1488632,"elevationM":152},{"id":"node:7492456453","kind":"peak","name":"Valkeisvuori","lat":61.4414358,"lon":24.20051,"elevationM":177},{"id":"node:7699502361","kind":"peak","name":"Pikku Lautakallio","lat":61.315495,"lon":24.3035057,"elevationM":null},{"id":"node:7699502362","kind":"peak","name":"Lautakallio","lat":61.3159431,"lon":24.2983129,"elevationM":null},{"id":"node:7699502363","kind":"peak","name":"Siltastenvuori","lat":61.3195502,"lon":24.2997721,"elevationM":null},{"id":"node:7746495499","kind":"peak","name":"Harjunmäki","lat":61.7391601,"lon":24.3222745,"elevationM":140},{"id":"node:7838045380","kind":"peak","name":"Kolhinvuori","lat":61.7778772,"lon":24.522804,"elevationM":167},{"id":"node:7838045381","kind":"peak","name":"Venäläisvuori","lat":61.8777198,"lon":24.6053088,"elevationM":232},{"id":"node:7929104761","kind":"peak","name":"Viitavuori","lat":61.6361531,"lon":24.0340926,"elevationM":null},{"id":"node:8189659317","kind":"peak","name":"Saarisenvuori","lat":61.5029029,"lon":24.0025983,"elevationM":151},{"id":"node:8189659318","kind":"peak","name":"Lintuvuori","lat":61.5035237,"lon":24.0210409,"elevationM":147},{"id":"node:8286918603","kind":"peak","name":"Hiisivuori","lat":61.1764865,"lon":24.7275249,"elevationM":null},{"id":"node:8287807574","kind":"peak","name":"Hyypiö","lat":61.1949673,"lon":24.6694444,"elevationM":null},{"id":"node:8785723709","kind":"peak","name":"Mustikkavuori","lat":61.3801667,"lon":24.2364538,"elevationM":168},{"id":"node:8785723716","kind":"peak","name":"Mäyrävuori","lat":61.4511903,"lon":24.0960869,"elevationM":130},{"id":"node:8785729720","kind":"peak","name":"Huhtivuori","lat":61.4022203,"lon":24.2272633,"elevationM":155},{"id":"node:9048851072","kind":"peak","name":"Tulivuori","lat":61.4112403,"lon":24.5781887,"elevationM":null},{"id":"node:9048851073","kind":"peak","name":"Korppivuori","lat":61.4005684,"lon":24.6104912,"elevationM":null},{"id":"node:9353506372","kind":"peak","name":"Hakionmäki","lat":61.0076347,"lon":24.3468098,"elevationM":null},{"id":"node:9562087364","kind":"peak","name":"Kilpivehmaanmäki","lat":61.9129929,"lon":24.8727786,"elevationM":null},{"id":"node:9762407706","kind":"peak","name":"Soimamäki","lat":61.0350032,"lon":24.119668,"elevationM":null},{"id":"node:9762407729","kind":"peak","name":"Taulumaanvuori","lat":61.0417463,"lon":24.1302291,"elevationM":186},{"id":"node:9778937559","kind":"peak","name":"Koirainmäki","lat":61.0301747,"lon":24.1446719,"elevationM":null},{"id":"node:9778937645","kind":"peak","name":"Haapakallio","lat":61.0286394,"lon":24.0582037,"elevationM":null},{"id":"node:10056618116","kind":"peak","name":"Kytövuori","lat":61.9631561,"lon":24.1644,"elevationM":null},{"id":"node:10056849851","kind":"peak","name":"Vinsanvuori","lat":61.9527063,"lon":24.1575577,"elevationM":160},{"id":"node:10056919814","kind":"peak","name":"Viisarinmäki","lat":61.9153,"lon":24.1233705,"elevationM":null},{"id":"node:11056383638","kind":"peak","name":"Kiperisvuori","lat":61.3240451,"lon":24.4828874,"elevationM":null},{"id":"node:11056390551","kind":"peak","name":"Pukkivuori","lat":61.3282999,"lon":24.4855642,"elevationM":null},{"id":"node:11056438299","kind":"peak","name":"Korkeisvuori","lat":61.3499894,"lon":24.4937718,"elevationM":null},{"id":"node:11057340312","kind":"peak","name":"Syrjänharju","lat":61.3424345,"lon":24.4601583,"elevationM":null},{"id":"node:11068540862","kind":"peak","name":"Lukot","lat":61.3387315,"lon":24.4656041,"elevationM":null},{"id":"node:11070030586","kind":"peak","name":"Kukonporras","lat":61.3428733,"lon":24.5027324,"elevationM":null},{"id":"node:11070040982","kind":"peak","name":"Ruokopäänmäki","lat":61.3268642,"lon":24.517186,"elevationM":null},{"id":"node:11346014029","kind":"peak","name":"Viitavuori","lat":61.9440743,"lon":24.8681075,"elevationM":null},{"id":"node:11346014058","kind":"peak","name":"Myllyvuori","lat":61.9325488,"lon":24.9228394,"elevationM":null},{"id":"node:11346014059","kind":"peak","name":"Konttimäki","lat":61.9357259,"lon":24.9206256,"elevationM":null},{"id":"node:11346014060","kind":"peak","name":"Salmivuori","lat":61.9342706,"lon":24.962204,"elevationM":null},{"id":"node:11346014062","kind":"peak","name":"Lepovuori","lat":61.9219004,"lon":24.9004076,"elevationM":185},{"id":"node:11346014063","kind":"peak","name":"Riihimäki","lat":61.9245264,"lon":24.8947056,"elevationM":null},{"id":"node:11346014064","kind":"peak","name":"Rantavuori","lat":61.9219972,"lon":24.9315029,"elevationM":null},{"id":"node:11346014065","kind":"peak","name":"Länkimäki","lat":61.9208531,"lon":24.9225648,"elevationM":null},{"id":"node:11346014066","kind":"peak","name":"Rotkovuori","lat":61.9192602,"lon":24.9468229,"elevationM":null},{"id":"node:11346014067","kind":"peak","name":"Leipäkorvenmäki","lat":61.9402801,"lon":24.9282422,"elevationM":null},{"id":"node:11457785660","kind":"peak","name":"Kuuselanvuori","lat":61.3339926,"lon":24.3906569,"elevationM":null},{"id":"node:11457896164","kind":"peak","name":"Järventaustanvuori","lat":61.339746,"lon":24.4273495,"elevationM":null},{"id":"node:11458161514","kind":"peak","name":"Murumaankallio","lat":61.3233578,"lon":24.4001841,"elevationM":null},{"id":"node:11458214684","kind":"peak","name":"Mustikkavuori","lat":61.3243051,"lon":24.3867731,"elevationM":null},{"id":"node:11461063067","kind":"peak","name":"Pakovuori","lat":61.3345536,"lon":24.3667424,"elevationM":null},{"id":"node:11509631639","kind":"peak","name":"Pyyvuori","lat":61.5604932,"lon":24.3047302,"elevationM":null},{"id":"node:11509631640","kind":"peak","name":"Koluvuori","lat":61.5643303,"lon":24.3165825,"elevationM":null},{"id":"node:11509631641","kind":"peak","name":"Läpikäytävänvuori","lat":61.5670242,"lon":24.3144355,"elevationM":null},{"id":"node:11509631642","kind":"peak","name":"Härmänpaltanvuori","lat":61.5695371,"lon":24.3237854,"elevationM":null},{"id":"node:11509631643","kind":"peak","name":"Mäyränvuori","lat":61.569375,"lon":24.3144499,"elevationM":null},{"id":"node:11509631738","kind":"peak","name":"Sudenpesänvuori","lat":61.5692791,"lon":24.339216,"elevationM":null},{"id":"node:11509631741","kind":"peak","name":"Valjavuori","lat":61.5477312,"lon":24.2743696,"elevationM":null},{"id":"node:11509631747","kind":"peak","name":"Vahderpäänvuori","lat":61.5156222,"lon":24.2150171,"elevationM":null},{"id":"node:11509634204","kind":"peak","name":"Kultavuori","lat":61.6832531,"lon":24.363337,"elevationM":133},{"id":"node:11669180935","kind":"peak","name":"Susimäki","lat":61.8551228,"lon":24.2348636,"elevationM":null},{"id":"node:11669201955","kind":"peak","name":"Rytövuori","lat":61.850476,"lon":24.2686469,"elevationM":null},{"id":"node:11669202033","kind":"peak","name":"Notkonsillanmäki","lat":61.8625803,"lon":24.2131425,"elevationM":180},{"id":"node:11669202360","kind":"peak","name":"Näräkistönmäki","lat":61.869136,"lon":24.1765386,"elevationM":null},{"id":"node:11669752520","kind":"peak","name":"Muruvuori","lat":61.9254186,"lon":24.1323766,"elevationM":null},{"id":"node:11669752521","kind":"peak","name":"Soponmäki","lat":61.9226245,"lon":24.1295013,"elevationM":null},{"id":"node:11698099614","kind":"peak","name":"Kaakkovuori","lat":61.4459085,"lon":24.4703766,"elevationM":null},{"id":"node:11698099769","kind":"peak","name":"Kaupinvuori","lat":61.4580444,"lon":24.4330638,"elevationM":null},{"id":"node:11698099770","kind":"peak","name":"Ryypäsvuori","lat":61.4600512,"lon":24.4154634,"elevationM":null},{"id":"node:11708248581","kind":"peak","name":"Korpoonojanmäki","lat":61.4307613,"lon":24.4235961,"elevationM":null},{"id":"node:12141074435","kind":"peak","name":"Koivulanvuori","lat":61.7660319,"lon":24.0650297,"elevationM":null},{"id":"node:12141229206","kind":"peak","name":"Taapulinvuori","lat":61.7633271,"lon":24.1243965,"elevationM":null},{"id":"node:12141229256","kind":"peak","name":"Ilvesvuori","lat":61.7545825,"lon":24.1316205,"elevationM":null},{"id":"node:12141229315","kind":"peak","name":"Helvettivuori","lat":61.8023632,"lon":24.0853366,"elevationM":204},{"id":"node:12141229357","kind":"peak","name":"Hyttimäki","lat":61.8077063,"lon":24.2411107,"elevationM":193},{"id":"node:12141229539","kind":"peak","name":"Haukkavuori","lat":61.7693947,"lon":24.2449333,"elevationM":null},{"id":"node:12141420111","kind":"peak","name":"Riuttavuori","lat":61.72861,"lon":24.167291,"elevationM":null},{"id":"node:12141420191","kind":"peak","name":"Iililamminvuori","lat":61.7187601,"lon":24.1428521,"elevationM":null},{"id":"node:12141420192","kind":"peak","name":"Heittolamminvuori","lat":61.712846,"lon":24.1399643,"elevationM":null},{"id":"node:12141420288","kind":"peak","name":"Riihimäki","lat":61.7108742,"lon":24.213268,"elevationM":null},{"id":"node:12141420377","kind":"peak","name":"Haanvuori","lat":61.6953938,"lon":24.2694039,"elevationM":null},{"id":"node:12141420379","kind":"peak","name":"Sahanvuori","lat":61.6983751,"lon":24.2623773,"elevationM":null},{"id":"node:12141420480","kind":"peak","name":"Vaatelamminvuori","lat":61.7232023,"lon":24.2661436,"elevationM":null},{"id":"node:12141420481","kind":"peak","name":"Eskonvuori","lat":61.7159664,"lon":24.2426889,"elevationM":null},{"id":"node:12141420589","kind":"peak","name":"Punaisenkivenmäki","lat":61.6918915,"lon":24.1916219,"elevationM":null},{"id":"node:12141420605","kind":"peak","name":"Kurunvuori","lat":61.7114751,"lon":24.1503628,"elevationM":null},{"id":"node:12141420606","kind":"peak","name":"Luolavuori","lat":61.7090197,"lon":24.1507773,"elevationM":null},{"id":"node:12141874001","kind":"peak","name":"Pyhäniemenvuori","lat":61.6926068,"lon":24.1620491,"elevationM":null},{"id":"node:12141874019","kind":"peak","name":"Sikavuori","lat":61.6789081,"lon":24.1371982,"elevationM":null},{"id":"node:12141874020","kind":"peak","name":"Ketunpesävuori","lat":61.6811232,"lon":24.1450431,"elevationM":null},{"id":"node:12141874223","kind":"peak","name":"Potaskavuori","lat":61.6545979,"lon":24.1250445,"elevationM":null},{"id":"node:12141874263","kind":"peak","name":"Palovuori","lat":61.6447145,"lon":24.0497614,"elevationM":null},{"id":"node:12141874382","kind":"peak","name":"Kirkkovuori","lat":61.7093802,"lon":24.2711931,"elevationM":null},{"id":"node:12142164775","kind":"peak","name":"Salosenvuori","lat":61.6133029,"lon":24.2224236,"elevationM":145},{"id":"node:12142164800","kind":"peak","name":"Rantavuori","lat":61.6485489,"lon":24.1800089,"elevationM":175},{"id":"node:12142165006","kind":"peak","name":"Haukivuori","lat":61.6072881,"lon":24.120205,"elevationM":null},{"id":"node:12142165007","kind":"peak","name":"Valkeajärvenvuori","lat":61.6254647,"lon":24.1465687,"elevationM":null},{"id":"node:12142165014","kind":"peak","name":"Vitavuori","lat":61.6265626,"lon":24.1332117,"elevationM":null},{"id":"node:12142165052","kind":"peak","name":"Honkavuori","lat":61.5826652,"lon":24.1805018,"elevationM":null},{"id":"node:12142343406","kind":"peak","name":"Havisevanvuori","lat":61.5607851,"lon":24.0629836,"elevationM":null},{"id":"node:12144669488","kind":"peak","name":"Perkuuvuori","lat":61.6492774,"lon":24.2551546,"elevationM":null},{"id":"node:12144669489","kind":"peak","name":"Virkajärvenvuori","lat":61.6524924,"lon":24.2654719,"elevationM":null},{"id":"node:12144763833","kind":"peak","name":"Kutemavuori","lat":61.6503044,"lon":24.1961014,"elevationM":198},{"id":"node:12195222775","kind":"peak","name":"Harjavanmäki","lat":61.0874701,"lon":24.0835059,"elevationM":null},{"id":"node:12195222783","kind":"peak","name":"Huhtimäki","lat":61.0711367,"lon":24.0781797,"elevationM":null},{"id":"node:12195225221","kind":"peak","name":"Roukkukivenmäki","lat":61.0608853,"lon":24.0580248,"elevationM":null},{"id":"node:12195225222","kind":"peak","name":"Ruuhivalkamanmäki","lat":61.0594816,"lon":24.0617767,"elevationM":null},{"id":"node:12195225248","kind":"peak","name":"Haavistonmäki","lat":61.0741076,"lon":24.0320868,"elevationM":null},{"id":"node:12195225249","kind":"peak","name":"Pölönlinnanmäki","lat":61.0691145,"lon":24.0125952,"elevationM":null},{"id":"node:12195225253","kind":"peak","name":"Kontuniemi","lat":61.0794285,"lon":24.0176619,"elevationM":null},{"id":"node:12195225361","kind":"peak","name":"Rivonmäki","lat":61.0875713,"lon":24.0083397,"elevationM":null},{"id":"node:12195225362","kind":"peak","name":"Ilomäki","lat":61.0898397,"lon":24.0111522,"elevationM":null},{"id":"node:12204897428","kind":"peak","name":"Harvavuori","lat":61.9399859,"lon":24.6748265,"elevationM":150},{"id":"node:12204897429","kind":"peak","name":"Särkimäki","lat":61.9295301,"lon":24.6766389,"elevationM":null},{"id":"node:12204978313","kind":"peak","name":"Pyörnynvuori","lat":61.9295229,"lon":24.608234,"elevationM":null},{"id":"node:12204978315","kind":"peak","name":"Kissakallio","lat":61.9299178,"lon":24.5920512,"elevationM":null},{"id":"node:12204978321","kind":"peak","name":"Välivuori","lat":61.9427213,"lon":24.5815717,"elevationM":null},{"id":"node:12204978323","kind":"peak","name":"Hevoskankaannäki","lat":61.938592,"lon":24.5866685,"elevationM":null},{"id":"node:12230394743","kind":"peak","name":"Haukkavuori","lat":61.7795271,"lon":24.4453624,"elevationM":null},{"id":"node:12230394752","kind":"peak","name":"Pohjanvuori","lat":61.7693307,"lon":24.5005816,"elevationM":null},{"id":"node:12230394753","kind":"peak","name":"Jussinvuori","lat":61.7690816,"lon":24.5182202,"elevationM":null},{"id":"node:12290692892","kind":"peak","name":"Katajamäki","lat":61.1620959,"lon":24.5557421,"elevationM":null},{"id":"node:12455934424","kind":"peak","name":"Häkäränkallio","lat":61.3524085,"lon":24.0059548,"elevationM":150},{"id":"node:12554570291","kind":"peak","name":"Hallahuhdanmäki","lat":61.819622,"lon":24.0933663,"elevationM":192},{"id":"node:12554570292","kind":"peak","name":"Moskulanmäki","lat":61.8446185,"lon":24.1708124,"elevationM":196},{"id":"node:12554570293","kind":"peak","name":"Päivättömänmäki","lat":61.8412112,"lon":24.1414422,"elevationM":199},{"id":"node:12557179468","kind":"peak","name":"Päivättömänmäet","lat":61.8573406,"lon":24.137966,"elevationM":188},{"id":"node:12557179469","kind":"peak","name":"Päivättömänmäet","lat":61.8552126,"lon":24.1375637,"elevationM":189},{"id":"node:12557179470","kind":"peak","name":"Lintumäki","lat":61.8571887,"lon":24.1297799,"elevationM":180},{"id":"node:12557179471","kind":"peak","name":"Rasilanmäki","lat":61.8522518,"lon":24.1321671,"elevationM":188},{"id":"node:12558557720","kind":"peak","name":"Huhtarinne","lat":61.7796453,"lon":24.1504168,"elevationM":203},{"id":"node:12558557721","kind":"peak","name":"Hirvimäki","lat":61.7739246,"lon":24.173736,"elevationM":200},{"id":"node:12558628637","kind":"peak","name":"Töyrymäki","lat":61.8079665,"lon":24.0602839,"elevationM":198},{"id":"node:12558628638","kind":"peak","name":"Rajamäki","lat":61.8050696,"lon":24.0583715,"elevationM":192},{"id":"node:12558628639","kind":"peak","name":"Vanhantöllinmäki","lat":61.8081084,"lon":24.0810764,"elevationM":187},{"id":"node:12558628640","kind":"peak","name":"Aataminvuori","lat":61.7982509,"lon":24.0806526,"elevationM":203},{"id":"node:12567464765","kind":"peak","name":"Kangasniemenmäki","lat":61.8228975,"lon":24.0491581,"elevationM":183},{"id":"node:12567464766","kind":"peak","name":"Saapasmäki","lat":61.8266918,"lon":24.0736842,"elevationM":180},{"id":"node:12628837557","kind":"peak","name":"Pasunmäki","lat":61.2581043,"lon":24.5884102,"elevationM":null},{"id":"node:12677175997","kind":"peak","name":"Keisarinharju","lat":61.4363144,"lon":24.1277505,"elevationM":140},{"id":"node:12677183983","kind":"peak","name":"Ryssäntorninmäki","lat":61.3740568,"lon":24.1178924,"elevationM":100},{"id":"node:12677183984","kind":"peak","name":"Hangastonmäki","lat":61.3643714,"lon":24.1158163,"elevationM":105},{"id":"node:12677183985","kind":"peak","name":"Paukunvuori","lat":61.3660913,"lon":24.1403022,"elevationM":107},{"id":"node:12677183986","kind":"peak","name":"Pöyttynvuori","lat":61.3630346,"lon":24.1353857,"elevationM":109},{"id":"node:12677183987","kind":"peak","name":"Tervahaudanmäki","lat":61.3473222,"lon":24.1523373,"elevationM":97},{"id":"node:12677183988","kind":"peak","name":"Lautaanvuori","lat":61.3475794,"lon":24.1783789,"elevationM":123},{"id":"node:12677183989","kind":"peak","name":"Hietakorvenmäki","lat":61.3539398,"lon":24.2063355,"elevationM":138},{"id":"node:12677183990","kind":"peak","name":"Ässänvuori","lat":61.3540903,"lon":24.1981977,"elevationM":140},{"id":"node:12677204520","kind":"peak","name":"Vehoniemenharju","lat":61.3996283,"lon":24.1808795,"elevationM":141},{"id":"node:12677280918","kind":"peak","name":"Hunnunmäki","lat":61.3928176,"lon":24.0969256,"elevationM":110},{"id":"node:12707249217","kind":"peak","name":"Killittälänvuori","lat":61.4660517,"lon":24.1343365,"elevationM":144},{"id":"node:12707249218","kind":"peak","name":"Kotovuori","lat":61.4633432,"lon":24.1273636,"elevationM":132},{"id":"node:12707249220","kind":"peak","name":"Kuohunharju","lat":61.4593752,"lon":24.0971758,"elevationM":129},{"id":"node:12707249221","kind":"peak","name":"Lukonkallio","lat":61.4929462,"lon":24.0820969,"elevationM":140},{"id":"node:12734120393","kind":"peak","name":"Kalkkimäki","lat":61.3077414,"lon":24.2077866,"elevationM":97},{"id":"node:12734126586","kind":"peak","name":"Korhonvuori","lat":61.326928,"lon":24.190363,"elevationM":109},{"id":"node:12738376331","kind":"peak","name":"Pykälänvuori","lat":61.2671809,"lon":24.2080334,"elevationM":143},{"id":"node:12768060686","kind":"peak","name":"Viinalähteenvuori","lat":61.3225495,"lon":24.0503704,"elevationM":125},{"id":"node:12768060687","kind":"peak","name":"Rehuistenvuori","lat":61.3192542,"lon":24.0420663,"elevationM":130},{"id":"node:12768060839","kind":"peak","name":"Kivimäki","lat":61.3069146,"lon":24.0044846,"elevationM":138},{"id":"node:12768060841","kind":"peak","name":"Kivivuori","lat":61.3477157,"lon":24.0221321,"elevationM":162},{"id":"node:12768407350","kind":"peak","name":"Silmäkkeenmäki","lat":61.6493967,"lon":24.2190432,"elevationM":173},{"id":"node:12768407352","kind":"peak","name":"Yläinenvuori","lat":61.6445735,"lon":24.1555219,"elevationM":185},{"id":"node:12768407526","kind":"peak","name":"Suomäki","lat":61.6360822,"lon":24.1949528,"elevationM":153},{"id":"node:12770875815","kind":"peak","name":"Kontusenmäki","lat":61.6130268,"lon":24.2263627,"elevationM":136},{"id":"node:12770880971","kind":"peak","name":"Paltanmäki","lat":61.6826914,"lon":24.3517208,"elevationM":157},{"id":"node:12770880973","kind":"peak","name":"Munkinmäki","lat":61.6743164,"lon":24.3315752,"elevationM":133},{"id":"node:12770880974","kind":"peak","name":"Leppäsenvuori","lat":61.6605545,"lon":24.3435922,"elevationM":142},{"id":"node:12770880978","kind":"peak","name":"Kylänvuori","lat":61.6651866,"lon":24.3646491,"elevationM":128},{"id":"node:12800772882","kind":"peak","name":"Helaamäki","lat":61.4041216,"lon":24.2058215,"elevationM":113},{"id":"node:12878433682","kind":"peak","name":"Kirkkoharju","lat":61.4665491,"lon":24.0605084,"elevationM":155},{"id":"node:12985605828","kind":"peak","name":"Kankaanrinta","lat":61.0069372,"lon":24.9170182,"elevationM":null},{"id":"node:12985605829","kind":"peak","name":"Soilankallio","lat":61.007959,"lon":24.8784896,"elevationM":null},{"id":"node:12985605881","kind":"peak","name":"Parkumäki","lat":61.0255509,"lon":24.90894,"elevationM":null},{"id":"node:12985612507","kind":"peak","name":"Kuoppalanmäki","lat":61.0154041,"lon":24.9021748,"elevationM":null},{"id":"node:12985613172","kind":"peak","name":"Myllystenmäki","lat":61.0026643,"lon":24.9099558,"elevationM":null},{"id":"node:12985613173","kind":"peak","name":"Pereenmäki","lat":61.0064021,"lon":24.9019488,"elevationM":null},{"id":"node:13093534500","kind":"peak","name":"Marivuori","lat":61.2700429,"lon":24.387121,"elevationM":null},{"id":"node:13093770501","kind":"peak","name":"Ansavuori","lat":61.2809662,"lon":24.3906518,"elevationM":null},{"id":"node:13178147325","kind":"peak","name":"Parmalanvuori","lat":61.5140691,"lon":24.1871832,"elevationM":null},{"id":"node:13447917738","kind":"peak","name":"Kätelänvuori","lat":61.7467872,"lon":24.4489135,"elevationM":null}]}