{"tileKey":"la_p70_lo_p30","version":"v1-1775891056926","entries":[{"id":"node:9366219968","kind":"peak","name":"Lille Jårboaivi","lat":70.359432,"lon":30.7688566,"elevationM":186},{"id":"node:9376764488","kind":"peak","name":"Romsdalsbruna","lat":70.5340522,"lon":30.3033721,"elevationM":302},{"id":"node:9376764489","kind":"peak","name":"Munken","lat":70.5450756,"lon":30.36605,"elevationM":180},{"id":"node:9379761352","kind":"peak","name":"Devja","lat":70.26202,"lon":30.1791556,"elevationM":248},{"id":"node:9743698896","kind":"peak","name":"Oksevasshøgda","lat":70.3315422,"lon":30.8829531,"elevationM":200},{"id":"node:9880678690","kind":"peak","name":"Røyskattfjellet","lat":70.4028208,"lon":30.0728631,"elevationM":null}]}