{"tileKey":"la_p38_lo_m111","version":"v1-1775891056926","entries":[{"id":"node:356671924","kind":"peak","name":"Adams Butte","lat":38.2400943,"lon":-110.7405066,"elevationM":1546},{"id":"node:356671970","kind":"peak","name":"Elaterite Butte","lat":38.217122,"lon":-110.0374005,"elevationM":1980},{"id":"node:356671975","kind":"peak","name":"Baking Skillet Knoll","lat":38.2020178,"lon":-110.5102837,"elevationM":1672},{"id":"node:356671992","kind":"peak","name":"Bartons Peak","lat":38.0680992,"lon":-110.7715585,"elevationM":3034},{"id":"node:356672201","kind":"peak","name":"Bull Mountain","lat":38.1404534,"lon":-110.732109,"elevationM":2793},{"id":"node:356672359","kind":"peak","name":"Cleopatras Chair","lat":38.303204,"lon":-110.0797632,"elevationM":1938},{"id":"node:356672437","kind":"peak","name":"Corral Point","lat":38.0901836,"lon":-110.8242012,"elevationM":3002},{"id":"node:356672544","kind":"peak","name":"Deadman Hill","lat":38.3345201,"lon":-110.3534533,"elevationM":1817},{"id":"node:356672604","kind":"peak","name":"Dry Lakes Peak","lat":38.1381623,"lon":-110.813401,"elevationM":3182},{"id":"node:356672615","kind":"peak","name":"Durfey Butte","lat":38.0705583,"lon":-110.8242441,"elevationM":2912},{"id":"node:356672649","kind":"peak","name":"Mount Ellen Peak","lat":38.1213006,"lon":-110.8146614,"elevationM":3495},{"id":"node:356672676","kind":"peak","name":"Factory Butte","lat":38.4378746,"lon":-110.9143697,"elevationM":1931},{"id":"node:356672678","kind":"peak","name":"Family Butte","lat":38.7652656,"lon":-110.8440049,"elevationM":2215},{"id":"node:356672684","kind":"peak","name":"Fiddler Butte","lat":38.04832,"lon":-110.3101388,"elevationM":1610},{"id":"node:356672701","kind":"peak","name":"Flat Top","lat":38.6807814,"lon":-110.728759,"elevationM":1981},{"id":"node:356672814","kind":"peak","name":"Gilson Butte","lat":38.5819951,"lon":-110.6179871,"elevationM":1700},{"id":"node:356672820","kind":"peak","name":"Goatwater Point","lat":38.1668258,"lon":-110.644111,"elevationM":1564},{"id":"node:356672912","kind":"peak","name":"Gunsight Butte","lat":38.0645802,"lon":-110.1858744,"elevationM":2025},{"id":"node:356672915","kind":"peak","name":"Guss Knoll","lat":38.3421881,"lon":-110.6128441,"elevationM":1448},{"id":"node:356673158","kind":"peak","name":"Bagpipe Butte","lat":38.1561421,"lon":-110.1125469,"elevationM":2008},{"id":"node:356673160","kind":"peak","name":"Jacks Knob","lat":38.5292571,"lon":-110.3165349,"elevationM":1621},{"id":"node:356673248","kind":"peak","name":"Joe And His Dog","lat":38.9548439,"lon":-110.8193968,"elevationM":2001},{"id":"node:356673342","kind":"peak","name":"Keg Knoll","lat":38.5489791,"lon":-110.1304451,"elevationM":1603},{"id":"node:356673353","kind":"peak","name":"Kimble And Turner Peak","lat":38.0612991,"lon":-110.7892953,"elevationM":3388},{"id":"node:356673418","kind":"peak","name":"Lands End","lat":38.1018317,"lon":-110.1304358,"elevationM":2171},{"id":"node:356673502","kind":"peak","name":"Little Flat Top","lat":38.5435645,"lon":-110.4934583,"elevationM":1821},{"id":"node:356673506","kind":"peak","name":"Little Gilson Butte","lat":38.5920793,"lon":-110.6042776,"elevationM":1578},{"id":"node:356673577","kind":"peak","name":"Lone Man Butte","lat":38.7844758,"lon":-110.6493278,"elevationM":2027},{"id":"node:356673588","kind":"peak","name":"Lookout Point","lat":38.6183448,"lon":-110.1565197,"elevationM":1502},{"id":"node:356673683","kind":"peak","name":"Mollys Castle","lat":38.5766285,"lon":-110.6822496,"elevationM":1500},{"id":"node:356673764","kind":"peak","name":"North Block","lat":38.0424866,"lon":-110.2076359,"elevationM":2146},{"id":"node:356673799","kind":"peak","name":"Observation Rock","lat":38.2476044,"lon":-110.1427847,"elevationM":2044},{"id":"node:356673913","kind":"peak","name":"San Rafael Knob","lat":38.8129389,"lon":-110.8550523,"elevationM":2408},{"id":"node:356673914","kind":"peak","name":"Ragged Mountain","lat":38.0205942,"lon":-110.7598715,"elevationM":2742},{"id":"node:356673917","kind":"peak","name":"Rattlesnake Butte","lat":38.5892578,"lon":-110.4355658,"elevationM":1564},{"id":"node:356673961","kind":"peak","name":"Red Nubs","lat":38.3697713,"lon":-110.2559931,"elevationM":1733},{"id":"node:356674031","kind":"peak","name":"Runts Knob","lat":38.2860854,"lon":-110.2813812,"elevationM":1928},{"id":"node:356674061","kind":"peak","name":"Sandslide Point","lat":38.217977,"lon":-110.6563281,"elevationM":1533},{"id":"node:356674089","kind":"peak","name":"Sheep Knoll","lat":38.4974973,"lon":-110.3632995,"elevationM":1738},{"id":"node:356674290","kind":"peak","name":"Steele Butte","lat":38.0750466,"lon":-110.9211301,"elevationM":2094},{"id":"node:356674338","kind":"peak","name":"Sugarloaf Butte","lat":38.47026,"lon":-110.1651296,"elevationM":1660},{"id":"node:356674445","kind":"peak","name":"Table Mountain","lat":38.1622769,"lon":-110.836208,"elevationM":2584},{"id":"node:356674478","kind":"peak","name":"Teapot Rock","lat":38.0871306,"lon":-110.1118418,"elevationM":1862},{"id":"node:356674481","kind":"peak","name":"Temple Mountain","lat":38.688319,"lon":-110.6791774,"elevationM":2064},{"id":"node:356674491","kind":"peak","name":"Texas Hill","lat":38.4989283,"lon":-110.4153444,"elevationM":1749},{"id":"node:356674499","kind":"peak","name":"The Big Flat Tops","lat":38.5140459,"lon":-110.4588006,"elevationM":1794},{"id":"node:356674506","kind":"peak","name":"The Block","lat":38.0294307,"lon":-110.7257071,"elevationM":2326},{"id":"node:356674507","kind":"peak","name":"The Block","lat":38.0302646,"lon":-110.2393035,"elevationM":2043},{"id":"node:356674516","kind":"peak","name":"The Cone","lat":38.7186662,"lon":-110.2273869,"elevationM":1415},{"id":"node:356674521","kind":"peak","name":"The Flat Tops","lat":38.5284104,"lon":-110.4681272,"elevationM":1854},{"id":"node:356674573","kind":"peak","name":"The Wickiup","lat":38.906996,"lon":-110.6886507,"elevationM":2116},{"id":"node:356674613","kind":"peak","name":"Tomsich Butte","lat":38.6869036,"lon":-110.9895053,"elevationM":1772},{"id":"node:356674628","kind":"peak","name":"Turkey Knob","lat":38.0526566,"lon":-110.5626279,"elevationM":1628},{"id":"node:356674635","kind":"peak","name":"Twin Knolls","lat":38.7687962,"lon":-110.6776328,"elevationM":2035},{"id":"node:356674781","kind":"peak","name":"White Point","lat":38.2660858,"lon":-110.7490002,"elevationM":1479},{"id":"node:356674793","kind":"peak","name":"Whitbeck Knoll","lat":38.4219404,"lon":-110.3387243,"elevationM":1773},{"id":"node:356674802","kind":"peak","name":"Wild Horse Butte","lat":38.5786367,"lon":-110.7202205,"elevationM":1650},{"id":"node:356674804","kind":"peak","name":"Wildcat Butte","lat":38.6065514,"lon":-110.4147152,"elevationM":1530},{"id":"node:356675470","kind":"peak","name":"Block Mountain","lat":38.8039365,"lon":-110.7376244,"elevationM":2262},{"id":"node:356675472","kind":"peak","name":"Blue Knoll","lat":38.1891511,"lon":-110.6920952,"elevationM":1585},{"id":"node:356675550","kind":"peak","name":"Dellenbaugh Butte","lat":38.8249751,"lon":-110.111799,"elevationM":1322},{"id":"node:356675680","kind":"peak","name":"Golden Gate","lat":38.9351287,"lon":-110.8378293,"elevationM":1911},{"id":"node:356676097","kind":"peak","name":"Penitentiary Point","lat":38.2751792,"lon":-110.6686709,"elevationM":1511},{"id":"node:356676183","kind":"peak","name":"Round Knoll","lat":38.9447782,"lon":-110.694131,"elevationM":1897},{"id":"node:356676300","kind":"peak","name":"Square Top","lat":38.7742785,"lon":-110.8957607,"elevationM":2248},{"id":"node:356683139","kind":"peak","name":"The Hat","lat":38.1485967,"lon":-110.1909676,"elevationM":2031},{"id":"node:356684185","kind":"peak","name":"Town Point","lat":38.3281147,"lon":-110.9951109,"elevationM":1749},{"id":"node:356684187","kind":"peak","name":"Blue Knoll","lat":38.2891061,"lon":-110.6923963,"elevationM":1405},{"id":"node:356684335","kind":"peak","name":"Buttes of the Cross","lat":38.3629792,"lon":-110.0541355,"elevationM":1706},{"id":"node:356685548","kind":"peak","name":"Sy Butte","lat":38.5774955,"lon":-110.9320506,"elevationM":1890},{"id":"node:3199889837","kind":"peak","name":"Steamboat Point","lat":38.3528906,"lon":-110.8558217,"elevationM":null},{"id":"node:3216567453","kind":"peak","name":"Burr Point","lat":38.1627245,"lon":-110.4607392,"elevationM":null},{"id":"node:3216567454","kind":"peak","name":"North Point","lat":38.2524493,"lon":-110.527239,"elevationM":null},{"id":"node:3228870384","kind":"peak","name":"The Notch","lat":38.4490555,"lon":-110.6803195,"elevationM":null},{"id":"node:3238246331","kind":"peak","name":"Locomotive Point","lat":38.8807278,"lon":-110.7673254,"elevationM":null},{"id":"node:3278273775","kind":"peak","name":"Point of Rocks","lat":38.4299593,"lon":-110.4960486,"elevationM":null},{"id":"node:3279345062","kind":"peak","name":"The Pinnacles","lat":38.2591889,"lon":-110.3134349,"elevationM":null},{"id":"node:3294531664","kind":"peak","name":"Cain Point","lat":38.3311948,"lon":-110.9410485,"elevationM":1811},{"id":"node:3295337597","kind":"peak","name":"Beaver Point","lat":38.2786214,"lon":-110.596925,"elevationM":1539},{"id":"node:3295337598","kind":"peak","name":"Burr Point","lat":38.2591677,"lon":-110.6278596,"elevationM":1532},{"id":"node:3295337599","kind":"peak","name":"Twin Point","lat":38.1736751,"lon":-110.3750204,"elevationM":1740},{"id":"node:3295436773","kind":"peak","name":"Through Point","lat":38.536313,"lon":-110.9907396,"elevationM":1986},{"id":"node:3303393834","kind":"peak","name":"Blue Point","lat":38.3221743,"lon":-110.8246325,"elevationM":1546},{"id":"node:3327746703","kind":"peak","name":"Chute Point","lat":38.6332527,"lon":-110.7874756,"elevationM":1983},{"id":"node:3330091369","kind":"peak","name":"Cat Point","lat":38.747925,"lon":-110.9795415,"elevationM":2203},{"id":"node:3330091370","kind":"peak","name":"Devil Point","lat":38.8121045,"lon":-110.9357667,"elevationM":2256},{"id":"node:3331837038","kind":"peak","name":"Red Hills Point","lat":38.6332601,"lon":-110.9010282,"elevationM":2000},{"id":"node:3332442510","kind":"peak","name":"McKay Point","lat":38.734191,"lon":-110.8479919,"elevationM":2128},{"id":"node:3332992497","kind":"peak","name":"Rafael Point","lat":38.7585681,"lon":-110.7395221,"elevationM":2141},{"id":"node:3334172063","kind":"peak","name":"North Twin Point","lat":38.7733656,"lon":-110.682413,"elevationM":2080},{"id":"node:3336140445","kind":"peak","name":"Ghost Rock","lat":38.8615171,"lon":-110.8124956,"elevationM":null},{"id":"node:3336160169","kind":"peak","name":"Grease Point","lat":38.8278285,"lon":-110.5243855,"elevationM":2044},{"id":"node:3338791198","kind":"peak","name":"Buckmaster Point","lat":38.9640877,"lon":-110.3518889,"elevationM":1398},{"id":"node:3338791199","kind":"peak","name":"Dragon Point","lat":38.9391232,"lon":-110.4549088,"elevationM":1849},{"id":"node:3338791202","kind":"peak","name":"Indian Point","lat":38.8879935,"lon":-110.6755376,"elevationM":2177},{"id":"node:3338791203","kind":"peak","name":"Rough Point","lat":38.5192537,"lon":-110.7393194,"elevationM":1602},{"id":"node:3338958545","kind":"peak","name":"Chimney Rock","lat":38.8826919,"lon":-110.8139074,"elevationM":2257},{"id":"node:3338958546","kind":"peak","name":"Eagle Point","lat":38.9037507,"lon":-110.8868117,"elevationM":2146},{"id":"node:3338958547","kind":"peak","name":"Saddle Point","lat":38.8932902,"lon":-110.7516469,"elevationM":2305},{"id":"node:3340145309","kind":"peak","name":"Devil's Monument","lat":38.9526807,"lon":-110.8110147,"elevationM":2068},{"id":"node:3340145311","kind":"peak","name":"Koal Point","lat":38.9234443,"lon":-110.8250166,"elevationM":2157},{"id":"node:3340145312","kind":"peak","name":"The Blocks","lat":38.9025638,"lon":-110.8393711,"elevationM":null},{"id":"node:3341985707","kind":"peak","name":"Pinnacle Point","lat":38.9743556,"lon":-110.7328026,"elevationM":2136},{"id":"node:3391697922","kind":"peak","name":"Butler Point","lat":38.0998068,"lon":-110.6396474,"elevationM":1722},{"id":"node:3394179831","kind":"peak","name":"Poison Point","lat":38.074196,"lon":-110.4616972,"elevationM":1790},{"id":"node:3403942506","kind":"peak","name":"Ranch Point","lat":38.0051621,"lon":-110.629143,"elevationM":1692},{"id":"node:3410477686","kind":"peak","name":"Corral Point","lat":38.2707081,"lon":-110.2570003,"elevationM":1962},{"id":"node:3410477691","kind":"peak","name":"Sam Point","lat":38.2403186,"lon":-110.3279268,"elevationM":1870},{"id":"node:3410655703","kind":"peak","name":"The Pinnacle","lat":38.1501342,"lon":-110.3425624,"elevationM":1624},{"id":"node:3410781447","kind":"peak","name":"Clyde Point","lat":38.3910001,"lon":-110.1146473,"elevationM":1887},{"id":"node:3411971670","kind":"peak","name":"Cataract Point","lat":38.0090477,"lon":-110.2027895,"elevationM":2129},{"id":"node:3411971686","kind":"peak","name":"The Mother And Child","lat":38.1397101,"lon":-110.0720845,"elevationM":null},{"id":"node:3413505444","kind":"peak","name":"Ridge Point","lat":38.1308131,"lon":-110.3135606,"elevationM":1936},{"id":"node:3413602180","kind":"peak","name":"Fiddler Point","lat":38.0810904,"lon":-110.2834798,"elevationM":1947},{"id":"node:3414384316","kind":"peak","name":"Fork Point","lat":38.0585777,"lon":-110.0634097,"elevationM":1785},{"id":"node:3419561494","kind":"peak","name":"Loop Point","lat":38.443626,"lon":-110.066161,"elevationM":1618},{"id":"node:3419561498","kind":"peak","name":"Tank Point","lat":38.5107697,"lon":-110.0785089,"elevationM":1590},{"id":"node:3421616924","kind":"peak","name":"Horseshoe Point","lat":38.4111714,"lon":-110.3028279,"elevationM":1765},{"id":"node:3421722938","kind":"peak","name":"End Point","lat":38.5911166,"lon":-110.3266331,"elevationM":1582},{"id":"node:3421722939","kind":"peak","name":"Punk Point","lat":38.6412741,"lon":-110.258666,"elevationM":1525},{"id":"node:3421722940","kind":"peak","name":"Shine Point","lat":38.7157302,"lon":-110.2176773,"elevationM":1473},{"id":"node:3421769650","kind":"peak","name":"Iron Point","lat":38.7504728,"lon":-110.3783459,"elevationM":1406},{"id":"node:3421769651","kind":"peak","name":"Spire Point","lat":38.5093047,"lon":-110.4327818,"elevationM":1678},{"id":"node:3431631988","kind":"peak","name":"Spring Point","lat":38.6406165,"lon":-110.0078163,"elevationM":1538},{"id":"node:3577582105","kind":"peak","name":"Ocean Point","lat":38.0051832,"lon":-110.0875954,"elevationM":null},{"id":"node:3579237665","kind":"peak","name":"Waterhole Point","lat":38.0157558,"lon":-110.0397519,"elevationM":1837},{"id":"node:7532757088","kind":"peak","name":"Radio Hill","lat":38.3734402,"lon":-110.6995153,"elevationM":null},{"id":"node:8303340546","kind":"peak","name":"Mount Ellen","lat":38.108935,"lon":-110.813588,"elevationM":3512},{"id":"node:9386909407","kind":"peak","name":"The Ding Dang Dome","lat":38.5986862,"lon":-110.851295,"elevationM":null},{"id":"node:10733542868","kind":"peak","name":"Turkey Tower","lat":38.7897549,"lon":-110.8416565,"elevationM":null},{"id":"node:11577097455","kind":"peak","name":"TeePee Rock","lat":38.7025017,"lon":-110.7980984,"elevationM":null},{"id":"node:11940086027","kind":"peak","name":"Leprechaun Lookout","lat":38.019911,"lon":-110.5320537,"elevationM":null},{"id":"node:12382023910","kind":"peak","name":"Tomsich Butte","lat":38.6862551,"lon":-110.9865475,"elevationM":1772}]}