{"tileKey":"la_p31_lo_m111","version":"v1-1775891056926","entries":[{"id":"node:359241838","kind":"peak","name":"Ajax Hill","lat":31.6756473,"lon":-110.0809102,"elevationM":1613},{"id":"node:359243249","kind":"peak","name":"Boot Hill","lat":31.7203681,"lon":-110.0703543,"elevationM":1366},{"id":"node:359243441","kind":"peak","name":"Brunckow Hill","lat":31.617407,"lon":-110.1575769,"elevationM":1359},{"id":"node:359244508","kind":"peak","name":"Comstock Hill","lat":31.7195883,"lon":-110.0741962,"elevationM":1394},{"id":"node:359246279","kind":"peak","name":"Haberstock Hill","lat":31.8167541,"lon":-110.0095181,"elevationM":1539},{"id":"node:359247561","kind":"peak","name":"Knob Hill","lat":31.9223065,"lon":-110.059793,"elevationM":1550},{"id":"node:359248453","kind":"peak","name":"Mays Hills","lat":31.7099743,"lon":-110.12901,"elevationM":1516},{"id":"node:359248685","kind":"peak","name":"Military Hill","lat":31.6834247,"lon":-110.0686878,"elevationM":1611},{"id":"node:359251837","kind":"peak","name":"Smith Hill","lat":31.8586973,"lon":-110.0231279,"elevationM":1508},{"id":"node:359252434","kind":"peak","name":"The Dome","lat":31.7109238,"lon":-110.1178546,"elevationM":1551},{"id":"node:359252484","kind":"peak","name":"The Three Brothers Hills","lat":31.7139162,"lon":-110.1267748,"elevationM":1428},{"id":"node:359252653","kind":"peak","name":"Tombstone Hills","lat":31.7053685,"lon":-110.0909101,"elevationM":1387},{"id":"node:359252992","kind":"peak","name":"Uncle Sam Hill","lat":31.6973131,"lon":-110.1106325,"elevationM":1468},{"id":"node:359261406","kind":"peak","name":"American Peak","lat":31.4467634,"lon":-110.7217511,"elevationM":1878},{"id":"node:359261551","kind":"peak","name":"Apache Peak","lat":31.8248086,"lon":-110.4289648,"elevationM":2530},{"id":"node:359261616","kind":"peak","name":"Ashburn Mountain","lat":31.5364829,"lon":-110.6423058,"elevationM":1640},{"id":"node:359261712","kind":"peak","name":"Bald Hill","lat":31.6025924,"lon":-110.5211913,"elevationM":1540},{"id":"node:359262037","kind":"peak","name":"Mount Benedict","lat":31.3962846,"lon":-110.92288,"elevationM":1392},{"id":"node:359262578","kind":"peak","name":"Bob Thompson Peak","lat":31.3679026,"lon":-110.2440815,"elevationM":2235},{"id":"node:359262850","kind":"peak","name":"Mount Bruce","lat":31.7089781,"lon":-110.4942435,"elevationM":1812},{"id":"node:359263545","kind":"peak","name":"Campini Mesa","lat":31.3512122,"lon":-110.4411916,"elevationM":1623},{"id":"node:359263554","kind":"peak","name":"Candelerio Peak","lat":31.5550933,"lon":-110.6611947,"elevationM":1511},{"id":"node:359263563","kind":"peak","name":"Canelo Hills","lat":31.5320388,"lon":-110.5886941,"elevationM":1647},{"id":"node:359263654","kind":"peak","name":"Castle Butte","lat":31.5379684,"lon":-110.7895675,"elevationM":1351},{"id":"node:359264242","kind":"peak","name":"Copper Mountain","lat":31.549538,"lon":-110.6409167,"elevationM":1581},{"id":"node:359264312","kind":"peak","name":"Coronado Peak","lat":31.3458688,"lon":-110.284691,"elevationM":2092},{"id":"node:359264336","kind":"peak","name":"Cottonwood Peak","lat":31.85953,"lon":-110.4053534,"elevationM":2164},{"id":"node:359264567","kind":"peak","name":"Cuates Butte","lat":31.4712055,"lon":-110.9228651,"elevationM":1196},{"id":"node:359264843","kind":"peak","name":"Demonstration Hill","lat":31.5664831,"lon":-110.3867469,"elevationM":1509},{"id":"node:359265348","kind":"peak","name":"East Peak","lat":31.860919,"lon":-110.3842422,"elevationM":2036},{"id":"node:359265397","kind":"peak","name":"Easter Mountain","lat":31.9097701,"lon":-110.4287337,"elevationM":1482},{"id":"node:359265495","kind":"peak","name":"Elephant Head","lat":31.7242543,"lon":-110.9389773,"elevationM":1709},{"id":"node:359265576","kind":"peak","name":"Empire Mountains","lat":31.8836954,"lon":-110.6417471,"elevationM":1525},{"id":"node:359265604","kind":"peak","name":"Eureka Peak","lat":31.4261916,"lon":-110.3818357,"elevationM":2224},{"id":"node:359265634","kind":"peak","name":"Mount Fagan","lat":31.8941947,"lon":-110.7266344,"elevationM":1882},{"id":"node:359265932","kind":"peak","name":"French Joe Peak","lat":31.8181422,"lon":-110.4264648,"elevationM":2321},{"id":"node:359266328","kind":"peak","name":"Granite Peak","lat":31.4117662,"lon":-110.3286913,"elevationM":2547},{"id":"node:359266331","kind":"peak","name":"Granite Peak","lat":31.7750876,"lon":-110.4384094,"elevationM":2261},{"id":"node:359266461","kind":"peak","name":"Grosvenor Hills","lat":31.5764803,"lon":-110.9034207,"elevationM":1600},{"id":"node:359266700","kind":"peak","name":"Haystack Mountain","lat":31.9084176,"lon":-110.4578536,"elevationM":1483},{"id":"node:359266836","kind":"peak","name":"Hermosa Hill","lat":31.4564853,"lon":-110.724529,"elevationM":1695},{"id":"node:359267159","kind":"peak","name":"Mount Hopkins","lat":31.6890556,"lon":-110.884703,"elevationM":2576},{"id":"node:359267365","kind":"peak","name":"Huerfano Butte","lat":31.8589733,"lon":-110.832586,"elevationM":1217},{"id":"node:359267371","kind":"peak","name":"Mount Hughes","lat":31.6053694,"lon":-110.6811944,"elevationM":1784},{"id":"node:359267455","kind":"peak","name":"Indian Head Mountain","lat":31.5175945,"lon":-110.6689731,"elevationM":1707},{"id":"node:359267583","kind":"peak","name":"Jack Mountain","lat":31.6924868,"lon":-110.8676532,"elevationM":2270},{"id":"node:359267784","kind":"peak","name":"Jones Mesa","lat":31.4145431,"lon":-110.4886927,"elevationM":1626},{"id":"node:359267798","kind":"peak","name":"Josephine Peak","lat":31.6809049,"lon":-110.8416604,"elevationM":2563},{"id":"node:359268038","kind":"peak","name":"Kunde Mountain","lat":31.5450935,"lon":-110.6934176,"elevationM":1601},{"id":"node:359268515","kind":"peak","name":"Lone Mountain","lat":31.4084326,"lon":-110.3967473,"elevationM":1976},{"id":"node:359268591","kind":"peak","name":"Lookout Knoll","lat":31.482874,"lon":-110.5403606,"elevationM":1875},{"id":"node:359268858","kind":"peak","name":"Lyle Peak","lat":31.4823729,"lon":-110.3912771,"elevationM":2387},{"id":"node:359269105","kind":"peak","name":"McCleary Peak","lat":31.7281299,"lon":-110.8478324,"elevationM":2546},{"id":"node:359269428","kind":"peak","name":"Miller Peak","lat":31.3928232,"lon":-110.2929317,"elevationM":2886},{"id":"node:359269537","kind":"peak","name":"Montezuma Peak","lat":31.3593007,"lon":-110.2641563,"elevationM":2304},{"id":"node:359269811","kind":"peak","name":"Mustang Mountains","lat":31.6823124,"lon":-110.4706332,"elevationM":1862},{"id":"node:359269817","kind":"peak","name":"Mustang Peak","lat":31.6934231,"lon":-110.4764662,"elevationM":1914},{"id":"node:359270083","kind":"peak","name":"North Saddle Mountain","lat":31.5209276,"lon":-110.6789732,"elevationM":1656},{"id":"node:359270179","kind":"peak","name":"Yoas Mountain","lat":31.7142545,"lon":-110.9578666,"elevationM":1337},{"id":"node:359270245","kind":"peak","name":"One Hundred Three Mesa","lat":31.3401019,"lon":-110.3389682,"elevationM":1640},{"id":"node:359270480","kind":"peak","name":"Pat Scott Peak","lat":31.4292656,"lon":-110.3464693,"elevationM":2596},{"id":"node:359270668","kind":"peak","name":"Peterson Peak","lat":31.4776921,"lon":-110.3974821,"elevationM":2410},{"id":"node:359271463","kind":"peak","name":"Ramsey Peak","lat":31.4331544,"lon":-110.3348027,"elevationM":2659},{"id":"node:359271500","kind":"peak","name":"Rattlesnake Peak","lat":31.4267655,"lon":-110.3753584,"elevationM":2193},{"id":"node:359271564","kind":"peak","name":"Red Hill","lat":31.4003655,"lon":-110.737861,"elevationM":1749},{"id":"node:359271643","kind":"peak","name":"Red Mountain","lat":31.5038219,"lon":-110.7189672,"elevationM":1782},{"id":"node:359272375","kind":"peak","name":"Saddle Mountain","lat":31.4884288,"lon":-110.6631398,"elevationM":1771},{"id":"node:359272439","kind":"peak","name":"Salero Mountain","lat":31.5931468,"lon":-110.8606422,"elevationM":1668},{"id":"node:359272484","kind":"peak","name":"San Cayetano Mountains","lat":31.5312032,"lon":-110.9581436,"elevationM":1597},{"id":"node:359272486","kind":"peak","name":"San Cayetano Peak","lat":31.5334254,"lon":-110.9620326,"elevationM":1814},{"id":"node:359272540","kind":"peak","name":"Sanford Butte","lat":31.5068704,"lon":-110.8144793,"elevationM":1422},{"id":"node:359273044","kind":"peak","name":"Mount Shibell","lat":31.5084259,"lon":-110.9606436,"elevationM":1533},{"id":"node:359273409","kind":"peak","name":"Santa Rita Peak","lat":31.5862894,"lon":-110.8377641,"elevationM":1752},{"id":"node:359273677","kind":"peak","name":"Sutherland Peak","lat":31.3864892,"lon":-110.3339687,"elevationM":2204},{"id":"node:359273972","kind":"peak","name":"The Cape","lat":31.8228644,"lon":-110.4020203,"elevationM":2122},{"id":"node:359274531","kind":"peak","name":"Twin Buttes","lat":31.899529,"lon":-110.4203533,"elevationM":1579},{"id":"node:359274941","kind":"peak","name":"Mount Washington","lat":31.3534333,"lon":-110.725361,"elevationM":2202},{"id":"node:359275815","kind":"peak","name":"Crawford Hill","lat":31.3359331,"lon":-110.9484201,"elevationM":1217},{"id":"node:359275831","kind":"peak","name":"Ditch Mountain","lat":31.6906441,"lon":-110.8006407,"elevationM":1963},{"id":"node:359276099","kind":"peak","name":"North West Dome","lat":31.7028672,"lon":-110.4906326,"elevationM":1873},{"id":"node:359276152","kind":"peak","name":"Pete Mountain","lat":31.707588,"lon":-110.8959207,"elevationM":2307},{"id":"node:359276604","kind":"peak","name":"Castle Dome","lat":31.7775861,"lon":-110.7928624,"elevationM":2022},{"id":"node:359276750","kind":"peak","name":"Granite Mountain","lat":31.7578643,"lon":-110.7684173,"elevationM":1814},{"id":"node:359276763","kind":"peak","name":"Harts Butte","lat":31.8481496,"lon":-110.7634607,"elevationM":1861},{"id":"node:359277117","kind":"peak","name":"Weigles Butte","lat":31.8376452,"lon":-110.7678979,"elevationM":1908},{"id":"node:359284582","kind":"peak","name":"Florida Peak","lat":31.7265187,"lon":-110.830016,"elevationM":2480},{"id":"node:359285672","kind":"peak","name":"El Plomo","lat":31.6134239,"lon":-110.8617533,"elevationM":1711},{"id":"node:2274721197","kind":"peak","name":"Carr Peak","lat":31.4129968,"lon":-110.3045583,"elevationM":2816},{"id":"node:2847449990","kind":"peak","name":"Mount Wrightson","lat":31.6961502,"lon":-110.8480942,"elevationM":2882},{"id":"node:6500389086","kind":"peak","name":"Sunrise Hill","lat":31.6130895,"lon":-110.9289636,"elevationM":null},{"id":"node:6558726880","kind":"peak","name":"Scott's Peak","lat":31.5568338,"lon":-110.4384127,"elevationM":null},{"id":"node:7037297952","kind":"peak","name":"Cerro de la Pirinola","lat":31.2609481,"lon":-110.9099009,"elevationM":1495},{"id":"node:7055942130","kind":"peak","name":"Cerros Altos","lat":31.2920869,"lon":-110.996543,"elevationM":1641},{"id":"node:7055942131","kind":"peak","name":"Cerro Ocotoso","lat":31.3158494,"lon":-110.9248669,"elevationM":null},{"id":"node:7055942132","kind":"peak","name":"Cerro El Ocotilloso","lat":31.2241864,"lon":-110.9236463,"elevationM":null},{"id":"node:7055942133","kind":"peak","name":"Cerro La Bandera","lat":31.1974764,"lon":-110.8979582,"elevationM":null},{"id":"node:7055942134","kind":"peak","name":"Cerro Los Chivos","lat":31.188827,"lon":-110.8893575,"elevationM":null},{"id":"node:7055942135","kind":"peak","name":"Cerro Pedregoso","lat":31.2383154,"lon":-110.9422029,"elevationM":null},{"id":"node:7055942140","kind":"peak","name":"Cerro El Ocotillo","lat":31.3068628,"lon":-110.9867378,"elevationM":1435},{"id":"node:7055942143","kind":"peak","name":"Cerro El Madroño","lat":31.2378067,"lon":-110.6605391,"elevationM":null},{"id":"node:7055942144","kind":"peak","name":"Cerro El Castillo","lat":31.195804,"lon":-110.6477814,"elevationM":null},{"id":"node:7057255677","kind":"peak","name":"Cerro Las Maromas","lat":31.3079076,"lon":-110.7177555,"elevationM":1650},{"id":"node:7057255679","kind":"peak","name":"Cerro Los Metates","lat":31.1448617,"lon":-110.7724587,"elevationM":null},{"id":"node:7071346162","kind":"peak","name":"Puerto de Cananea","lat":31.0221893,"lon":-110.3868703,"elevationM":null},{"id":"node:7071346163","kind":"peak","name":"Cerro El Tordillo","lat":31.085452,"lon":-110.3639197,"elevationM":null},{"id":"node:7071354794","kind":"peak","name":"Cerro El Tordillo","lat":31.3310635,"lon":-110.744039,"elevationM":1540},{"id":"node:7074150991","kind":"peak","name":"Cerro Pelon","lat":31.3314468,"lon":-110.926933,"elevationM":1319},{"id":"node:7074150992","kind":"peak","name":"Cerro Atravesado","lat":31.3245472,"lon":-110.9112492,"elevationM":null},{"id":"node:7075699483","kind":"peak","name":"Cerro El Cibuta","lat":31.0423139,"lon":-110.9790751,"elevationM":2065},{"id":"node:7075773640","kind":"peak","name":"Cerro El Tapiro","lat":31.03604,"lon":-110.9697511,"elevationM":null},{"id":"node:7075773641","kind":"peak","name":"Cerro Pedregoso","lat":31.0371068,"lon":-110.9497879,"elevationM":null},{"id":"node:7075773642","kind":"peak","name":"Cerro El Mojon","lat":31.0392579,"lon":-110.9893078,"elevationM":null},{"id":"node:7076510829","kind":"peak","name":"Loma La Colorada","lat":31.2442819,"lon":-110.6142425,"elevationM":null},{"id":"node:7076510830","kind":"peak","name":"Cerro Prieto","lat":31.2205381,"lon":-110.5514186,"elevationM":1850},{"id":"node:7076510831","kind":"peak","name":"Cerro Los Tubos","lat":31.2542141,"lon":-110.5195205,"elevationM":null},{"id":"node:7076510832","kind":"peak","name":"Cerro Las Cuevitas","lat":31.2645287,"lon":-110.5276839,"elevationM":null},{"id":"node:7076510833","kind":"peak","name":"Cerro El Jumate","lat":31.2584984,"lon":-110.5405652,"elevationM":null},{"id":"node:7076510834","kind":"peak","name":"Cerro La Escuedra","lat":31.2780457,"lon":-110.5027003,"elevationM":null},{"id":"node:7076510835","kind":"peak","name":"Loma La Cuchilla","lat":31.2981434,"lon":-110.3607186,"elevationM":null},{"id":"node:7076510836","kind":"peak","name":"Cerro Agua Dulce","lat":31.3176723,"lon":-110.3220279,"elevationM":null},{"id":"node:7076510837","kind":"peak","name":"Cerro Caloso","lat":31.2896864,"lon":-110.3026539,"elevationM":null},{"id":"node:7076510838","kind":"peak","name":"Cerro El Tule","lat":31.2894432,"lon":-110.2874039,"elevationM":null},{"id":"node:7076510839","kind":"peak","name":"Cerro Los Pelones","lat":31.2752703,"lon":-110.2946049,"elevationM":null},{"id":"node:7076510840","kind":"peak","name":"Mesa Las Nutrias","lat":31.216338,"lon":-110.2839555,"elevationM":null},{"id":"node:7076510841","kind":"peak","name":"Mesa Wester","lat":31.1943162,"lon":-110.2356879,"elevationM":null},{"id":"node:7076510842","kind":"peak","name":"Mesa San Rafael","lat":31.1873318,"lon":-110.2654497,"elevationM":null},{"id":"node:7076510843","kind":"peak","name":"Mesa Bonita","lat":31.0619126,"lon":-110.2489272,"elevationM":null},{"id":"node:7076510844","kind":"peak","name":"Mesa El Represo","lat":31.060755,"lon":-110.3107655,"elevationM":null},{"id":"node:7076510845","kind":"peak","name":"Mesa La Bellota","lat":31.0716438,"lon":-110.3270745,"elevationM":null},{"id":"node:7076510846","kind":"peak","name":"Cerro Prieto","lat":31.0728592,"lon":-110.4268857,"elevationM":null},{"id":"node:7076510847","kind":"peak","name":"Cerro El Cajon","lat":31.0997608,"lon":-110.4726828,"elevationM":null},{"id":"node:7076510848","kind":"peak","name":"Cerro Colorado","lat":31.0499458,"lon":-110.5186829,"elevationM":null},{"id":"node:7076510849","kind":"peak","name":"Cerro La Aguja","lat":31.0874393,"lon":-110.5620249,"elevationM":null},{"id":"node:7076510850","kind":"peak","name":"Cerro La Virgen","lat":31.1056117,"lon":-110.585766,"elevationM":null},{"id":"node:7076510851","kind":"peak","name":"Cerro Del Tambo","lat":31.120829,"lon":-110.5907913,"elevationM":null},{"id":"node:7076510852","kind":"peak","name":"Cerro El Divisadero","lat":31.1293256,"lon":-110.6048659,"elevationM":null},{"id":"node:7076510853","kind":"peak","name":"Mesa El Bombin","lat":31.0994273,"lon":-110.6621579,"elevationM":null},{"id":"node:7076510854","kind":"peak","name":"Mesa San Carlos","lat":31.0841815,"lon":-110.6424941,"elevationM":null},{"id":"node:7076510855","kind":"peak","name":"Mesa El Mesquite","lat":31.068221,"lon":-110.6395648,"elevationM":null},{"id":"node:7076510856","kind":"peak","name":"Mesa Tanque Negro","lat":31.0560713,"lon":-110.6218837,"elevationM":null},{"id":"node:7076510857","kind":"peak","name":"Cerro La Concordia","lat":31.0306982,"lon":-110.6093593,"elevationM":null},{"id":"node:7076510858","kind":"peak","name":"Mesa La Concordia","lat":31.0142349,"lon":-110.6442849,"elevationM":null},{"id":"node:7076510859","kind":"peak","name":"Cerro El Bolerio","lat":31.0040767,"lon":-110.6835337,"elevationM":null},{"id":"node:7103342410","kind":"peak","name":"Cerro Los Picos","lat":31.1867661,"lon":-110.800988,"elevationM":null},{"id":"node:7103342411","kind":"peak","name":"Cerro El Amol","lat":31.1660919,"lon":-110.8723262,"elevationM":null},{"id":"node:7103342412","kind":"peak","name":"Cerro El Mezquite","lat":31.1539726,"lon":-110.8945565,"elevationM":null},{"id":"node:9177313674","kind":"peak","name":"Cerro Los Negros","lat":31.0139324,"lon":-110.755004,"elevationM":null},{"id":"node:9941685770","kind":"peak","name":"Peach Knob","lat":31.864353,"lon":-110.7939702,"elevationM":null},{"id":"node:9983700177","kind":"peak","name":"Helvetia","lat":31.8428856,"lon":-110.7618767,"elevationM":1882},{"id":"node:9983700194","kind":"peak","name":"Beach","lat":31.9121055,"lon":-110.7450331,"elevationM":1547},{"id":"node:11366684406","kind":"peak","name":"Whetstone Mountains","lat":31.7947589,"lon":-110.4252148,"elevationM":null},{"id":"node:12007293547","kind":"peak","name":"Cerro Las Maromas","lat":31.3079302,"lon":-110.7179181,"elevationM":null},{"id":"node:12007293548","kind":"peak","name":"Sierra San Antonio","lat":31.2920759,"lon":-110.6875756,"elevationM":3000},{"id":"node:12067150229","kind":"peak","name":"Cerro La vibora","lat":31.0209991,"lon":-110.7848159,"elevationM":null},{"id":"node:12138710479","kind":"peak","name":"Cerro La Cueva","lat":31.2571467,"lon":-110.48929,"elevationM":null},{"id":"node:12496397339","kind":"peak","name":"La Calera","lat":31.0418919,"lon":-110.5219232,"elevationM":null},{"id":"node:12654329172","kind":"peak","name":"Cerro Los Venados","lat":31.1017486,"lon":-110.9927653,"elevationM":null},{"id":"node:13189641660","kind":"peak","name":"Huachuca Peak","lat":31.4906181,"lon":-110.382474,"elevationM":2554},{"id":"node:13232174297","kind":"peak","name":"Split Rock Peak","lat":31.5332854,"lon":-110.4100175,"elevationM":null},{"id":"node:13324990593","kind":"peak","name":"Star Hill","lat":31.5494876,"lon":-110.3731939,"elevationM":null},{"id":"node:13602267620","kind":"peak","name":"Split Rock","lat":31.5338208,"lon":-110.4092957,"elevationM":null}]}