{"tileKey":"la_p59_lo_m4","version":"v1-1775891056926","entries":[{"id":"node:1329654166","kind":"peak","name":"Blotchnie Fiold","lat":59.143254,"lon":-3.0190565,"elevationM":250},{"id":"node:1329655147","kind":"peak","name":"Knitchen Hill","lat":59.1423072,"lon":-3.0000112,"elevationM":227},{"id":"node:1329709825","kind":"peak","name":"North Hill","lat":59.3216183,"lon":-3.0480902,"elevationM":104},{"id":"node:1329715937","kind":"peak","name":"Knucker Hill","lat":59.3058049,"lon":-3.0050854,"elevationM":113},{"id":"node:1329726112","kind":"peak","name":"Skea Hill","lat":59.2793847,"lon":-3.0160199,"elevationM":82},{"id":"node:1329726636","kind":"peak","name":"Couters Hill","lat":59.3188054,"lon":-3.0253183,"elevationM":108},{"id":"node:1329730402","kind":"peak","name":"Fitty Hill","lat":59.2864306,"lon":-3.0026113,"elevationM":169},{"id":"node:1338311963","kind":"peak","name":"Ward Hill","lat":59.1524065,"lon":-3.0795458,"elevationM":198},{"id":"node:1338312042","kind":"peak","name":"Sinclair's Hill","lat":59.1362666,"lon":-3.0448484,"elevationM":115},{"id":"node:1348016555","kind":"peak","name":"Tooin of Rusht","lat":59.064381,"lon":-3.1264629,"elevationM":null},{"id":"node:1348016607","kind":"peak","name":"Ward of Redland","lat":59.0420936,"lon":-3.1152107,"elevationM":209},{"id":"node:1348016643","kind":"peak","name":"South Kews","lat":59.0903778,"lon":-3.1091806,"elevationM":140},{"id":"node:1348016702","kind":"peak","name":"Burrien Hill","lat":59.03199,"lon":-3.1240083,"elevationM":202},{"id":"node:1348016726","kind":"peak","name":"Baillie Hill","lat":59.0568548,"lon":-3.1156425,"elevationM":180},{"id":"node:1348016773","kind":"peak","name":"Starling Hill","lat":59.0867317,"lon":-3.1389247,"elevationM":189},{"id":"node:1348016794","kind":"peak","name":"Hill of Huntis","lat":59.0949281,"lon":-3.1100974,"elevationM":168},{"id":"node:1348016880","kind":"peak","name":"Muckle Billia Fiold","lat":59.0952499,"lon":-3.1269295,"elevationM":196},{"id":"node:1348016913","kind":"peak","name":"Fibla Fiold","lat":59.0722449,"lon":-3.109908,"elevationM":null},{"id":"node:1348016962","kind":"peak","name":"Kame of Corrigall","lat":59.0674649,"lon":-3.1606567,"elevationM":182},{"id":"node:1348017027","kind":"peak","name":"Mid Tooin","lat":59.0687455,"lon":-3.1213208,"elevationM":224},{"id":"node:1348017090","kind":"peak","name":"Ernie Tooin","lat":59.0583281,"lon":-3.1252194,"elevationM":213},{"id":"node:1348017465","kind":"peak","name":"North Kews","lat":59.092954,"lon":-3.1073198,"elevationM":150},{"id":"node:1348017582","kind":"peak","name":"Hindera Fiold","lat":59.0548212,"lon":-3.1405369,"elevationM":188},{"id":"node:1356827430","kind":"peak","name":"Hill of Cruaday","lat":59.0750673,"lon":-3.313682,"elevationM":103},{"id":"node:1898647939","kind":"peak","name":"Hammars Hill","lat":59.0852639,"lon":-3.0747743,"elevationM":165},{"id":"node:2347855513","kind":"peak","name":"Hill of Miffia","lat":59.0009738,"lon":-3.3296313,"elevationM":158},{"id":"node:3407054526","kind":"peak","name":"Linga Fiold","lat":59.0205446,"lon":-3.2864723,"elevationM":63},{"id":"node:3407054529","kind":"peak","name":"North Hill","lat":59.0018119,"lon":-3.3436397,"elevationM":151},{"id":"node:3407054530","kind":"peak","name":"Gyran","lat":59.0217818,"lon":-3.3242206,"elevationM":77},{"id":"node:3407054531","kind":"peak","name":"Kier Fiold","lat":59.0466031,"lon":-3.31435,"elevationM":59},{"id":"node:3407069716","kind":"peak","name":"Vestra Fiold","lat":59.0795634,"lon":-3.326538,"elevationM":129},{"id":"node:3407069717","kind":"peak","name":"Skelday Hill","lat":59.102579,"lon":-3.1874923,"elevationM":156},{"id":"node:3407069718","kind":"peak","name":"Hundland Hill","lat":59.1252686,"lon":-3.2225541,"elevationM":106},{"id":"node:3407069719","kind":"peak","name":"Vishall Hill","lat":59.1074246,"lon":-3.0736894,"elevationM":89},{"id":"node:3407069720","kind":"peak","name":"Kirbuster Hill","lat":59.1191777,"lon":-3.2571381,"elevationM":102},{"id":"node:3407069721","kind":"peak","name":"Mid Hill","lat":59.1053985,"lon":-3.1615693,"elevationM":193},{"id":"node:3407069722","kind":"peak","name":"Burgar Hill","lat":59.1163483,"lon":-3.149553,"elevationM":159},{"id":"node:3407069723","kind":"peak","name":"Costa Hill","lat":59.1485609,"lon":-3.2057761,"elevationM":152},{"id":"node:3407069724","kind":"peak","name":"Greeny Hill","lat":59.0934081,"lon":-3.2285193,"elevationM":153},{"id":"node:4790856711","kind":"peak","name":"Gorseness Hill","lat":59.0646638,"lon":-3.0321854,"elevationM":126},{"id":"node:4790856714","kind":"peak","name":"Enyas Hill","lat":59.0693969,"lon":-3.0346471,"elevationM":141},{"id":"node:8827868715","kind":"peak","name":"Kierfea Hill","lat":59.1718622,"lon":-3.0105775,"elevationM":235},{"id":"node:9664325396","kind":"peak","name":"Ravie Hill","lat":59.1079202,"lon":-3.2907453,"elevationM":98},{"id":"node:10822676511","kind":"peak","name":"Himmon Hill","lat":59.1302519,"lon":-3.1814968,"elevationM":80},{"id":"node:10822676512","kind":"peak","name":"Vinquin Hill","lat":59.1361141,"lon":-3.1778991,"elevationM":101},{"id":"node:10923941288","kind":"peak","name":"Hill of Dwarmo","lat":59.1072047,"lon":-3.0645843,"elevationM":67},{"id":"node:10933633618","kind":"peak","name":"Hackland Hill","lat":59.073009,"lon":-3.0471176,"elevationM":101},{"id":"node:12556515788","kind":"peak","name":"Costa Head","lat":59.150183,"lon":-3.1995655,"elevationM":null},{"id":"node:13384287541","kind":"peak","name":"Mansemass Hill","lat":59.1620288,"lon":-3.0880821,"elevationM":171},{"id":"node:13384287543","kind":"peak","name":"Redland Hill","lat":59.0019669,"lon":-3.2947326,"elevationM":73},{"id":"node:13384287547","kind":"peak","name":"Brown Hill","lat":59.161158,"lon":-3.0384308,"elevationM":177},{"id":"node:13384287550","kind":"peak","name":"Brae of Moan","lat":59.1810183,"lon":-3.0926178,"elevationM":123},{"id":"node:13384287559","kind":"peak","name":"Scarra","lat":59.0075558,"lon":-3.3461094,"elevationM":124},{"id":"node:13384287560","kind":"peak","name":"The Wards","lat":59.108815,"lon":-3.1393433,"elevationM":173},{"id":"node:13384287565","kind":"peak","name":"Cuffie Hill","lat":59.0184801,"lon":-3.1196493,"elevationM":145},{"id":"node:13384287566","kind":"peak","name":"Cringla Fiold","lat":59.0079591,"lon":-3.3297479,"elevationM":149}]}