{"tileKey":"la_p49_lo_p89","version":"v1-1775891056926","entries":[{"id":"node:309609340","kind":"peak","name":"Асгатын давааны хяр","lat":49.9130611,"lon":89.592712,"elevationM":3095},{"id":"node:309609525","kind":"peak","name":"Мэйрэк","lat":49.4971149,"lon":89.1118343,"elevationM":2924},{"id":"node:4894027785","kind":"peak","name":"Асхату-Даба","lat":49.8635618,"lon":89.6114635,"elevationM":3465},{"id":"node:4985354021","kind":"peak","name":"Шара-Гобийн-Ула","lat":49.5705941,"lon":89.1765403,"elevationM":null},{"id":"node:4993153541","kind":"peak","name":"Талдуайр","lat":49.9725252,"lon":89.3050075,"elevationM":3506},{"id":"node:10097283713","kind":"peak","name":"Чиворлу","lat":49.9396347,"lon":89.0738868,"elevationM":2063},{"id":"node:10113542899","kind":"peak","name":"Богуты","lat":49.7708437,"lon":89.5350551,"elevationM":3360},{"id":"node:10113968638","kind":"peak","name":"Кындыктыкуль","lat":49.8300658,"lon":89.540956,"elevationM":2999},{"id":"node:10114724217","kind":"peak","name":"Онгорхойн-Ула","lat":49.7376613,"lon":89.7141326,"elevationM":3754},{"id":"node:11186783092","kind":"peak","name":"Битүүгийн үзүүр","lat":49.0579902,"lon":89.8382009,"elevationM":null},{"id":"node:11186856056","kind":"peak","name":"Бурхан толгой","lat":49.2505294,"lon":89.0683885,"elevationM":null},{"id":"node:11186856871","kind":"peak","name":"Хогийн толгой","lat":49.0058929,"lon":89.9731605,"elevationM":null},{"id":"node:11186862896","kind":"peak","name":"Онгоц уул","lat":49.1264651,"lon":89.8346755,"elevationM":null},{"id":"node:11186871467","kind":"peak","name":"Хүрэн хайрхан уул","lat":49.0347545,"lon":89.5845904,"elevationM":null},{"id":"node:11186872717","kind":"peak","name":"Балчин толгой","lat":49.0337859,"lon":89.9130316,"elevationM":null},{"id":"node:11186876770","kind":"peak","name":"Дунд хар толгой","lat":49.0209478,"lon":89.9542288,"elevationM":null},{"id":"node:11186881941","kind":"peak","name":"Ямаат улаан","lat":49.0047519,"lon":89.8545535,"elevationM":null},{"id":"node:11186884253","kind":"peak","name":"Тэрэгт уул","lat":49.1220224,"lon":89.0408793,"elevationM":null},{"id":"node:11221865395","kind":"peak","name":"Балчин толгой","lat":49.0321199,"lon":89.9137648,"elevationM":null},{"id":"node:11221890091","kind":"peak","name":"Овоотын адгийн амны эхэн","lat":49.3817193,"lon":89.6831324,"elevationM":null},{"id":"node:11221890093","kind":"peak","name":"Улаан толгой","lat":49.1934838,"lon":89.8273418,"elevationM":null},{"id":"node:11221894170","kind":"peak","name":"Хогийн толгой","lat":49.0065153,"lon":89.9740763,"elevationM":null},{"id":"node:11221902882","kind":"peak","name":"Эрдэнэ хоо уул","lat":49.4934151,"lon":89.7763867,"elevationM":2443},{"id":"node:11221911026","kind":"peak","name":"Шилийн буурын эхний мантгар","lat":49.4194583,"lon":89.6649772,"elevationM":null},{"id":"node:11221912093","kind":"peak","name":"Ямаат улаан","lat":49.0053152,"lon":89.8546871,"elevationM":null},{"id":"node:11221918778","kind":"peak","name":"Шар толгой","lat":49.3424784,"lon":89.7689056,"elevationM":null},{"id":"node:11221923273","kind":"peak","name":"Дунд хар толгой","lat":49.0211939,"lon":89.950473,"elevationM":null},{"id":"node:11221923274","kind":"peak","name":"Балчингийн уул","lat":49.0976873,"lon":89.9547954,"elevationM":null},{"id":"node:11221925536","kind":"peak","name":"Онгоц уул","lat":49.1282999,"lon":89.8359291,"elevationM":null},{"id":"node:11221927375","kind":"peak","name":"Хөх адар","lat":49.0123728,"lon":89.3643736,"elevationM":null},{"id":"node:11221934380","kind":"peak","name":"Хүйтэн хошуу","lat":49.1367487,"lon":89.8648049,"elevationM":null},{"id":"node:11221934998","kind":"peak","name":"Битүүгийн үзүүр","lat":49.0588752,"lon":89.8382928,"elevationM":null},{"id":"node:11221935051","kind":"peak","name":"Чулуутын улаан уул","lat":49.2752652,"lon":89.9084748,"elevationM":null},{"id":"node:11221935856","kind":"peak","name":"Ангалагийн өндөр","lat":49.180089,"lon":89.9466584,"elevationM":null},{"id":"node:11351538350","kind":"peak","name":"Эрдэнэ хүрэн уул","lat":49.4844701,"lon":89.5930608,"elevationM":null},{"id":"node:11351599236","kind":"peak","name":"Битүүтийн эх","lat":49.1041442,"lon":89.4823841,"elevationM":null},{"id":"node:11351612180","kind":"peak","name":"Бугын салаа уул","lat":49.5090342,"lon":89.4806449,"elevationM":null},{"id":"node:11351612379","kind":"peak","name":"Хар магнайн уул","lat":49.5289746,"lon":89.781544,"elevationM":2710},{"id":"node:11351612669","kind":"peak","name":"Жиргалант уул","lat":49.6150695,"lon":89.4216495,"elevationM":null},{"id":"node:13037956640","kind":"peak","name":"Ямаат уул","lat":49.5529998,"lon":89.8024194,"elevationM":2812},{"id":"node:13038224502","kind":"peak","name":"Дөшийн уул","lat":49.521134,"lon":89.9462293,"elevationM":2786},{"id":"node:13038224503","kind":"peak","name":"Хөхтийн цагаанжинст уул","lat":49.5935861,"lon":89.8086892,"elevationM":2924},{"id":"node:13038224504","kind":"peak","name":"Овгор уул","lat":49.5978187,"lon":89.987271,"elevationM":3166}]}