{"tileKey":"la_p11_lo_m72","version":"v1-1775891056926","entries":[{"id":"node:618030542","kind":"peak","name":"Morro Sakáralahu","lat":11.921667,"lon":-71.787222,"elevationM":298},{"id":"node:618030543","kind":"peak","name":"Morro Jajets","lat":11.923889,"lon":-71.93,"elevationM":233},{"id":"node:618030544","kind":"peak","name":"Cerro Káucharipaha","lat":11.924444,"lon":-71.727222,"elevationM":286},{"id":"node:618030545","kind":"peak","name":"Alto Kaitpahi","lat":11.905833,"lon":-71.921667,"elevationM":290},{"id":"node:618030546","kind":"peak","name":"Alto Santa Ana","lat":11.925278,"lon":-71.873056,"elevationM":216},{"id":"node:618030547","kind":"peak","name":"Loma Mochó","lat":11.795278,"lon":-71.903889,"elevationM":167},{"id":"node:618030548","kind":"peak","name":"Cerro Tanjarehe","lat":11.976389,"lon":-71.819722,"elevationM":283},{"id":"node:618030550","kind":"peak","name":"Loma Yurumaha","lat":11.812222,"lon":-71.5575,"elevationM":191},{"id":"node:618030552","kind":"peak","name":"Loma Porop","lat":11.774167,"lon":-71.706944,"elevationM":261},{"id":"node:618030553","kind":"peak","name":"Loma Púruichí","lat":11.765,"lon":-71.682222,"elevationM":204},{"id":"node:618030554","kind":"peak","name":"Loma Lata","lat":11.913056,"lon":-71.672778,"elevationM":221},{"id":"node:618030555","kind":"peak","name":"Morro de Kepsi","lat":11.7775,"lon":-71.6175,"elevationM":106},{"id":"node:618030556","kind":"peak","name":"Alto de Paipara","lat":11.782778,"lon":-71.614167,"elevationM":112},{"id":"node:703382063","kind":"peak","name":"Cerro La Teta","lat":11.7148465,"lon":-71.9775091,"elevationM":44},{"id":"node:703382081","kind":"peak","name":"Lomas Guesicas","lat":11.6904412,"lon":-71.7949521,"elevationM":42},{"id":"node:703382132","kind":"peak","name":"Loma Auraro","lat":11.8485714,"lon":-71.7188402,"elevationM":154},{"id":"node:703382137","kind":"peak","name":"Lomas Kayushirram","lat":11.8643115,"lon":-71.8076373,"elevationM":139},{"id":"node:703382139","kind":"peak","name":"Serrania De Coinus","lat":11.7821333,"lon":-71.7912293,"elevationM":222},{"id":"node:703382145","kind":"peak","name":"Alto Santa Ana","lat":11.9287028,"lon":-71.8698225,"elevationM":150},{"id":"node:703382151","kind":"peak","name":"Loma Sarih","lat":11.9211193,"lon":-71.8761651,"elevationM":137},{"id":"node:703382152","kind":"peak","name":"Loma Manesi","lat":11.8924396,"lon":-71.789161,"elevationM":180},{"id":"node:703382153","kind":"peak","name":"Loma Huanorupaha","lat":11.9114675,"lon":-71.812739,"elevationM":238},{"id":"node:703382294","kind":"peak","name":"Loma Husoruhu","lat":11.9543491,"lon":-71.8765788,"elevationM":135},{"id":"node:703382322","kind":"peak","name":"Serrania De Simarua","lat":11.9751694,"lon":-71.8109465,"elevationM":135},{"id":"node:703382446","kind":"peak","name":"Loma Luz","lat":11.9141929,"lon":-71.6692998,"elevationM":172},{"id":"node:703382460","kind":"peak","name":"Alto De Paquira","lat":11.7863217,"lon":-71.6186571,"elevationM":60},{"id":"node:703382462","kind":"peak","name":"Cerro Kachamapa","lat":11.9214553,"lon":-71.7126152,"elevationM":159},{"id":"node:9064109196","kind":"peak","name":"Meseta Occidental","lat":11.8500393,"lon":-71.3258493,"elevationM":null},{"id":"node:9064109197","kind":"peak","name":"Meseta Oriental","lat":11.8484564,"lon":-71.3248944,"elevationM":null}]}