{"tileKey":"la_p24_lo_p97","version":"v1-1775891056926","entries":[{"id":"node:4375915286","kind":"peak","name":"衣裳河头山","lat":24.8461199,"lon":97.7019014,"elevationM":null},{"id":"node:4375915288","kind":"peak","name":"龙垒坪山","lat":24.8392901,"lon":97.7077487,"elevationM":null},{"id":"node:4375919444","kind":"peak","name":"နာဂူး","lat":24.9688951,"lon":97.7090361,"elevationM":1366},{"id":"node:4375928895","kind":"peak","name":"Point 1355","lat":24.9902979,"lon":97.7024567,"elevationM":1355},{"id":"node:4375928896","kind":"peak","name":"Point 853","lat":24.9790754,"lon":97.6816427,"elevationM":853},{"id":"node:6427130219","kind":"peak","name":"帕亮山","lat":24.0248807,"lon":97.9154763,"elevationM":null},{"id":"node:6427141591","kind":"peak","name":"雷贺哈山","lat":24.0223721,"lon":97.9369715,"elevationM":null},{"id":"node:6427141592","kind":"peak","name":"广埋央号山","lat":24.0247828,"lon":97.944345,"elevationM":null},{"id":"node:6427143490","kind":"peak","name":"顿哄山","lat":24.0342192,"lon":97.9429932,"elevationM":null},{"id":"node:6427159151","kind":"peak","name":"广麻坡","lat":24.0543655,"lon":97.9102547,"elevationM":null},{"id":"node:6427163637","kind":"peak","name":"弄木山","lat":24.0724449,"lon":97.9373987,"elevationM":null},{"id":"node:6427163638","kind":"peak","name":"勐力山","lat":24.0991746,"lon":97.9530951,"elevationM":null},{"id":"node:6427163639","kind":"peak","name":"弄贤山","lat":24.0829651,"lon":97.9226788,"elevationM":null},{"id":"node:6427166170","kind":"peak","name":"广马山","lat":24.1157446,"lon":97.9693922,"elevationM":null},{"id":"node:6427166171","kind":"peak","name":"广弄山","lat":24.1235843,"lon":97.9791083,"elevationM":null},{"id":"node:8744615830","kind":"peak","name":"သီဟ ကုန်း","lat":24.8526517,"lon":97.7205392,"elevationM":2340},{"id":"node:8744654918","kind":"peak","name":"သီဟ ၂","lat":24.8783131,"lon":97.6847226,"elevationM":2000},{"id":"node:8744686522","kind":"peak","name":"သီဟ ၅","lat":24.8880475,"lon":97.7208315,"elevationM":1880},{"id":"node:11217521354","kind":"peak","name":"香山","lat":24.7198804,"lon":97.7065018,"elevationM":null},{"id":"node:11217521355","kind":"peak","name":"大竹棚山","lat":24.7358744,"lon":97.7153953,"elevationM":null},{"id":"node:11217524413","kind":"peak","name":"老官坡","lat":24.5730511,"lon":97.7316402,"elevationM":null},{"id":"node:11217524515","kind":"peak","name":"大板山","lat":24.4658229,"lon":97.6761637,"elevationM":null},{"id":"node:11217524516","kind":"peak","name":"银洞山","lat":24.4610581,"lon":97.6639063,"elevationM":null},{"id":"node:11217524517","kind":"peak","name":"白石头山","lat":24.4323238,"lon":97.6576239,"elevationM":null},{"id":"node:11217694531","kind":"peak","name":"屋鲁崩山","lat":24.7188094,"lon":97.5804339,"elevationM":null},{"id":"node:11217694532","kind":"peak","name":"阿困坡头山","lat":24.7245432,"lon":97.5854407,"elevationM":null},{"id":"node:11217694533","kind":"peak","name":"高利坡头山","lat":24.7359566,"lon":97.5922874,"elevationM":null},{"id":"node:11217698058","kind":"peak","name":"加撒格唐崩山","lat":24.5892638,"lon":97.586825,"elevationM":null},{"id":"node:11217698059","kind":"peak","name":"没烟崩山","lat":24.5870462,"lon":97.5950461,"elevationM":null},{"id":"node:11217698062","kind":"peak","name":"浪速山","lat":24.5523623,"lon":97.5757051,"elevationM":null},{"id":"node:11217698063","kind":"peak","name":"马脖子山","lat":24.558236,"lon":97.5547995,"elevationM":null},{"id":"node:13288579379","kind":"peak","name":"胜那崩山","lat":24.3012061,"lon":97.7350188,"elevationM":null},{"id":"node:13335540646","kind":"peak","name":"雷练崩山","lat":24.1374308,"lon":97.8939552,"elevationM":null},{"id":"node:13335540647","kind":"peak","name":"南面山","lat":24.1044426,"lon":97.726959,"elevationM":null},{"id":"node:13335540648","kind":"peak","name":"等扎梁子","lat":24.0514053,"lon":97.7347375,"elevationM":null},{"id":"node:13335540649","kind":"peak","name":"南管山","lat":24.0352287,"lon":97.7840083,"elevationM":null},{"id":"node:13335540650","kind":"peak","name":"广宋山","lat":24.0070828,"lon":97.7544687,"elevationM":null},{"id":"node:13335540658","kind":"peak","name":"雷勐抹山","lat":24.0370377,"lon":97.831647,"elevationM":null},{"id":"node:13335540659","kind":"peak","name":"雷麻杏当山","lat":24.0419522,"lon":97.8376107,"elevationM":null},{"id":"node:13335540660","kind":"peak","name":"克道山","lat":24.0871972,"lon":97.7120327,"elevationM":null},{"id":"node:13335540661","kind":"peak","name":"户瓦色勐崩山","lat":24.078782,"lon":97.7622908,"elevationM":null},{"id":"node:13335540662","kind":"peak","name":"户兰色勐崩山","lat":24.1497679,"lon":97.8655205,"elevationM":null},{"id":"node:13335540663","kind":"peak","name":"广达崩山","lat":24.1107354,"lon":97.8589561,"elevationM":null},{"id":"node:13335540664","kind":"peak","name":"雷练山","lat":24.0150978,"lon":97.719681,"elevationM":null},{"id":"node:13335540666","kind":"peak","name":"峦允阳山","lat":24.0471402,"lon":97.9902676,"elevationM":null},{"id":"node:13335540668","kind":"peak","name":"下户卡山","lat":24.1215705,"lon":97.9109702,"elevationM":null},{"id":"node:13335540669","kind":"peak","name":"广海山","lat":24.1100819,"lon":97.9288626,"elevationM":null},{"id":"node:13335540670","kind":"peak","name":"掌嘎山","lat":24.1207807,"lon":97.9405777,"elevationM":null},{"id":"node:13335540672","kind":"peak","name":"雷缅秀山","lat":24.0353207,"lon":97.8509377,"elevationM":null},{"id":"node:13335540673","kind":"peak","name":"雷门山","lat":24.0313439,"lon":97.9598811,"elevationM":null},{"id":"node:13335540674","kind":"peak","name":"滚弄山","lat":24.1521488,"lon":97.9778732,"elevationM":null},{"id":"node:13335540675","kind":"peak","name":"夺中广山","lat":24.1340498,"lon":97.9226663,"elevationM":null},{"id":"node:13335540676","kind":"peak","name":"早腊崩山","lat":24.1397705,"lon":97.9343407,"elevationM":null},{"id":"node:13335540678","kind":"peak","name":"雷广允山","lat":24.0486662,"lon":97.8537409,"elevationM":null},{"id":"node:13335540679","kind":"peak","name":"毛枝崩","lat":24.1179537,"lon":97.8285159,"elevationM":null},{"id":"node:13335540680","kind":"peak","name":"雷弄龙山","lat":24.0617694,"lon":97.6761008,"elevationM":null},{"id":"node:13335540681","kind":"peak","name":"朵牛山","lat":24.0251862,"lon":97.7772421,"elevationM":null},{"id":"node:13335540682","kind":"peak","name":"芒龙崩山","lat":24.0255303,"lon":97.6936273,"elevationM":null},{"id":"node:13335540688","kind":"peak","name":"允建山","lat":24.0275388,"lon":97.8402566,"elevationM":null},{"id":"node:13335540689","kind":"peak","name":"老彭山","lat":24.1264186,"lon":97.9366032,"elevationM":null},{"id":"node:13335540690","kind":"peak","name":"龙尚崩山","lat":24.1449351,"lon":97.9425016,"elevationM":null},{"id":"node:13335540691","kind":"peak","name":"营盘山","lat":24.0448154,"lon":97.7431653,"elevationM":null},{"id":"node:13335540692","kind":"peak","name":"帕奘山","lat":24.1467565,"lon":97.87636,"elevationM":null},{"id":"node:13335540693","kind":"peak","name":"弄尚崩山","lat":24.1256611,"lon":97.7367378,"elevationM":null},{"id":"node:13335540694","kind":"peak","name":"龙坎崩山","lat":24.0467967,"lon":97.7099431,"elevationM":null},{"id":"node:13335540695","kind":"peak","name":"木达文山","lat":24.0218543,"lon":97.74031,"elevationM":null},{"id":"node:13335540696","kind":"peak","name":"糯欧列山","lat":24.0163988,"lon":97.6313729,"elevationM":null},{"id":"node:13335540702","kind":"peak","name":"峦绕山","lat":24.0442289,"lon":97.9862265,"elevationM":null},{"id":"node:13335540705","kind":"peak","name":"雷洗比山","lat":24.0488243,"lon":97.8377316,"elevationM":null},{"id":"node:13335540706","kind":"peak","name":"何卡山","lat":24.1094626,"lon":97.9171143,"elevationM":null},{"id":"node:13335540708","kind":"peak","name":"南帕当山","lat":24.1007967,"lon":97.9076468,"elevationM":null},{"id":"node:13335540709","kind":"peak","name":"雷允汉山","lat":24.0115594,"lon":97.8311928,"elevationM":null},{"id":"node:13335540710","kind":"peak","name":"雷缅能山","lat":24.0587997,"lon":97.8548857,"elevationM":null},{"id":"node:13335540711","kind":"peak","name":"雷列山","lat":24.1458034,"lon":97.985409,"elevationM":null},{"id":"node:13335540712","kind":"peak","name":"户永山","lat":24.1518635,"lon":97.9564527,"elevationM":null},{"id":"node:13335540713","kind":"peak","name":"布劳东山","lat":24.1421485,"lon":97.969676,"elevationM":null},{"id":"node:13335540714","kind":"peak","name":"尖刀山","lat":24.1372414,"lon":97.8277162,"elevationM":null},{"id":"node:13335540715","kind":"peak","name":"典勐崩山","lat":24.1094326,"lon":97.8836756,"elevationM":null},{"id":"node:13335540716","kind":"peak","name":"芒杏山","lat":24.0906518,"lon":97.8897167,"elevationM":null},{"id":"node:13335540717","kind":"peak","name":"勐典山","lat":24.1169959,"lon":97.7915233,"elevationM":null},{"id":"node:13335540720","kind":"peak","name":"实朋育山","lat":24.0318053,"lon":97.701741,"elevationM":null},{"id":"node:13335540721","kind":"peak","name":"围角山","lat":24.0409168,"lon":97.6664344,"elevationM":null},{"id":"node:13335540728","kind":"peak","name":"峦双山","lat":24.0763503,"lon":97.9820224,"elevationM":null},{"id":"node:13335540730","kind":"peak","name":"雷夜滚山","lat":24.0602026,"lon":97.9183575,"elevationM":null},{"id":"node:13335540732","kind":"peak","name":"莫里山","lat":24.1315631,"lon":97.9948691,"elevationM":null},{"id":"node:13335540733","kind":"peak","name":"布鲁东山","lat":24.1257491,"lon":97.953842,"elevationM":null},{"id":"node:13335559311","kind":"peak","name":"斑尊山","lat":24.0828281,"lon":97.9652595,"elevationM":null},{"id":"node:13335950930","kind":"peak","name":"石乌崩山","lat":24.3409361,"lon":97.6801288,"elevationM":null},{"id":"node:13335950931","kind":"peak","name":"弄尚广山","lat":24.3126102,"lon":97.683988,"elevationM":null},{"id":"node:13335950932","kind":"peak","name":"开邦崩山","lat":24.3377319,"lon":97.6850205,"elevationM":null},{"id":"node:13335950933","kind":"peak","name":"石墩子山","lat":24.8600935,"lon":97.8112397,"elevationM":null},{"id":"node:13335950938","kind":"peak","name":"勒丁坪山","lat":24.8324375,"lon":97.7445985,"elevationM":null},{"id":"node:13335950942","kind":"peak","name":"农美丘山","lat":24.9172007,"lon":97.7646969,"elevationM":null},{"id":"node:13335950943","kind":"peak","name":"峦兴山","lat":24.3897746,"lon":97.6890302,"elevationM":null},{"id":"node:13335950944","kind":"peak","name":"吴浪崩山","lat":24.6703266,"lon":97.573539,"elevationM":null},{"id":"node:13335950945","kind":"peak","name":"阿江梁子","lat":24.7703037,"lon":97.6046077,"elevationM":null},{"id":"node:13335950946","kind":"peak","name":"崩线山","lat":24.3553041,"lon":97.7342745,"elevationM":null},{"id":"node:13335950947","kind":"peak","name":"羊圈山","lat":24.3620875,"lon":97.7343668,"elevationM":null},{"id":"node:13335950948","kind":"peak","name":"邦西广山","lat":24.2969192,"lon":97.6908076,"elevationM":null},{"id":"node:13335950949","kind":"peak","name":"傈僳山","lat":24.3491875,"lon":97.7131831,"elevationM":null},{"id":"node:13335950952","kind":"peak","name":"勒索山","lat":24.6116584,"lon":97.5838877,"elevationM":null},{"id":"node:13335950957","kind":"peak","name":"鹅倾梁子","lat":24.7805631,"lon":97.6389008,"elevationM":null},{"id":"node:13335950958","kind":"peak","name":"骑马树山","lat":24.8274452,"lon":97.763407,"elevationM":null},{"id":"node:13335950959","kind":"peak","name":"一把伞","lat":24.8053352,"lon":97.6661111,"elevationM":null},{"id":"node:13335950960","kind":"peak","name":"拉沙口山","lat":24.8153512,"lon":97.67036,"elevationM":null},{"id":"node:13335950962","kind":"peak","name":"龙汤山","lat":24.9684657,"lon":97.7446637,"elevationM":null},{"id":"node:13335950964","kind":"peak","name":"木如崩山","lat":24.4784471,"lon":97.6134346,"elevationM":null},{"id":"node:13335950965","kind":"peak","name":"蝙蝠崩山","lat":24.4845132,"lon":97.5572276,"elevationM":null},{"id":"node:13335950966","kind":"peak","name":"包其崩山","lat":24.4458729,"lon":97.536934,"elevationM":null},{"id":"node:13335950967","kind":"peak","name":"东抱光山","lat":24.7392452,"lon":97.5628688,"elevationM":null},{"id":"node:13335950968","kind":"peak","name":"杨乌坡","lat":24.7062176,"lon":97.6046436,"elevationM":null},{"id":"node:13335950969","kind":"peak","name":"标洼崩山","lat":24.3302161,"lon":97.6732058,"elevationM":null},{"id":"node:13335950970","kind":"peak","name":"樱花洼山","lat":24.3453867,"lon":97.6904891,"elevationM":null},{"id":"node:13335950971","kind":"peak","name":"窝穹梁子","lat":24.7527212,"lon":97.6124527,"elevationM":null},{"id":"node:13335950983","kind":"peak","name":"瓦拉崩山","lat":24.8347408,"lon":97.7148606,"elevationM":null},{"id":"node:13335950985","kind":"peak","name":"茅草坡山","lat":24.8236031,"lon":97.7656121,"elevationM":null},{"id":"node:13335950986","kind":"peak","name":"公东坪山","lat":24.819252,"lon":97.6717116,"elevationM":null},{"id":"node:13335950987","kind":"peak","name":"依巴撒山","lat":24.8246358,"lon":97.6754822,"elevationM":null},{"id":"node:13335950988","kind":"peak","name":"大石洞坡山","lat":24.8311115,"lon":97.6885111,"elevationM":null},{"id":"node:13335950990","kind":"peak","name":"大石坡头山","lat":24.9107381,"lon":97.7691491,"elevationM":null},{"id":"node:13335950992","kind":"peak","name":"南补尖山","lat":24.3738281,"lon":97.7521028,"elevationM":null},{"id":"node:13335950993","kind":"peak","name":"邦什广山","lat":24.3058497,"lon":97.6838759,"elevationM":null},{"id":"node:13335950994","kind":"peak","name":"邦千崩山","lat":24.3420203,"lon":97.6833619,"elevationM":null},{"id":"node:13335950995","kind":"peak","name":"广英山","lat":24.3446514,"lon":97.7314921,"elevationM":null},{"id":"node:13335950996","kind":"peak","name":"珍买崩山","lat":24.3684694,"lon":97.7223178,"elevationM":null},{"id":"node:13335950997","kind":"peak","name":"三台山","lat":24.3320545,"lon":97.6589058,"elevationM":null},{"id":"node:13335950998","kind":"peak","name":"路边山","lat":24.5734978,"lon":97.5896165,"elevationM":null},{"id":"node:13335951008","kind":"peak","name":"岔河头","lat":24.8272679,"lon":97.7483725,"elevationM":null},{"id":"node:13335951010","kind":"peak","name":"苦抱沟梁子","lat":24.8225866,"lon":97.6735963,"elevationM":null},{"id":"node:13335951011","kind":"peak","name":"两头山","lat":24.8411271,"lon":97.7877368,"elevationM":null},{"id":"node:13335951012","kind":"peak","name":"屯岩河头山","lat":24.8295634,"lon":97.7620774,"elevationM":null},{"id":"node:13335951013","kind":"peak","name":"白岩坡山","lat":24.8722116,"lon":97.7974767,"elevationM":null},{"id":"node:13335951015","kind":"peak","name":"对门山","lat":24.3962444,"lon":97.71576,"elevationM":null},{"id":"node:13335951016","kind":"peak","name":"白石头山","lat":24.4472252,"lon":97.6809825,"elevationM":null},{"id":"node:13335951017","kind":"peak","name":"克强山","lat":24.4140414,"lon":97.6844706,"elevationM":null},{"id":"node:13335951018","kind":"peak","name":"石灰山","lat":24.4447246,"lon":97.6745587,"elevationM":null},{"id":"node:13335951019","kind":"peak","name":"双尖山","lat":24.3864012,"lon":97.6969108,"elevationM":null},{"id":"node:13335951020","kind":"peak","name":"朝阳山","lat":24.385116,"lon":97.7030833,"elevationM":null},{"id":"node:13335951021","kind":"peak","name":"曼线尖山","lat":24.3437375,"lon":97.7186382,"elevationM":null},{"id":"node:13335951022","kind":"peak","name":"板凳山","lat":24.3094947,"lon":97.6651892,"elevationM":null},{"id":"node:13335951023","kind":"peak","name":"邦千山","lat":24.3485541,"lon":97.6674368,"elevationM":null},{"id":"node:13335951024","kind":"peak","name":"勒丁崩山","lat":24.3420601,"lon":97.6650403,"elevationM":null},{"id":"node:13335951025","kind":"peak","name":"邦爽崩山","lat":24.3565257,"lon":97.7135487,"elevationM":null},{"id":"node:13335951028","kind":"peak","name":"蕨叶坡山","lat":24.8536709,"lon":97.8034228,"elevationM":null},{"id":"node:13335951029","kind":"peak","name":"尖山","lat":24.8486909,"lon":97.79632,"elevationM":null},{"id":"node:13335951039","kind":"peak","name":"大石洞山","lat":24.8323549,"lon":97.7298739,"elevationM":null},{"id":"node:13335951040","kind":"peak","name":"拉扎谷","lat":24.7774,"lon":97.6356839,"elevationM":null},{"id":"node:13335951041","kind":"peak","name":"石灰窑山","lat":24.8386971,"lon":97.7840218,"elevationM":null},{"id":"node:13335951042","kind":"peak","name":"滚朋崩山","lat":24.9557597,"lon":97.7579855,"elevationM":null},{"id":"node:13335951043","kind":"peak","name":"铁莫崩山","lat":24.4529599,"lon":97.5536462,"elevationM":null},{"id":"node:13335951415","kind":"peak","name":"吕龙山","lat":24.3215209,"lon":97.661662,"elevationM":null},{"id":"node:13335951416","kind":"peak","name":"南多山","lat":24.1634591,"lon":97.7587058,"elevationM":null},{"id":"node:13335951417","kind":"peak","name":"高良贡山","lat":24.8711404,"lon":97.8329195,"elevationM":null},{"id":"node:13335951418","kind":"peak","name":"尖山","lat":24.7917937,"lon":97.7137573,"elevationM":null},{"id":"node:13335951419","kind":"peak","name":"摇钱树坡","lat":24.7662797,"lon":97.677577,"elevationM":null},{"id":"node:13335951420","kind":"peak","name":"双山","lat":24.8022569,"lon":97.7252577,"elevationM":null},{"id":"node:13335951421","kind":"peak","name":"六顶山","lat":24.6304497,"lon":97.5964343,"elevationM":null},{"id":"node:13335951423","kind":"peak","name":"冷山","lat":24.8858348,"lon":97.8063898,"elevationM":null},{"id":"node:13335951424","kind":"peak","name":"磨石河山","lat":24.5608865,"lon":97.6356039,"elevationM":null},{"id":"node:13335951425","kind":"peak","name":"白石头山","lat":24.5218532,"lon":97.6410912,"elevationM":null},{"id":"node:13335951426","kind":"peak","name":"仙岛山","lat":24.4407001,"lon":97.7085008,"elevationM":null}]}